{"type": "FeatureCollection", "features": [{"geometry": {"type": "Point", "coordinates": [-79.53106, 43.63624]}, "type": "Feature", "id": 705043004273209344, "properties": {"loc": [-79.53106, 43.63624], "screen_name": "PETTNELLI", "text": "Not spring yet , but we are blessed to have these #zucchiniblossoms\u2026 https://t.co/2dJZQiTpEB", "created_at": "Wed Mar 02 14:52:05 +0000 2016", "time": 1456930326.200923, "tid": 705043004273209344, "nei_num": "014"}}, {"geometry": {"type": "Point", "coordinates": [-79.52853, 43.64935]}, "type": "Feature", "id": 705071809830346752, "properties": {"loc": [-79.52853, 43.64935], "screen_name": "miss_lizee", "text": "Mise en place for our #lovelentils cooking workshop today! @CDNlentils @ Cirillo's Culinary Academy https://t.co/CsfL7tXT0A", "created_at": "Wed Mar 02 16:46:33 +0000 2016", "time": 1456937194.005731, "tid": 705071809830346752, "nei_num": "014"}}, {"geometry": {"type": "Point", "coordinates": [-79.52853, 43.64935]}, "type": "Feature", "id": 705075963931930624, "properties": {"loc": [-79.52853, 43.64935], "screen_name": "miss_lizee", "text": "Baked eggs with #lentils, peppers &amp; tomatoes #lovelentils @CDNlentils @confessionsRD\u2026 https://t.co/mds0smE05x", "created_at": "Wed Mar 02 17:03:04 +0000 2016", "time": 1456938184.332374, "tid": 705075963931930624, "nei_num": "014"}}, {"geometry": {"type": "Point", "coordinates": [-79.52866, 43.64848]}, "type": "Feature", "id": 705096066782273536, "properties": {"loc": [-79.52866, 43.64848], "screen_name": "SixthStreetPub", "text": "On a Day like Today you can't Beat a Bowl of Homemade Chicken Noodle Soup #torontolife\u2026 https://t.co/FdmfaeJODq", "created_at": "Wed Mar 02 18:22:57 +0000 2016", "time": 1456942977.411969, "tid": 705096066782273536, "nei_num": "014"}}, {"geometry": {"type": "Point", "coordinates": [-79.5230279, 43.6443806]}, "type": "Feature", "id": 705106870642446336, "properties": {"loc": [-79.5230279, 43.6443806], "screen_name": "CIBCcareers", "text": "Can you recommend anyone for this #Sales #job? https://t.co/nEvvlv3kZo #cibc #cibcjobs #Etobicoke, Ontario #Hiring", "created_at": "Wed Mar 02 19:05:52 +0000 2016", "time": 1456945553.094775, "tid": 705106870642446336, "nei_num": "014"}}, {"geometry": {"type": "Point", "coordinates": [-79.5231, 43.6444]}, "type": "Feature", "id": 705138825731973122, "properties": {"loc": [-79.5231, 43.6444], "screen_name": "EmmaFerguson18", "text": "\ud83d\ude48 @ Etobicoke https://t.co/R0mrlvxDlo", "created_at": "Wed Mar 02 21:12:51 +0000 2016", "time": 1456953171.904215, "tid": 705138825731973122, "nei_num": "014"}}, {"geometry": {"type": "Point", "coordinates": [-79.53359, 43.64389]}, "type": "Feature", "id": 705140346175557632, "properties": {"loc": [-79.53359, 43.64389], "screen_name": "StJamesGateTO", "text": "***** MENU DEVELOPMENT *****\nHow about this for the summer menu!\nThe Royale with Cheese\u2026 https://t.co/gP3EFp5OSh", "created_at": "Wed Mar 02 21:18:54 +0000 2016", "time": 1456953534.394589, "tid": 705140346175557632, "nei_num": "014"}}, {"geometry": {"type": "Point", "coordinates": [-79.53068, 43.64605]}, "type": "Feature", "id": 705141352825167873, "properties": {"loc": [-79.53068, 43.64605], "screen_name": "mabellearts", "text": "The new Mabelle Park shed covered in new snow @ MABELLEarts https://t.co/8UlKXsDeN2", "created_at": "Wed Mar 02 21:22:54 +0000 2016", "time": 1456953774.304027, "tid": 705141352825167873, "nei_num": "014"}}, {"geometry": {"type": "Point", "coordinates": [-79.52455432, 43.64485652]}, "type": "Feature", "id": 705162519757889536, "properties": {"loc": [-79.52455432, 43.64485652], "screen_name": "aetheralonso", "text": "#feelgood #toronto @ Islington Subway Station https://t.co/onZYYW50di", "created_at": "Wed Mar 02 22:47:00 +0000 2016", "time": 1456958820.973268, "tid": 705162519757889536, "nei_num": "014"}}, {"geometry": {"type": "Point", "coordinates": [-79.539299, 43.6378288]}, "type": "Feature", "id": 705172207337537536, "properties": {"loc": [-79.539299, 43.6378288], "screen_name": "JYarkony", "text": "So tough coming back from a press trip and having to go back to regular food... Oh, wait. #sushi\u2026 https://t.co/W4raSaqbvR", "created_at": "Wed Mar 02 23:25:30 +0000 2016", "time": 1456961130.742071, "tid": 705172207337537536, "nei_num": "014"}}, {"geometry": {"type": "Point", "coordinates": [-79.53395785, 43.6178602]}, "type": "Feature", "id": 705172508362805250, "properties": {"loc": [-79.53395785, 43.6178602], "screen_name": "brillntknitwit", "text": "Stocked up for future projects when mobile. Tired now. (at @IKEACanada in Etobicoke, ON) https://t.co/cesY2pd2GP", "created_at": "Wed Mar 02 23:26:42 +0000 2016", "time": 1456961202.421035, "tid": 705172508362805250, "nei_num": "014"}}, {"geometry": {"type": "Point", "coordinates": [-79.5219638, 43.6455477]}, "type": "Feature", "id": 705180453838303232, "properties": {"loc": [-79.5219638, 43.6455477], "screen_name": "JoinApex", "text": "We're #hiring! Click to apply: Outside Sales Representative (Account Manager) - https://t.co/RBBYcVuwWk #Sales #Toronto, Ontario #Job #Jobs", "created_at": "Wed Mar 02 23:58:16 +0000 2016", "time": 1456963096.754699, "tid": 705180453838303232, "nei_num": "014"}}, {"geometry": {"type": "Point", "coordinates": [-79.5219638, 43.6455477]}, "type": "Feature", "id": 705188064063172609, "properties": {"loc": [-79.5219638, 43.6455477], "screen_name": "JoinApex", "text": "Join the Apex Systems team! See our latest #Sales #job opening here: https://t.co/4OQqBLhgom #Toronto, Ontario #Hiring", "created_at": "Thu Mar 03 00:28:30 +0000 2016", "time": 1456964911.267787, "tid": 705188064063172609, "nei_num": "014"}}, {"geometry": {"type": "Point", "coordinates": [-79.534217, 43.618151]}, "type": "Feature", "id": 705190317797056513, "properties": {"loc": [-79.534217, 43.618151], "screen_name": "samkj27", "text": "Yes, we're at #IKEA again! #Toronto #torontoigers #kids #fun @ IKEA Canada https://t.co/UaDfp4G4G9", "created_at": "Thu Mar 03 00:37:28 +0000 2016", "time": 1456965448.488576, "tid": 705190317797056513, "nei_num": "014"}}, {"geometry": {"type": "Point", "coordinates": [-79.5606537, 43.6097641]}, "type": "Feature", "id": 705216309546651652, "properties": {"loc": [-79.5606537, 43.6097641], "screen_name": "katcasale", "text": "#GNO @ JOEY Sherway https://t.co/SbCggH90ae", "created_at": "Thu Mar 03 02:20:45 +0000 2016", "time": 1456971645.412252, "tid": 705216309546651652, "nei_num": "014"}}, {"geometry": {"type": "Point", "coordinates": [-79.53068, 43.64605]}, "type": "Feature", "id": 705219506252050433, "properties": {"loc": [-79.53068, 43.64605], "screen_name": "mabellearts", "text": "Park of Many Paths @ MABELLEarts https://t.co/GrNMtOiN2M", "created_at": "Thu Mar 03 02:33:27 +0000 2016", "time": 1456972407.645773, "tid": 705219506252050433, "nei_num": "014"}}, {"geometry": {"type": "Point", "coordinates": [-79.542123, 43.63380188]}, "type": "Feature", "id": 705272154816839681, "properties": {"loc": [-79.542123, 43.63380188], "screen_name": "SideRaptor", "text": "Back at it again @ Bowlerama West - Etobicoke https://t.co/IYpSeoUTNN", "created_at": "Thu Mar 03 06:02:39 +0000 2016", "time": 1456984960.039054, "tid": 705272154816839681, "nei_num": "014"}}, {"geometry": {"type": "Point", "coordinates": [-79.5203927, 43.63609517]}, "type": "Feature", "id": 705286548145762305, "properties": {"loc": [-79.5203927, 43.63609517], "screen_name": "roanncute", "text": "I'm at @TimHortons in Toronto, ON https://t.co/rYgENkpaRX", "created_at": "Thu Mar 03 06:59:51 +0000 2016", "time": 1456988391.578176, "tid": 705286548145762305, "nei_num": "014"}}, {"geometry": {"type": "Point", "coordinates": [-79.5204476, 43.63589549]}, "type": "Feature", "id": 705303489375838208, "properties": {"loc": [-79.5204476, 43.63589549], "screen_name": "roanncute", "text": "I'm at The Garage Bar https://t.co/Y8UuArxRzy", "created_at": "Thu Mar 03 08:07:10 +0000 2016", "time": 1456992430.70869, "tid": 705303489375838208, "nei_num": "014"}}, {"geometry": {"type": "Point", "coordinates": [-79.5379597, 43.6402786]}, "type": "Feature", "id": 705379869912227840, "properties": {"loc": [-79.5379597, 43.6402786], "screen_name": "tmj_gta_hrta", "text": "Interested in a #Hospitality #job near 5230 DUNDAS ST W, #TORONTO, ON? This could be a great fit: https://t.co/JcNZhznoBj #Veterans #Hiring", "created_at": "Thu Mar 03 13:10:40 +0000 2016", "time": 1457010641.460022, "tid": 705379869912227840, "nei_num": "014"}}, {"geometry": {"type": "Point", "coordinates": [-79.534217, 43.618151]}, "type": "Feature", "id": 705380374692524033, "properties": {"loc": [-79.534217, 43.618151], "screen_name": "igorKanshyn", "text": "Baby bag @ IKEA Canada https://t.co/tXCjJtmLJl", "created_at": "Thu Mar 03 13:12:41 +0000 2016", "time": 1457010761.785028, "tid": 705380374692524033, "nei_num": "014"}}, {"geometry": {"type": "Point", "coordinates": [-79.5607695, 43.6136517]}, "type": "Feature", "id": 705434174476292098, "properties": {"loc": [-79.5607695, 43.6136517], "screen_name": "tmj_on_jobs", "text": "Can you recommend anyone for this #Hospitality #job? https://t.co/tGObbHCpHH 1950 THE QUEENSWAY, #ETOBICOKE, ON #Veterans #Hiring", "created_at": "Thu Mar 03 16:46:28 +0000 2016", "time": 1457023588.543356, "tid": 705434174476292098, "nei_num": "014"}}, {"geometry": {"type": "Point", "coordinates": [-79.52866, 43.64848]}, "type": "Feature", "id": 705439497089974272, "properties": {"loc": [-79.52866, 43.64848], "screen_name": "SixthStreetPub", "text": "Thursday's is Burrito Day! Get a Burrito and a Pint of Welly for $12 #torontolife #torontoeats\u2026 https://t.co/QBeim0x38e", "created_at": "Thu Mar 03 17:07:37 +0000 2016", "time": 1457024857.672143, "tid": 705439497089974272, "nei_num": "014"}}, {"geometry": {"type": "Point", "coordinates": [-79.5230279, 43.6443806]}, "type": "Feature", "id": 705439658872696833, "properties": {"loc": [-79.5230279, 43.6443806], "screen_name": "tmj_ON_health", "text": "Can you recommend anyone for this #job? Care Coordinator - Health Links Resource Coordinator - https://t.co/Gavd6Q6V9j #Etobicoke, ON", "created_at": "Thu Mar 03 17:08:15 +0000 2016", "time": 1457024896.130843, "tid": 705439658872696833, "nei_num": "014"}}, {"geometry": {"type": "Point", "coordinates": [-79.5607695, 43.6136517]}, "type": "Feature", "id": 705440310755614720, "properties": {"loc": [-79.5607695, 43.6136517], "screen_name": "tmj_on_jobs", "text": "Barista (CA) - Starbucks: (1950 THE QUEENSWAY, #ETOBICOKE, ON) https://t.co/CZdVHLnOgH #Hospitality #Veterans #Job #Jobs #Hiring #CareerArc", "created_at": "Thu Mar 03 17:10:51 +0000 2016", "time": 1457025051.574715, "tid": 705440310755614720, "nei_num": "014"}}, {"geometry": {"type": "Point", "coordinates": [-79.5561092, 43.6258644]}, "type": "Feature", "id": 705442240064192513, "properties": {"loc": [-79.5561092, 43.6258644], "screen_name": "RayTwicket", "text": "The office radio is playing Usher, my headphones are playing Slayer and that kind of sums it all up right there :) #officelife", "created_at": "Thu Mar 03 17:18:31 +0000 2016", "time": 1457025511.567043, "tid": 705442240064192513, "nei_num": "014"}}, {"geometry": {"type": "Point", "coordinates": [-79.5536889, 43.6323091]}, "type": "Feature", "id": 705457735207415810, "properties": {"loc": [-79.5536889, 43.6323091], "screen_name": "tofire", "text": "Medical (Seizures/convulsions) - The East Mall b/w Yarn Road / Lynnford Dr, Etobicoke (2 Trucks)", "created_at": "Thu Mar 03 18:20:05 +0000 2016", "time": 1457029205.871236, "tid": 705457735207415810, "nei_num": "014"}}, {"geometry": {"type": "Point", "coordinates": [-79.5536889, 43.6323091]}, "type": "Feature", "id": 705457736474091520, "properties": {"loc": [-79.5536889, 43.6323091], "screen_name": "tofireW", "text": "Medical (Seizures/convulsions) - The East Mall b/w Yarn Road / Lynnford Dr, Etobicoke (2 Trucks)", "created_at": "Thu Mar 03 18:20:05 +0000 2016", "time": 1457029206.233117, "tid": 705457736474091520, "nei_num": "014"}}, {"geometry": {"type": "Point", "coordinates": [-79.5219638, 43.6455477]}, "type": "Feature", "id": 705461778113638401, "properties": {"loc": [-79.5219638, 43.6455477], "screen_name": "JoinApex", "text": "This #Sales #job might be a great fit for you: Outside Sales Representative (Account Manager) - https://t.co/RBBYcVuwWk #Toronto, Ontario", "created_at": "Thu Mar 03 18:36:09 +0000 2016", "time": 1457030169.799149, "tid": 705461778113638401, "nei_num": "014"}}, {"geometry": {"type": "Point", "coordinates": [-79.5380869, 43.6381744]}, "type": "Feature", "id": 705464385771143168, "properties": {"loc": [-79.5380869, 43.6381744], "screen_name": "tmj_gta_hrta", "text": "Starbucks: Shift Supervisor (CA) https://t.co/azvVUkIN3b #Hospitality #Veterans #Job #Jobs #Hiring #CareerArc", "created_at": "Thu Mar 03 18:46:31 +0000 2016", "time": 1457030791.519846, "tid": 705464385771143168, "nei_num": "014"}}, {"geometry": {"type": "Point", "coordinates": [-79.5219638, 43.6455477]}, "type": "Feature", "id": 705469448216416257, "properties": {"loc": [-79.5219638, 43.6455477], "screen_name": "JoinApex", "text": "Interested in a #Sales #job near #Toronto, Ontario? This could be a great fit: https://t.co/4OQqBLhgom #Hiring", "created_at": "Thu Mar 03 19:06:38 +0000 2016", "time": 1457031998.483603, "tid": 705469448216416257, "nei_num": "014"}}, {"geometry": {"type": "Point", "coordinates": [-79.5439529, 43.6226997]}, "type": "Feature", "id": 705482255553191936, "properties": {"loc": [-79.5439529, 43.6226997], "screen_name": "Storstac", "text": "A welding machine is like a welders paintbrush, each one needs at least one to make his next\u2026 https://t.co/RbEvpgV1qb", "created_at": "Thu Mar 03 19:57:31 +0000 2016", "time": 1457035052.024994, "tid": 705482255553191936, "nei_num": "014"}}, {"geometry": {"type": "Point", "coordinates": [-79.5417786, 43.6407089]}, "type": "Feature", "id": 705496297973915648, "properties": {"loc": [-79.5417786, 43.6407089], "screen_name": "DukesSource", "text": "#Repost @hkylifestyle with repostapp.\n\u30fb\u30fb\u30fb\nThe 8 World Cup of Hockey team jerseys. Tournaments\u2026 https://t.co/6xA66vfcqr", "created_at": "Thu Mar 03 20:53:19 +0000 2016", "time": 1457038399.950912, "tid": 705496297973915648, "nei_num": "014"}}, {"geometry": {"type": "Point", "coordinates": [-79.56131779, 43.61418585]}, "type": "Feature", "id": 705559567380275200, "properties": {"loc": [-79.56131779, 43.61418585], "screen_name": "RealTorMarina", "text": "Alissa's favourite shopping place :) #indigo @ Chapters Queensway https://t.co/ZXMUaHE74m", "created_at": "Fri Mar 04 01:04:44 +0000 2016", "time": 1457053484.640829, "tid": 705559567380275200, "nei_num": "014"}}, {"geometry": {"type": "Point", "coordinates": [-79.5606537, 43.6097641]}, "type": "Feature", "id": 705566579191214080, "properties": {"loc": [-79.5606537, 43.6097641], "screen_name": "CatForsley", "text": "@griechux \ud83d\udc8b and I had a super day \ud83d\udc8bcelebrating her baby bump \ud83d\udc8b met her through @davelackie he\u2026 https://t.co/ra2LsnJfiH", "created_at": "Fri Mar 04 01:32:35 +0000 2016", "time": 1457055156.375944, "tid": 705566579191214080, "nei_num": "014"}}, {"geometry": {"type": "Point", "coordinates": [-79.52442884, 43.64509725]}, "type": "Feature", "id": 705588713213042689, "properties": {"loc": [-79.52442884, 43.64509725], "screen_name": "Drewber66", "text": "I'm at Islington Subway Station in Toronto, ON https://t.co/xa5MdP43uu", "created_at": "Fri Mar 04 03:00:33 +0000 2016", "time": 1457060433.484728, "tid": 705588713213042689, "nei_num": "014"}}, {"geometry": {"type": "Point", "coordinates": [-79.5203927, 43.63609517]}, "type": "Feature", "id": 705631036315545602, "properties": {"loc": [-79.5203927, 43.63609517], "screen_name": "roanncute", "text": "I'm at @TimHortons in Toronto, ON https://t.co/4GYwXnwlvp", "created_at": "Fri Mar 04 05:48:43 +0000 2016", "time": 1457070524.193592, "tid": 705631036315545602, "nei_num": "014"}}, {"geometry": {"type": "Point", "coordinates": [-79.5204476, 43.63589549]}, "type": "Feature", "id": 705636431935328258, "properties": {"loc": [-79.5204476, 43.63589549], "screen_name": "roanncute", "text": "I'm at The Garage Bar https://t.co/gmUR6OCVvX", "created_at": "Fri Mar 04 06:10:10 +0000 2016", "time": 1457071810.587861, "tid": 705636431935328258, "nei_num": "014"}}, {"geometry": {"type": "Point", "coordinates": [-79.520665, 43.63618]}, "type": "Feature", "id": 705641985118318592, "properties": {"loc": [-79.520665, 43.63618], "screen_name": "roanncute", "text": "I'm at High Seas Restaurant in Toronto https://t.co/aEzNmuqepu", "created_at": "Fri Mar 04 06:32:14 +0000 2016", "time": 1457073134.655953, "tid": 705641985118318592, "nei_num": "014"}}, {"geometry": {"type": "Point", "coordinates": [-79.51881702, 43.63944176]}, "type": "Feature", "id": 705645786172772352, "properties": {"loc": [-79.51881702, 43.63944176], "screen_name": "roanncute", "text": "I'm at Fairfield Park in Etobicoke, Ontario https://t.co/HfRPlotkdI", "created_at": "Fri Mar 04 06:47:20 +0000 2016", "time": 1457074040.842911, "tid": 705645786172772352, "nei_num": "014"}}, {"geometry": {"type": "Point", "coordinates": [-79.52055741, 43.6360054]}, "type": "Feature", "id": 705670876608462848, "properties": {"loc": [-79.52055741, 43.6360054], "screen_name": "roanncute", "text": "I'm at Mr. Sub in Toronto, ON https://t.co/KqklFAa7qI", "created_at": "Fri Mar 04 08:27:02 +0000 2016", "time": 1457080022.77753, "tid": 705670876608462848, "nei_num": "014"}}, {"geometry": {"type": "Point", "coordinates": [-79.5219638, 43.6455477]}, "type": "Feature", "id": 705743243590283264, "properties": {"loc": [-79.5219638, 43.6455477], "screen_name": "JoinApex", "text": "We're #hiring! Click to apply: Outside Sales Representative (Account Manager) - https://t.co/RBBYcVuwWk #Sales #Toronto, Ontario #Job #Jobs", "created_at": "Fri Mar 04 13:14:36 +0000 2016", "time": 1457097276.520146, "tid": 705743243590283264, "nei_num": "014"}}, {"geometry": {"type": "Point", "coordinates": [-79.5219638, 43.6455477]}, "type": "Feature", "id": 705750855778070532, "properties": {"loc": [-79.5219638, 43.6455477], "screen_name": "JoinApex", "text": "Can you recommend anyone for this #Sales #job? https://t.co/4OQqBLhgom #Toronto, Ontario #Hiring", "created_at": "Fri Mar 04 13:44:50 +0000 2016", "time": 1457099091.436381, "tid": 705750855778070532, "nei_num": "014"}}, {"geometry": {"type": "Point", "coordinates": [-79.52866, 43.64848]}, "type": "Feature", "id": 705755371520946177, "properties": {"loc": [-79.52866, 43.64848], "screen_name": "SixthStreetPub", "text": "We've Got Sean Pinchin Tonight, kicking off at 8pm #livemusicfridays #torontoevents\u2026 https://t.co/PmiYF5g1UH", "created_at": "Fri Mar 04 14:02:47 +0000 2016", "time": 1457100168.182892, "tid": 705755371520946177, "nei_num": "014"}}, {"geometry": {"type": "Point", "coordinates": [-79.53340342, 43.64374974]}, "type": "Feature", "id": 705794275959767041, "properties": {"loc": [-79.53340342, 43.64374974], "screen_name": "4shelleyj", "text": "Lunch with @section8jkj Pamela &amp; Scott. No Aunt Mary \ud83d\ude25 (@ St. James's Gate Irish Pub - @stjamesgateto) https://t.co/LtGnn7Bh0h", "created_at": "Fri Mar 04 16:37:23 +0000 2016", "time": 1457109443.560558, "tid": 705794275959767041, "nei_num": "014"}}, {"geometry": {"type": "Point", "coordinates": [-79.53611111, 43.63722222]}, "type": "Feature", "id": 705796407765159936, "properties": {"loc": [-79.53611111, 43.63722222], "screen_name": "ericzawo", "text": "Reading about my work @giantcontainers and checking my photos in this morning's @globeandmail!\u2026 https://t.co/z0Qiz2IBid", "created_at": "Fri Mar 04 16:45:51 +0000 2016", "time": 1457109951.866242, "tid": 705796407765159936, "nei_num": "014"}}, {"geometry": {"type": "Point", "coordinates": [-79.53359, 43.64389]}, "type": "Feature", "id": 705800209251627009, "properties": {"loc": [-79.53359, 43.64389], "screen_name": "Cheoffrey", "text": "#smokedsalmon #fennel #slaw #chive #creme #stpatricksday #app #fishfriday #eathealthy\u2026 https://t.co/7akdEm3KvF", "created_at": "Fri Mar 04 17:00:57 +0000 2016", "time": 1457110858.233766, "tid": 705800209251627009, "nei_num": "014"}}, {"geometry": {"type": "Point", "coordinates": [-79.52177, 43.63502]}, "type": "Feature", "id": 705801068081504256, "properties": {"loc": [-79.52177, 43.63502], "screen_name": "PIspeedshops", "text": "Alright Mr. DeMille, I'm ready for my close-up #TargaTruck #ChevyPickup #LS #lsineverything\u2026 https://t.co/U0dexmWMdZ", "created_at": "Fri Mar 04 17:04:22 +0000 2016", "time": 1457111062.950218, "tid": 705801068081504256, "nei_num": "014"}}, {"geometry": {"type": "Point", "coordinates": [-79.52866, 43.64848]}, "type": "Feature", "id": 705809063821508609, "properties": {"loc": [-79.52866, 43.64848], "screen_name": "SixthStreetPub", "text": "Today's Soup: Black Bean Chorizo #torontolife #torontoeats #torontofood #6thstreet #nomnom\u2026 https://t.co/DxIkN5m1b2", "created_at": "Fri Mar 04 17:36:08 +0000 2016", "time": 1457112969.318323, "tid": 705809063821508609, "nei_num": "014"}}, {"geometry": {"type": "Point", "coordinates": [-79.5380869, 43.6381744]}, "type": "Feature", "id": 705824295713255424, "properties": {"loc": [-79.5380869, 43.6381744], "screen_name": "tmj_gta_hrta", "text": "Want to work in ? View our latest opening: https://t.co/7bfGxtjUUO #Hospitality #Veterans #Job #Jobs #Hiring #CareerArc", "created_at": "Fri Mar 04 18:36:40 +0000 2016", "time": 1457116600.949521, "tid": 705824295713255424, "nei_num": "014"}}, {"geometry": {"type": "Point", "coordinates": [-79.55711527, 43.61994219]}, "type": "Feature", "id": 705826839034466305, "properties": {"loc": [-79.55711527, 43.61994219], "screen_name": "Whassaabee", "text": "Got my custom Holbrook today. #Oakley #customholbrooks #oakleysunglasses #oakleyshades #3point5\u2026 https://t.co/jjX9qYMgrq", "created_at": "Fri Mar 04 18:46:46 +0000 2016", "time": 1457117207.244788, "tid": 705826839034466305, "nei_num": "014"}}, {"geometry": {"type": "Point", "coordinates": [-79.53359, 43.64389]}, "type": "Feature", "id": 705830174537945088, "properties": {"loc": [-79.53359, 43.64389], "screen_name": "Cheoffrey", "text": "#stout #braised #steak #sandwich #bluecheese #boozy #jus #stpatricksday #cheoffeats #truecooks\u2026 https://t.co/1x0VFHDZyc", "created_at": "Fri Mar 04 19:00:01 +0000 2016", "time": 1457118002.53053, "tid": 705830174537945088, "nei_num": "014"}}, {"geometry": {"type": "Point", "coordinates": [-79.560642, 43.6097787]}, "type": "Feature", "id": 705859919275171840, "properties": {"loc": [-79.560642, 43.6097787], "screen_name": "foodie411", "text": "Brisket. Fries. Beer. // Lovely space and service at O&amp;B's new Etobicoke space at Sherway\u2026 https://t.co/7UPvpcZhN7", "created_at": "Fri Mar 04 20:58:13 +0000 2016", "time": 1457125094.209869, "tid": 705859919275171840, "nei_num": "014"}}, {"geometry": {"type": "Point", "coordinates": [-79.5230279, 43.6443806]}, "type": "Feature", "id": 705862638924738560, "properties": {"loc": [-79.5230279, 43.6443806], "screen_name": "tmj_on_jobs", "text": "Join the OfficeTeam team! See our latest #Clerical #job opening here: https://t.co/yJCK5TuAKo #Etobicoke, ON #Hiring #CareerArc", "created_at": "Fri Mar 04 21:09:02 +0000 2016", "time": 1457125742.648649, "tid": 705862638924738560, "nei_num": "014"}}, {"geometry": {"type": "Point", "coordinates": [-79.560642, 43.6097787]}, "type": "Feature", "id": 705871417561239552, "properties": {"loc": [-79.560642, 43.6097787], "screen_name": "bespence", "text": "Late late lunch at the newly opened @beaumontsherway saks_sherwaygdns - beautiful array of light\u2026 https://t.co/P8JDJikqvo", "created_at": "Fri Mar 04 21:43:55 +0000 2016", "time": 1457127835.701603, "tid": 705871417561239552, "nei_num": "014"}}, {"geometry": {"type": "Point", "coordinates": [-79.5606537, 43.6097641]}, "type": "Feature", "id": 705895347743277058, "properties": {"loc": [-79.5606537, 43.6097641], "screen_name": "JeniferSaunders", "text": "Well Saks Fifth Avenue &amp; GIORGIO ARMANI you sure know how to make a gal feel special on a\u2026 https://t.co/CwjUOg53wk", "created_at": "Fri Mar 04 23:19:00 +0000 2016", "time": 1457133540.964508, "tid": 705895347743277058, "nei_num": "014"}}, {"geometry": {"type": "Point", "coordinates": [-79.52866, 43.64848]}, "type": "Feature", "id": 705898677332606977, "properties": {"loc": [-79.52866, 43.64848], "screen_name": "SixthStreetPub", "text": "Tonight's Special: Cajun Breaded Chicken Dinner with Garlic Mashed Potatoes and Beet Salad\u2026 https://t.co/f8DErsf8fz", "created_at": "Fri Mar 04 23:32:14 +0000 2016", "time": 1457134334.902055, "tid": 705898677332606977, "nei_num": "014"}}, {"geometry": {"type": "Point", "coordinates": [-79.52866, 43.64848]}, "type": "Feature", "id": 705899831814795265, "properties": {"loc": [-79.52866, 43.64848], "screen_name": "SixthStreetPub", "text": "Fried Cauliflower Tacos for our Vegetarian Friends out there #torontolife #torontoeats\u2026 https://t.co/kRMNRyZMOm", "created_at": "Fri Mar 04 23:36:49 +0000 2016", "time": 1457134610.193755, "tid": 705899831814795265, "nei_num": "014"}}, {"geometry": {"type": "Point", "coordinates": [-79.560642, 43.6097787]}, "type": "Feature", "id": 705909560947507201, "properties": {"loc": [-79.560642, 43.6097787], "screen_name": "prschef", "text": "Hot line holding down a hundred walkins. @oliverbonacini @beaumontsherway making servic @\u2026 https://t.co/ojrDevjdlX", "created_at": "Sat Mar 05 00:15:29 +0000 2016", "time": 1457136929.792081, "tid": 705909560947507201, "nei_num": "014"}}, {"geometry": {"type": "Point", "coordinates": [-79.52834, 43.6342799]}, "type": "Feature", "id": 705922342677909504, "properties": {"loc": [-79.52834, 43.6342799], "screen_name": "cathleenfarrell", "text": "Toast and prenuptial kiss #psiloveyou2016 @ The Musket Restaurant https://t.co/OVKiKK2wb4", "created_at": "Sat Mar 05 01:06:16 +0000 2016", "time": 1457139977.173526, "tid": 705922342677909504, "nei_num": "014"}}, {"geometry": {"type": "Point", "coordinates": [-79.52326082, 43.64530108]}, "type": "Feature", "id": 705923948786159616, "properties": {"loc": [-79.52326082, 43.64530108], "screen_name": "JaymesBeatty", "text": "Back at it again... (at @GoodLifeFitness in Etobicoke, ON) https://t.co/ZugFPG93tm", "created_at": "Sat Mar 05 01:12:39 +0000 2016", "time": 1457140360.002557, "tid": 705923948786159616, "nei_num": "014"}}, {"geometry": {"type": "Point", "coordinates": [-79.53611111, 43.63722222]}, "type": "Feature", "id": 706008066874073088, "properties": {"loc": [-79.53611111, 43.63722222], "screen_name": "mattworona", "text": "What's missing? @ Kipling (TTC) https://t.co/TjSbChCrZI", "created_at": "Sat Mar 05 06:46:54 +0000 2016", "time": 1457160415.495144, "tid": 706008066874073088, "nei_num": "014"}}, {"geometry": {"type": "Point", "coordinates": [-79.5203927, 43.63609517]}, "type": "Feature", "id": 706009314922782720, "properties": {"loc": [-79.5203927, 43.63609517], "screen_name": "roanncute", "text": "I'm at @TimHortons in Toronto, ON https://t.co/JHByOjhcWd", "created_at": "Sat Mar 05 06:51:52 +0000 2016", "time": 1457160712.909854, "tid": 706009314922782720, "nei_num": "014"}}, {"geometry": {"type": "Point", "coordinates": [-79.5219638, 43.6455477]}, "type": "Feature", "id": 706025101590802432, "properties": {"loc": [-79.5219638, 43.6455477], "screen_name": "JoinApex", "text": "We're #hiring! Click to apply: Outside Sales Representative (Account Manager) - https://t.co/RBBYcVuwWk #Sales #Toronto, Ontario #Job #Jobs", "created_at": "Sat Mar 05 07:54:36 +0000 2016", "time": 1457164476.837746, "tid": 706025101590802432, "nei_num": "014"}}, {"geometry": {"type": "Point", "coordinates": [-79.5219638, 43.6455477]}, "type": "Feature", "id": 706032697303367680, "properties": {"loc": [-79.5219638, 43.6455477], "screen_name": "JoinApex", "text": "We're #hiring! Click to apply: Recruiting Inside Sales Trainee (Recruiter/Sales Representative) - https://t.co/4OQqBLhgom #Sales #Job #Jobs", "created_at": "Sat Mar 05 08:24:47 +0000 2016", "time": 1457166287.766351, "tid": 706032697303367680, "nei_num": "014"}}, {"geometry": {"type": "Point", "coordinates": [-79.55789945, 43.62470688]}, "type": "Feature", "id": 706100887299555329, "properties": {"loc": [-79.55789945, 43.62470688], "screen_name": "PhilipAlvesMD", "text": "An empty workout studio is worth waking up early for. Even on a Saturday. \n\n#gym #gymlife\u2026 https://t.co/qs5m8r7vBm", "created_at": "Sat Mar 05 12:55:44 +0000 2016", "time": 1457182545.636418, "tid": 706100887299555329, "nei_num": "014"}}, {"geometry": {"type": "Point", "coordinates": [-79.5379597, 43.6402786]}, "type": "Feature", "id": 706114821255618560, "properties": {"loc": [-79.5379597, 43.6402786], "screen_name": "tmj_gta_hrta", "text": "See our latest 5230 DUNDAS ST W, #TORONTO, ON #job and click to apply: Barista (CA) - https://t.co/KkaeVl6rkf #Hospitality #Veterans", "created_at": "Sat Mar 05 13:51:07 +0000 2016", "time": 1457185867.919574, "tid": 706114821255618560, "nei_num": "014"}}, {"geometry": {"type": "Point", "coordinates": [-79.51606782, 43.64355681]}, "type": "Feature", "id": 706122873799380992, "properties": {"loc": [-79.51606782, 43.64355681], "screen_name": "michellemcbane", "text": "So in awe of @LindsGoodchild and @MarieChevy - @NudgeRewards and @TheSamplerApp won cool awards this week.  Congrats!!! #proudinvestor", "created_at": "Sat Mar 05 14:23:06 +0000 2016", "time": 1457187787.493587, "tid": 706122873799380992, "nei_num": "014"}}, {"geometry": {"type": "Point", "coordinates": [-79.5429039, 43.61761525]}, "type": "Feature", "id": 706140422071066624, "properties": {"loc": [-79.5429039, 43.61761525], "screen_name": "SheetalJaitly", "text": "I'm at The Grille in Toronto, ON https://t.co/mMr5JPcEu3", "created_at": "Sat Mar 05 15:32:50 +0000 2016", "time": 1457191971.468642, "tid": 706140422071066624, "nei_num": "014"}}, {"geometry": {"type": "Point", "coordinates": [-79.53359, 43.64389]}, "type": "Feature", "id": 706147733304954881, "properties": {"loc": [-79.53359, 43.64389], "screen_name": "StJamesGateTO", "text": "#smokedsalmon\n#Buttermilk #biscuits #fennel #slaw #chive #cr\u00e8me\n#gatekitchen #Toronto\u2026 https://t.co/1CdAtCdGD3", "created_at": "Sat Mar 05 16:01:53 +0000 2016", "time": 1457193714.596919, "tid": 706147733304954881, "nei_num": "014"}}, {"geometry": {"type": "Point", "coordinates": [-79.560642, 43.6097787]}, "type": "Feature", "id": 706148795382300672, "properties": {"loc": [-79.560642, 43.6097787], "screen_name": "prschef", "text": "Yogurt parfait br\u00fbl\u00e9e. #healthybrunch @beaumontsherway @oliverbonacini @michaelthehay\u2026 https://t.co/cMeGurbq3Y", "created_at": "Sat Mar 05 16:06:07 +0000 2016", "time": 1457193967.780628, "tid": 706148795382300672, "nei_num": "014"}}, {"geometry": {"type": "Point", "coordinates": [-79.53359, 43.64389]}, "type": "Feature", "id": 706150780202569728, "properties": {"loc": [-79.53359, 43.64389], "screen_name": "StJamesGateTO", "text": "#Guinness #braised #port #steak, #caramelized #onion #crumbled #bluecheese #Panini\n#gatekitchen\u2026 https://t.co/sLgn0wGmY0", "created_at": "Sat Mar 05 16:14:00 +0000 2016", "time": 1457194440.944755, "tid": 706150780202569728, "nei_num": "014"}}, {"geometry": {"type": "Point", "coordinates": [-79.52262168, 43.64525322]}, "type": "Feature", "id": 706154810496647168, "properties": {"loc": [-79.52262168, 43.64525322], "screen_name": "Drewber66", "text": "I'm at Sun Life Financial Centre in Toronto, ON https://t.co/9x2rNBlNHk", "created_at": "Sat Mar 05 16:30:01 +0000 2016", "time": 1457195401.891837, "tid": 706154810496647168, "nei_num": "014"}}, {"geometry": {"type": "Point", "coordinates": [-79.52442884, 43.64509725]}, "type": "Feature", "id": 706154940209745920, "properties": {"loc": [-79.52442884, 43.64509725], "screen_name": "Drewber66", "text": "I'm at Islington Subway Station in Toronto, ON https://t.co/8GArMPJOhR", "created_at": "Sat Mar 05 16:30:32 +0000 2016", "time": 1457195432.926525, "tid": 706154940209745920, "nei_num": "014"}}, {"geometry": {"type": "Point", "coordinates": [-79.560642, 43.6097787]}, "type": "Feature", "id": 706155340396695552, "properties": {"loc": [-79.560642, 43.6097787], "screen_name": "casandrabuccoo", "text": "Best Brunch ever!!! PB&amp; J stuffed french toast and a Bellini\ud83d\ude0d\u2026 https://t.co/wgBDzyaTg1", "created_at": "Sat Mar 05 16:32:07 +0000 2016", "time": 1457195528.310708, "tid": 706155340396695552, "nei_num": "014"}}, {"geometry": {"type": "Point", "coordinates": [-79.5230279, 43.6443806]}, "type": "Feature", "id": 706163793236103168, "properties": {"loc": [-79.5230279, 43.6443806], "screen_name": "tmj_ON_retail", "text": "Can you recommend anyone for this #job? store manager- Etobicoke - https://t.co/ULRegKb4SA #Etobicoke, Ontario #Retail #Veterans #Hiring", "created_at": "Sat Mar 05 17:05:42 +0000 2016", "time": 1457197543.522186, "tid": 706163793236103168, "nei_num": "014"}}, {"geometry": {"type": "Point", "coordinates": [-79.52866, 43.64848]}, "type": "Feature", "id": 706164498156007428, "properties": {"loc": [-79.52866, 43.64848], "screen_name": "SixthStreetPub", "text": "Weekends at the 6th means Brunch 11am-4pm! #weekendbrunch #torontolife #torontoeats #torontofood\u2026 https://t.co/iutNzfxXFg", "created_at": "Sat Mar 05 17:08:30 +0000 2016", "time": 1457197711.618435, "tid": 706164498156007428, "nei_num": "014"}}, {"geometry": {"type": "Point", "coordinates": [-79.55841733, 43.62494245]}, "type": "Feature", "id": 706176197948997634, "properties": {"loc": [-79.55841733, 43.62494245], "screen_name": "JaymesBeatty", "text": "Gym w Jerry.  @thomsonator007 (at @GoodLifeFitness in Etobicoke, ON) https://t.co/9JI0Xi7dLT", "created_at": "Sat Mar 05 17:55:00 +0000 2016", "time": 1457200501.161264, "tid": 706176197948997634, "nei_num": "014"}}, {"geometry": {"type": "Point", "coordinates": [-79.5683527, 43.62230648]}, "type": "Feature", "id": 706179545808936960, "properties": {"loc": [-79.5683527, 43.62230648], "screen_name": "BobRodkin", "text": "I'm at Starsky in Mississauga, ON https://t.co/kHQjpqGBrG", "created_at": "Sat Mar 05 18:08:18 +0000 2016", "time": 1457201299.201879, "tid": 706179545808936960, "nei_num": "014"}}, {"geometry": {"type": "Point", "coordinates": [-79.5439529, 43.6226997]}, "type": "Feature", "id": 707592707556958209, "properties": {"loc": [-79.5439529, 43.6226997], "screen_name": "Storstac", "text": "Staging one of our modular shipping container training structures in part of our yard before it\u2026 https://t.co/PFtO59jwAX", "created_at": "Wed Mar 09 15:43:42 +0000 2016", "time": 1457538222.514407, "tid": 707592707556958209, "nei_num": "014"}}, {"geometry": {"type": "Point", "coordinates": [-79.5190141, 43.6457356]}, "type": "Feature", "id": 707597577911402497, "properties": {"loc": [-79.5190141, 43.6457356], "screen_name": "tpscalls", "text": "Dispute | Bloor St W &amp; Aberfoyle Cres [22 Div.] 03/09 10:57 #Islington_City_Centre_West #Toronto", "created_at": "Wed Mar 09 16:03:03 +0000 2016", "time": 1457539383.726556, "tid": 707597577911402497, "nei_num": "014"}}, {"geometry": {"type": "Point", "coordinates": [-79.53359, 43.64389]}, "type": "Feature", "id": 707600914887139328, "properties": {"loc": [-79.53359, 43.64389], "screen_name": "StJamesGateTO", "text": "#nachos \n#threecheese #onions #blackolives #jalape\u00f1os #tomato #sourcream #salsa #tortilla\u2026 https://t.co/Nft8e8lrhU", "created_at": "Wed Mar 09 16:16:19 +0000 2016", "time": 1457540179.323497, "tid": 707600914887139328, "nei_num": "014"}}, {"geometry": {"type": "Point", "coordinates": [-79.5190141, 43.6457356]}, "type": "Feature", "id": 707608153421119489, "properties": {"loc": [-79.5190141, 43.6457356], "screen_name": "tpscalls", "text": "Fire | Bloor St W &amp; Aberfoyle Cres [22 Div.] 03/09 11:39 #Islington_City_Centre_West #Toronto", "created_at": "Wed Mar 09 16:45:05 +0000 2016", "time": 1457541905.157909, "tid": 707608153421119489, "nei_num": "014"}}, {"geometry": {"type": "Point", "coordinates": [-79.54215854, 43.61758133]}, "type": "Feature", "id": 707620178075521024, "properties": {"loc": [-79.54215854, 43.61758133], "screen_name": "jjtho", "text": "I'm at Paramount Fine Foods - @paramountfoods in Etobicoke https://t.co/zocCqLwdky", "created_at": "Wed Mar 09 17:32:52 +0000 2016", "time": 1457544772.022751, "tid": 707620178075521024, "nei_num": "014"}}, {"geometry": {"type": "Point", "coordinates": [-79.53359, 43.64389]}, "type": "Feature", "id": 707629904288944128, "properties": {"loc": [-79.53359, 43.64389], "screen_name": "djrobinn", "text": "#stjamesgateto #gatekitchen @stjamesgateTO The Hogtowner it was and\u2026 https://t.co/J3N7f0xk61", "created_at": "Wed Mar 09 18:11:30 +0000 2016", "time": 1457547091.010617, "tid": 707629904288944128, "nei_num": "014"}}, {"geometry": {"type": "Point", "coordinates": [-79.5428666, 43.61732096]}, "type": "Feature", "id": 749771211442364416, "properties": {"loc": [-79.5428666, 43.61732096], "screen_name": "Najamuddin", "text": "I'm at Paramount Fine Foods - @paramountfoods in Etobicoke https://t.co/ASquEniTci", "created_at": "Mon Jul 04 01:06:01 +0000 2016", "time": 1467594354.970768, "tid": 749771211442364416, "nei_num": "014"}}, {"geometry": {"type": "Point", "coordinates": [-79.5428287, 43.61731554]}, "type": "Feature", "id": 749772346370584576, "properties": {"loc": [-79.5428287, 43.61731554], "screen_name": "Najamuddin", "text": "Just posted a photo @ Paramount Fine Foods - \u0645\u0637\u0627\u0639\u0645 \u0628\u0627\u0631\u0645\u0648\u0646\u062a https://t.co/csYr8EhzOS", "created_at": "Mon Jul 04 01:10:32 +0000 2016", "time": 1467594625.626019, "tid": 749772346370584576, "nei_num": "014"}}, {"geometry": {"type": "Point", "coordinates": [-79.5248577, 43.6423864]}, "type": "Feature", "id": 749778018181189632, "properties": {"loc": [-79.5248577, 43.6423864], "screen_name": "tpscalls", "text": "Disorderlies | Clissold Rd &amp; Green Lanes [22 Div.] 07/03 21:28 #Sunnylea #Toronto", "created_at": "Mon Jul 04 01:33:04 +0000 2016", "time": 1467595977.7915, "tid": 749778018181189632, "nei_num": "014"}}, {"geometry": {"type": "Point", "coordinates": [-79.5520066, 43.6342014]}, "type": "Feature", "id": 749792363850113024, "properties": {"loc": [-79.5520066, 43.6342014], "screen_name": "tpscalls", "text": "Disorderlies | Yarn Rd &amp; Lynnford Dr [22 Div.] 07/03 22:24 #Islington_City_Centre_West #Toronto", "created_at": "Mon Jul 04 02:30:04 +0000 2016", "time": 1467599398.066694, "tid": 749792363850113024, "nei_num": "014"}}, {"geometry": {"type": "Point", "coordinates": [-79.53555556, 43.63758333]}, "type": "Feature", "id": 749797416933683200, "properties": {"loc": [-79.53555556, 43.63758333], "screen_name": "RacingGirl12", "text": "#kipling #ttc #frontofthetrain @ Kipling (TTC) https://t.co/2xw35DdzRc", "created_at": "Mon Jul 04 02:50:09 +0000 2016", "time": 1467600602.860455, "tid": 749797416933683200, "nei_num": "014"}}, {"geometry": {"type": "Point", "coordinates": [-79.5254318, 43.6407993]}, "type": "Feature", "id": 749803686298324992, "properties": {"loc": [-79.5254318, 43.6407993], "screen_name": "tpscalls", "text": "Noise Complaint | Van Dusen Blvd &amp; Kenway Rd [22 Div.] 07/03 23:09 #Islington_City_Centre_West #Toronto", "created_at": "Mon Jul 04 03:15:04 +0000 2016", "time": 1467602097.559847, "tid": 749803686298324992, "nei_num": "014"}}, {"geometry": {"type": "Point", "coordinates": [-79.5378238, 43.6392936]}, "type": "Feature", "id": 749812273322004480, "properties": {"loc": [-79.5378238, 43.6392936], "screen_name": "Annie_yogi", "text": "So hungry. (@ Apache Burger in Etobicoke, ON) https://t.co/H2RpEFOnhY", "created_at": "Mon Jul 04 03:49:11 +0000 2016", "time": 1467604144.848369, "tid": 749812273322004480, "nei_num": "014"}}, {"geometry": {"type": "Point", "coordinates": [-79.56003249, 43.60916]}, "type": "Feature", "id": 749932046416478208, "properties": {"loc": [-79.56003249, 43.60916], "screen_name": "JaylixPorter", "text": "I'm at @TimHortonsNews in Toronto, ON https://t.co/TLPhBgyGjH", "created_at": "Mon Jul 04 11:45:07 +0000 2016", "time": 1467632701.086228, "tid": 749932046416478208, "nei_num": "014"}}, {"geometry": {"type": "Point", "coordinates": [-79.5378148, 43.638135]}, "type": "Feature", "id": 749981854111895553, "properties": {"loc": [-79.5378148, 43.638135], "screen_name": "tmj_gta_hrta", "text": "#Hospitality #Job in Barista (CA) at Starbucks https://t.co/7bfGxtjUUO #Veterans #Jobs #Hiring #CareerArc", "created_at": "Mon Jul 04 15:03:02 +0000 2016", "time": 1467644576.05695, "tid": 749981854111895553, "nei_num": "014"}}, {"geometry": {"type": "Point", "coordinates": [-79.5311572, 43.6437774]}, "type": "Feature", "id": 749994694315274241, "properties": {"loc": [-79.5311572, 43.6437774], "screen_name": "tpscalls", "text": "Damage To Auto | C P R &amp; Resurrection Rd [22 Div.] 07/04 11:48 #Islington_City_Centre_West #Toronto", "created_at": "Mon Jul 04 15:54:04 +0000 2016", "time": 1467647637.354995, "tid": 749994694315274241, "nei_num": "014"}}, {"geometry": {"type": "Point", "coordinates": [-79.5227562, 43.6453248]}, "type": "Feature", "id": 750002438363418624, "properties": {"loc": [-79.5227562, 43.6453248], "screen_name": "JoinApex", "text": "Can you recommend anyone for this #Sales #job? https://t.co/6u1DJcS83c #Toronto, Ontario #Hiring", "created_at": "Mon Jul 04 16:24:50 +0000 2016", "time": 1467649483.931137, "tid": 750002438363418624, "nei_num": "014"}}, {"geometry": {"type": "Point", "coordinates": [-79.5227562, 43.6453248]}, "type": "Feature", "id": 750010075071205376, "properties": {"loc": [-79.5227562, 43.6453248], "screen_name": "JoinApex", "text": "Join the Apex Systems team! See our latest #CustomerService #job opening here: https://t.co/QQxMjwSxnt #Toronto, Ontario #Hiring", "created_at": "Mon Jul 04 16:55:11 +0000 2016", "time": 1467651304.402026, "tid": 750010075071205376, "nei_num": "014"}}, {"geometry": {"type": "Point", "coordinates": [-79.5333803, 43.64376908]}, "type": "Feature", "id": 750020146618597381, "properties": {"loc": [-79.5333803, 43.64376908], "screen_name": "Cheoffrey", "text": "Grown up #grilledcheese #poblano #poppers #curryketchup #cheoffeats #meatlessmonday\u2026 https://t.co/kp1bWZf1dH", "created_at": "Mon Jul 04 17:35:12 +0000 2016", "time": 1467653705.602151, "tid": 750020146618597381, "nei_num": "014"}}, {"geometry": {"type": "Point", "coordinates": [-79.53034442, 43.6433561]}, "type": "Feature", "id": 750038962232823808, "properties": {"loc": [-79.53034442, 43.6433561], "screen_name": "ArepaRepublic", "text": "Some plans for Friday? What about an #arepa and a #VenezuelanExperience @FoodTrucknFri ? Don't\u2026 https://t.co/bzgPBFY3cP", "created_at": "Mon Jul 04 18:49:58 +0000 2016", "time": 1467658191.567316, "tid": 750038962232823808, "nei_num": "014"}}, {"geometry": {"type": "Point", "coordinates": [-79.5380968, 43.6401334]}, "type": "Feature", "id": 750066931332370432, "properties": {"loc": [-79.5380968, 43.6401334], "screen_name": "tmj_gta_hrta", "text": "5230 DUNDAS ST W, #TORONTO, ON #Hospitality #Job: Barista (CA) at Starbucks https://t.co/KkaeVl6rkf #Veterans #Jobs #Hiring #CareerArc", "created_at": "Mon Jul 04 20:41:06 +0000 2016", "time": 1467664859.961882, "tid": 750066931332370432, "nei_num": "014"}}, {"geometry": {"type": "Point", "coordinates": [-79.54414261, 43.63276455]}, "type": "Feature", "id": 750069843903275008, "properties": {"loc": [-79.54414261, 43.63276455], "screen_name": "Errws", "text": "Found a great place close to home #mekongriver #pho #shrimprolls @\u2026 https://t.co/IAb6X9wJo9", "created_at": "Mon Jul 04 20:52:41 +0000 2016", "time": 1467665554.281926, "tid": 750069843903275008, "nei_num": "014"}}, {"geometry": {"type": "Point", "coordinates": [-79.54395, 43.6227]}, "type": "Feature", "id": 750074884852682752, "properties": {"loc": [-79.54395, 43.6227], "screen_name": "Storstac", "text": "All the cutouts are done on this custom 30' shipping container...next up, framing and paint @\u2026 https://t.co/Js8nUlsFdF", "created_at": "Mon Jul 04 21:12:42 +0000 2016", "time": 1467666756.245868, "tid": 750074884852682752, "nei_num": "014"}}, {"geometry": {"type": "Point", "coordinates": [-79.5190141, 43.6457356]}, "type": "Feature", "id": 750076984647094272, "properties": {"loc": [-79.5190141, 43.6457356], "screen_name": "tpscalls", "text": "Fire | Bloor St W &amp; Aberfoyle Cres [22 Div.] 07/04 17:16 #Islington_City_Centre_West #Toronto", "created_at": "Mon Jul 04 21:21:03 +0000 2016", "time": 1467667256.743641, "tid": 750076984647094272, "nei_num": "014"}}, {"geometry": {"type": "Point", "coordinates": [-79.5681686, 43.6248703]}, "type": "Feature", "id": 750091791169388545, "properties": {"loc": [-79.5681686, 43.6248703], "screen_name": "paulbuceta", "text": "Having drinks and reminiscing with a great friend Julie Marsland! More beautiful than ever.\u2026 https://t.co/vAmWwwEM1z", "created_at": "Mon Jul 04 22:19:53 +0000 2016", "time": 1467670786.880225, "tid": 750091791169388545, "nei_num": "014"}}, {"geometry": {"type": "Point", "coordinates": [-79.53949, 43.61772]}, "type": "Feature", "id": 750107346265706496, "properties": {"loc": [-79.53949, 43.61772], "screen_name": "Type1Dayna", "text": "That's right I had fast food it's all about balance I ordered a kids meal which is still 14\u2026 https://t.co/b0ubkVsbcJ", "created_at": "Mon Jul 04 23:21:42 +0000 2016", "time": 1467674495.579493, "tid": 750107346265706496, "nei_num": "014"}}, {"geometry": {"type": "Point", "coordinates": [-79.5343, 43.64174]}, "type": "Feature", "id": 750117569965748225, "properties": {"loc": [-79.5343, 43.64174], "screen_name": "tiana_two", "text": "\u2716\ufe0f\ud83c\udf41 can @ #JunctionTO https://t.co/yxk5vvnoFb", "created_at": "Tue Jul 05 00:02:19 +0000 2016", "time": 1467676933.140932, "tid": 750117569965748225, "nei_num": "014"}}, {"geometry": {"type": "Point", "coordinates": [-79.5452593, 43.6214063]}, "type": "Feature", "id": 750135879763628034, "properties": {"loc": [-79.5452593, 43.6214063], "screen_name": "tofire", "text": "UD: Rescue (Structural Collapse) - The Queensway b/w North Queen St / Hepc, Etobicoke (14 Trucks)", "created_at": "Tue Jul 05 01:15:05 +0000 2016", "time": 1467681298.43918, "tid": 750135879763628034, "nei_num": "014"}}, {"geometry": {"type": "Point", "coordinates": [-79.5452593, 43.6214063]}, "type": "Feature", "id": 750135880761958400, "properties": {"loc": [-79.5452593, 43.6214063], "screen_name": "tofireW", "text": "UD: Rescue (Structural Collapse) - The Queensway b/w North Queen St / Hepc, Etobicoke (14 Trucks)", "created_at": "Tue Jul 05 01:15:05 +0000 2016", "time": 1467681298.612155, "tid": 750135880761958400, "nei_num": "014"}}, {"geometry": {"type": "Point", "coordinates": [-79.52326082, 43.64530108]}, "type": "Feature", "id": 750140306583150596, "properties": {"loc": [-79.52326082, 43.64530108], "screen_name": "JaymesBeatty", "text": "Still checking in at the gym on foursquareerrrrr... Swarm. (at @GoodLifeFitness in Etobicoke, ON) https://t.co/QNltosxfSg", "created_at": "Tue Jul 05 01:32:40 +0000 2016", "time": 1467682353.891808, "tid": 750140306583150596, "nei_num": "014"}}, {"geometry": {"type": "Point", "coordinates": [-79.535199, 43.642309]}, "type": "Feature", "id": 750175891230253056, "properties": {"loc": [-79.535199, 43.642309], "screen_name": "tpscalls", "text": "Assault Just Occurred | Kipling Ave &amp; Dundas St W [22 Div.] 07/04 23:50 #Islington_City_Centre_West #Toronto", "created_at": "Tue Jul 05 03:54:04 +0000 2016", "time": 1467690837.921634, "tid": 750175891230253056, "nei_num": "014"}}, {"geometry": {"type": "Point", "coordinates": [-79.535199, 43.642309]}, "type": "Feature", "id": 750229734693466112, "properties": {"loc": [-79.535199, 43.642309], "screen_name": "tpscalls", "text": "Assault Just Occurred | Kipling Ave &amp; Dundas St W [22 Div.] 07/05 03:21 #Islington_City_Centre_West #Toronto", "created_at": "Tue Jul 05 07:28:02 +0000 2016", "time": 1467703675.125913, "tid": 750229734693466112, "nei_num": "014"}}, {"geometry": {"type": "Point", "coordinates": [-79.5287577, 43.6487919]}, "type": "Feature", "id": 750256159999856644, "properties": {"loc": [-79.5287577, 43.6487919], "screen_name": "tpscalls", "text": "Fail To Remain Personal Injury Collision | Burnhamthorpe Cres &amp; Cordova Ave [HP] 07/05 05:06 #Islington_City_Centre_West #Toronto", "created_at": "Tue Jul 05 09:13:02 +0000 2016", "time": 1467709975.374974, "tid": 750256159999856644, "nei_num": "014"}}, {"geometry": {"type": "Point", "coordinates": [-79.52866, 43.64848]}, "type": "Feature", "id": 750292222868746240, "properties": {"loc": [-79.52866, 43.64848], "screen_name": "SixthStreetPub", "text": "It's Wing Day!!!!! Get a Pound and a Pint of Welly for $12 #wingday #torontoeats #torontolife\u2026 https://t.co/7lVeblDfLK", "created_at": "Tue Jul 05 11:36:20 +0000 2016", "time": 1467718573.550531, "tid": 750292222868746240, "nei_num": "014"}}, {"geometry": {"type": "Point", "coordinates": [-79.56003249, 43.60916]}, "type": "Feature", "id": 750293902956040192, "properties": {"loc": [-79.56003249, 43.60916], "screen_name": "JaylixPorter", "text": "I'm at @TimHortonsNews in Toronto, ON https://t.co/J8qNt97zg8", "created_at": "Tue Jul 05 11:43:00 +0000 2016", "time": 1467718974.018216, "tid": 750293902956040192, "nei_num": "014"}}, {"geometry": {"type": "Point", "coordinates": [-79.5227562, 43.6453248]}, "type": "Feature", "id": 750299581301174272, "properties": {"loc": [-79.5227562, 43.6453248], "screen_name": "JoinApex", "text": "Apex Systems #Sales #Job: Recruiting Inside Sales Trainee (Recruiter/Sales Representative) (#Toronto, Ontario) https://t.co/6u1DJcS83c", "created_at": "Tue Jul 05 12:05:34 +0000 2016", "time": 1467720327.895882, "tid": 750299581301174272, "nei_num": "014"}}, {"geometry": {"type": "Point", "coordinates": [-79.5227562, 43.6453248]}, "type": "Feature", "id": 750307174300078080, "properties": {"loc": [-79.5227562, 43.6453248], "screen_name": "JoinApex", "text": "#CustomerService #Job in #Toronto, Ontario: Administrative Assistant for a Branch Office at Apex Systems https://t.co/QQxMjwSxnt #Jobs", "created_at": "Tue Jul 05 12:35:45 +0000 2016", "time": 1467722138.282733, "tid": 750307174300078080, "nei_num": "014"}}, {"geometry": {"type": "Point", "coordinates": [-79.54346911, 43.61763276]}, "type": "Feature", "id": 750311177390002176, "properties": {"loc": [-79.54346911, 43.61763276], "screen_name": "SunnyBreakfasts", "text": "Drinks are ready! \ud83c\udf53\ud83c\udf4a\ud83c\udf4d\ud83c\udf47\u2615\ufe0f\u2615\ufe0f #foodstagram #smoothie #coffee #Etobicoke #summer @ Sunny Morning\u2026 https://t.co/O9R6OwnMvH", "created_at": "Tue Jul 05 12:51:39 +0000 2016", "time": 1467723092.607825, "tid": 750311177390002176, "nei_num": "014"}}, {"geometry": {"type": "Point", "coordinates": [-79.5467053, 43.625654]}, "type": "Feature", "id": 750319870030536705, "properties": {"loc": [-79.5467053, 43.625654], "screen_name": "Pablo_074", "text": "\ud83d\ude02\ud83d\ude02\u270c\ud83d\udcaa https://t.co/UzTnZxd0Hp", "created_at": "Tue Jul 05 13:26:11 +0000 2016", "time": 1467725165.212353, "tid": 750319870030536705, "nei_num": "014"}}, {"geometry": {"type": "Point", "coordinates": [-79.5467747, 43.6256439]}, "type": "Feature", "id": 750320233156599809, "properties": {"loc": [-79.5467747, 43.6256439], "screen_name": "Pablo_074", "text": "@Radioacktiva_ \ud83d\udcaa\ud83d\ude02\ud83d\ude02\ud83d\ude01\u270c https://t.co/KS3xhr8F9H", "created_at": "Tue Jul 05 13:27:38 +0000 2016", "time": 1467725251.651142, "tid": 750320233156599809, "nei_num": "014"}}, {"geometry": {"type": "Point", "coordinates": [-79.5321, 43.63856]}, "type": "Feature", "id": 750320289293045760, "properties": {"loc": [-79.5321, 43.63856], "screen_name": "readmyeyes22", "text": "#7days #Breathe #sinlge #checkitout @ D.C. Music Toronto https://t.co/Dv3Wiyz9Wk", "created_at": "Tue Jul 05 13:27:51 +0000 2016", "time": 1467725265.076303, "tid": 750320289293045760, "nei_num": "014"}}, {"geometry": {"type": "Point", "coordinates": [-79.5419342, 43.6202232]}, "type": "Feature", "id": 750332413197357056, "properties": {"loc": [-79.5419342, 43.6202232], "screen_name": "tpscalls", "text": "Industrial Accident | Shorncliffe Rd &amp; Atomic Ave [22 Div.] 07/05 10:09 #Islington_City_Centre_West #Toronto", "created_at": "Tue Jul 05 14:16:02 +0000 2016", "time": 1467728155.639098, "tid": 750332413197357056, "nei_num": "014"}}, {"geometry": {"type": "Point", "coordinates": [-79.544673, 43.6321493]}, "type": "Feature", "id": 750346758476206080, "properties": {"loc": [-79.544673, 43.6321493], "screen_name": "tpscalls", "text": "Personal Injury Collision | Shaver Ave S &amp; Dundas St W [HP] 07/05 11:07 #Islington_City_Centre_West #Toronto", "created_at": "Tue Jul 05 15:13:02 +0000 2016", "time": 1467731575.748598, "tid": 750346758476206080, "nei_num": "014"}}, {"geometry": {"type": "Point", "coordinates": [-79.53555556, 43.63758333]}, "type": "Feature", "id": 751214430436794368, "properties": {"loc": [-79.53555556, 43.63758333], "screen_name": "weddingdecors", "text": "It was so painful as a mother to watch. That 3yr old assure her mom, it's ok, I am here for\u2026 https://t.co/xchaEvLoM6", "created_at": "Fri Jul 08 00:40:51 +0000 2016", "time": 1467938444.390031, "tid": 751214430436794368, "nei_num": "014"}}, {"geometry": {"type": "Point", "coordinates": [-79.5287577, 43.6487919]}, "type": "Feature", "id": 751223795017482242, "properties": {"loc": [-79.5287577, 43.6487919], "screen_name": "tpscalls", "text": "Dispute | Cordova Ave &amp; Dundas St W [22 Div.] 07/07 21:12 #Eatonville #Toronto", "created_at": "Fri Jul 08 01:18:04 +0000 2016", "time": 1467940676.851674, "tid": 751223795017482242, "nei_num": "014"}}, {"geometry": {"type": "Point", "coordinates": [-79.560925, 43.609961]}, "type": "Feature", "id": 751223968888131584, "properties": {"loc": [-79.560925, 43.609961], "screen_name": "sysimonliu", "text": "Second time having this, starting to take a real liking to it! culturesresto\u2026 https://t.co/AQX4PnWQk8", "created_at": "Fri Jul 08 01:18:45 +0000 2016", "time": 1467940718.345768, "tid": 751223968888131584, "nei_num": "014"}}, {"geometry": {"type": "Point", "coordinates": [-79.5521493, 43.6427862]}, "type": "Feature", "id": 751626196367048704, "properties": {"loc": [-79.5521493, 43.6427862], "screen_name": "tpscalls", "text": "Disorderlies | Shaver Ave N &amp; Smithwood Dr [22 Div.] 07/08 23:51 #Eatonville #Toronto", "created_at": "Sat Jul 09 03:57:04 +0000 2016", "time": 1468036616.553943, "tid": 751626196367048704, "nei_num": "014"}}, {"geometry": {"type": "Point", "coordinates": [-79.5494022, 43.6467785]}, "type": "Feature", "id": 751641292610924544, "properties": {"loc": [-79.5494022, 43.6467785], "screen_name": "tpscalls", "text": "Disorderlies | Martin Grove Rd &amp; Burnelm Dr [22 Div.] 07/09 00:51 #Eatonville #Toronto", "created_at": "Sat Jul 09 04:57:03 +0000 2016", "time": 1468040215.813192, "tid": 751641292610924544, "nei_num": "014"}}, {"geometry": {"type": "Point", "coordinates": [-79.5328383, 43.6431711]}, "type": "Feature", "id": 751644316645326848, "properties": {"loc": [-79.5328383, 43.6431711], "screen_name": "tpscalls", "text": "Assault Just Occurred | Summerland Ter &amp; Dunbloor Rd [22 Div.] 07/09 01:04 #Islington_City_Centre_West #Toronto", "created_at": "Sat Jul 09 05:09:04 +0000 2016", "time": 1468040936.727746, "tid": 751644316645326848, "nei_num": "014"}}, {"geometry": {"type": "Point", "coordinates": [-79.52404, 43.64542]}, "type": "Feature", "id": 751659608377143301, "properties": {"loc": [-79.52404, 43.64542], "screen_name": "Andropomorphine", "text": "#1 #toronto #canada @ Islington Subway Station https://t.co/SxK7oekkbh", "created_at": "Sat Jul 09 06:09:50 +0000 2016", "time": 1468044582.802182, "tid": 751659608377143301, "nei_num": "014"}}, {"geometry": {"type": "Point", "coordinates": [-79.5227562, 43.6453248]}, "type": "Feature", "id": 751723739759251456, "properties": {"loc": [-79.5227562, 43.6453248], "screen_name": "JoinApex", "text": "We're #hiring! Read about our latest #job opening here: Recruiting Inside Sales Trainee (Recruiter/Sales... - https://t.co/6u1DJcS83c", "created_at": "Sat Jul 09 10:24:40 +0000 2016", "time": 1468059872.738701, "tid": 751723739759251456, "nei_num": "014"}}, {"geometry": {"type": "Point", "coordinates": [-79.5227562, 43.6453248]}, "type": "Feature", "id": 751735133770698752, "properties": {"loc": [-79.5227562, 43.6453248], "screen_name": "JoinApex", "text": "We're #hiring! Click to apply: Administrative Assistant for a Branch Office - https://t.co/QQxMjwSxnt #CustomerService #Toronto, Ontario", "created_at": "Sat Jul 09 11:09:57 +0000 2016", "time": 1468062589.307247, "tid": 751735133770698752, "nei_num": "014"}}, {"geometry": {"type": "Point", "coordinates": [-79.5353859, 43.6418087]}, "type": "Feature", "id": 751749249893883905, "properties": {"loc": [-79.5353859, 43.6418087], "screen_name": "tpscalls", "text": "Taxi Alarm | Kipling Ave &amp; Bloor St W [22 Div.] 07/09 08:01 #Eatonville #Toronto", "created_at": "Sat Jul 09 12:06:02 +0000 2016", "time": 1468065954.868119, "tid": 751749249893883905, "nei_num": "014"}}, {"geometry": {"type": "Point", "coordinates": [-79.52866, 43.64848]}, "type": "Feature", "id": 751749685757358080, "properties": {"loc": [-79.52866, 43.64848], "screen_name": "SixthStreetPub", "text": "What Time is it? BRUNCH TIME \ud83d\ude1c\ud83d\ude4c #the6ix #6thstreet #torontoeats #torontofoodie #torontofood\u2026 https://t.co/7lbg8Lrwa9", "created_at": "Sat Jul 09 12:07:46 +0000 2016", "time": 1468066058.75873, "tid": 751749685757358080, "nei_num": "014"}}, {"geometry": {"type": "Point", "coordinates": [-79.5628025, 43.6181487]}, "type": "Feature", "id": 751801238627295232, "properties": {"loc": [-79.5628025, 43.6181487], "screen_name": "tmj_gta_acct", "text": "If you're looking for work in #Etobicoke, ON, check out this #job: https://t.co/Llj3fmyYYV #Accounting #Hiring #CareerArc", "created_at": "Sat Jul 09 15:32:37 +0000 2016", "time": 1468078349.988031, "tid": 751801238627295232, "nei_num": "014"}}, {"geometry": {"type": "Point", "coordinates": [-79.54346911, 43.61763276]}, "type": "Feature", "id": 751808320328130560, "properties": {"loc": [-79.54346911, 43.61763276], "screen_name": "SunnyBreakfasts", "text": "\ud83c\udf74 YUM \ud83c\udf53\ud83c\udf4d\ud83c\udf73 #torontofoodie #SummerTime #BrunchTime \u30fb\u30fb\u30fb#Repost @kennynorton \nBrunch life. \ud83d\ude0e\u2600\ufe0f @\u2026 https://t.co/gP0iBnypyt", "created_at": "Sat Jul 09 16:00:46 +0000 2016", "time": 1468080038.235096, "tid": 751808320328130560, "nei_num": "014"}}, {"geometry": {"type": "Point", "coordinates": [-79.52866, 43.64848]}, "type": "Feature", "id": 751815628961386496, "properties": {"loc": [-79.52866, 43.64848], "screen_name": "SixthStreetPub", "text": "Today's Special: Chipotle Pulled Pork Tacos with Mango Salsa \ud83d\udc83\ud83c\udf2e #torontofood #torontofoodie\u2026 https://t.co/jwbqwTGxDJ", "created_at": "Sat Jul 09 16:29:48 +0000 2016", "time": 1468081780.731993, "tid": 751815628961386496, "nei_num": "014"}}, {"geometry": {"type": "Point", "coordinates": [-79.5230279, 43.6443806]}, "type": "Feature", "id": 751815730958442496, "properties": {"loc": [-79.5230279, 43.6443806], "screen_name": "tmj_on_jobs", "text": "Join the OfficeTeam team! See our latest #job opening here: https://t.co/yJCK5TuAKo #Clerical #Etobicoke, ON #Hiring #CareerArc", "created_at": "Sat Jul 09 16:30:12 +0000 2016", "time": 1468081805.092583, "tid": 751815730958442496, "nei_num": "014"}}, {"geometry": {"type": "Point", "coordinates": [-79.5515413, 43.6358201]}, "type": "Feature", "id": 751829278925459456, "properties": {"loc": [-79.5515413, 43.6358201], "screen_name": "tpscalls", "text": "Assault Just Occurred | The East Mall &amp; Tremont Rd [22 Div.] 07/09 13:19 #Eatonville #Toronto", "created_at": "Sat Jul 09 17:24:03 +0000 2016", "time": 1468085035.102497, "tid": 751829278925459456, "nei_num": "014"}}, {"geometry": {"type": "Point", "coordinates": [-79.54462299, 43.61837323]}, "type": "Feature", "id": 751847077215408128, "properties": {"loc": [-79.54462299, 43.61837323], "screen_name": "JaylixPorter", "text": "I'm at @BedBathBeyond in Etobicoke, ON https://t.co/ZSwYobmhcs", "created_at": "Sat Jul 09 18:34:46 +0000 2016", "time": 1468089278.525822, "tid": 751847077215408128, "nei_num": "014"}}, {"geometry": {"type": "Point", "coordinates": [-79.55878271, 43.61896567]}, "type": "Feature", "id": 751867321887625217, "properties": {"loc": [-79.55878271, 43.61896567], "screen_name": "TheOneTrueDave", "text": "Dangerous! (@ H&amp;M in Toronto, ON) https://t.co/GbgKcdrHvV", "created_at": "Sat Jul 09 19:55:13 +0000 2016", "time": 1468094105.254086, "tid": 751867321887625217, "nei_num": "014"}}, {"geometry": {"type": "Point", "coordinates": [-79.53555556, 43.63758333]}, "type": "Feature", "id": 751933215254929408, "properties": {"loc": [-79.53555556, 43.63758333], "screen_name": "gauravshinde", "text": "View from friends' new apartment @ Kipling (TTC) https://t.co/ELYiy3VcrD", "created_at": "Sun Jul 10 00:17:03 +0000 2016", "time": 1468109815.428953, "tid": 751933215254929408, "nei_num": "014"}}, {"geometry": {"type": "Point", "coordinates": [-79.5521541, 43.6307807]}, "type": "Feature", "id": 751944792205041664, "properties": {"loc": [-79.5521541, 43.6307807], "screen_name": "tpscalls", "text": "Personal Injury Collision | The Queensway &amp; The East Mall [HP] 07/09 20:59 #Etobicoke #Toronto", "created_at": "Sun Jul 10 01:03:03 +0000 2016", "time": 1468112575.542571, "tid": 751944792205041664, "nei_num": "014"}}, {"geometry": {"type": "Point", "coordinates": [-79.5227562, 43.6453248]}, "type": "Feature", "id": 751982221179760640, "properties": {"loc": [-79.5227562, 43.6453248], "screen_name": "JoinApex", "text": "Can you recommend anyone for this #job? Recruiting Inside Sales Trainee (Recruiter/Sales Representative) - https://t.co/6u1DJcS83c #Sales", "created_at": "Sun Jul 10 03:31:47 +0000 2016", "time": 1468121499.606118, "tid": 751982221179760640, "nei_num": "014"}}, {"geometry": {"type": "Point", "coordinates": [-79.52422, 43.63586]}, "type": "Feature", "id": 751985020475023360, "properties": {"loc": [-79.52422, 43.63586], "screen_name": "EtobHumaneSoc", "text": "Willow just chillin' in her #catcondo. I may have interrupted #naptime Contact\u2026 https://t.co/qhX0jTcg7n", "created_at": "Sun Jul 10 03:42:54 +0000 2016", "time": 1468122166.726018, "tid": 751985020475023360, "nei_num": "014"}}, {"geometry": {"type": "Point", "coordinates": [-79.5227562, 43.6453248]}, "type": "Feature", "id": 751993660808441856, "properties": {"loc": [-79.5227562, 43.6453248], "screen_name": "JoinApex", "text": "We're #hiring! Click to apply: Administrative Assistant for a Branch Office - https://t.co/QQxMjwSxnt #CustomerService #Toronto, Ontario", "created_at": "Sun Jul 10 04:17:14 +0000 2016", "time": 1468124226.818569, "tid": 751993660808441856, "nei_num": "014"}}, {"geometry": {"type": "Point", "coordinates": [-79.534217, 43.618151]}, "type": "Feature", "id": 752053451371253760, "properties": {"loc": [-79.534217, 43.618151], "screen_name": "angelogiomateo", "text": "I found a stuffed animal of JJ at IKEA. \ud83d\udcf8 - subtleanimewallpaper #cockapoo #puppy @thedogsofto @\u2026 https://t.co/qJ4mKRtDQF", "created_at": "Sun Jul 10 08:14:49 +0000 2016", "time": 1468138481.867587, "tid": 752053451371253760, "nei_num": "014"}}, {"geometry": {"type": "Point", "coordinates": [-79.5419342, 43.6202232]}, "type": "Feature", "id": 752084461089615872, "properties": {"loc": [-79.5419342, 43.6202232], "screen_name": "tpscalls", "text": "See Ambulance | Algie Ave &amp; Atomic Ave [22 Div.] 07/10 06:14 #Islington_City_Centre_West #Toronto", "created_at": "Sun Jul 10 10:18:03 +0000 2016", "time": 1468145875.116034, "tid": 752084461089615872, "nei_num": "014"}}, {"geometry": {"type": "Point", "coordinates": [-79.5380531, 43.6401871]}, "type": "Feature", "id": 752127632695701505, "properties": {"loc": [-79.5380531, 43.6401871], "screen_name": "tmj_gta_hrta", "text": "We're #hiring! Click to apply: Shift Supervisor (CA) - https://t.co/JcNZhznoBj #Job #Hospitality 5230 DUNDAS ST W, #TORONTO, ON #Veterans", "created_at": "Sun Jul 10 13:09:36 +0000 2016", "time": 1468156168.266024, "tid": 752127632695701505, "nei_num": "014"}}, {"geometry": {"type": "Point", "coordinates": [-79.5227562, 43.6453248]}, "type": "Feature", "id": 752141226762072064, "properties": {"loc": [-79.5227562, 43.6453248], "screen_name": "tmj_gta_cstsrv", "text": "Can you recommend anyone for this #job? Administrative Assistant for a Branch Office - https://t.co/NloXlNWTKu #Toronto, Ontario #Hiring", "created_at": "Sun Jul 10 14:03:37 +0000 2016", "time": 1468159409.303878, "tid": 752141226762072064, "nei_num": "014"}}, {"geometry": {"type": "Point", "coordinates": [-79.513365, 43.6434104]}, "type": "Feature", "id": 752157695441010692, "properties": {"loc": [-79.513365, 43.6434104], "screen_name": "tpscalls", "text": "Dispute | Brentwood Rd S &amp; Thompson Ave [22 Div.] 07/10 11:04 #Etobicoke #Toronto", "created_at": "Sun Jul 10 15:09:03 +0000 2016", "time": 1468163335.564644, "tid": 752157695441010692, "nei_num": "014"}}, {"geometry": {"type": "Point", "coordinates": [-79.52326082, 43.64530108]}, "type": "Feature", "id": 752168252453875712, "properties": {"loc": [-79.52326082, 43.64530108], "screen_name": "JaymesBeatty", "text": "Totally unrelated to checking in but I hope Portugal is dismantled today #Euro2016 (at @GoodLifeFitness) https://t.co/tkaTTA9jlk", "created_at": "Sun Jul 10 15:51:00 +0000 2016", "time": 1468165852.494832, "tid": 752168252453875712, "nei_num": "014"}}, {"geometry": {"type": "Point", "coordinates": [-79.5378148, 43.638135]}, "type": "Feature", "id": 752176600171417600, "properties": {"loc": [-79.5378148, 43.638135], "screen_name": "tmj_gta_hrta", "text": "Can you recommend anyone for this #job? https://t.co/azvVUkIN3b #Hospitality #Veterans #Hiring #CareerArc", "created_at": "Sun Jul 10 16:24:10 +0000 2016", "time": 1468167842.845846, "tid": 752176600171417600, "nei_num": "014"}}, {"geometry": {"type": "Point", "coordinates": [-79.5311572, 43.6437774]}, "type": "Feature", "id": 752183365227442176, "properties": {"loc": [-79.5311572, 43.6437774], "screen_name": "tpscalls", "text": "Fraud | C P R &amp; Resurrection Rd [22 Div.] 07/10 12:46 #Islington_City_Centre_West #Toronto", "created_at": "Sun Jul 10 16:51:03 +0000 2016", "time": 1468169455.672978, "tid": 752183365227442176, "nei_num": "014"}}, {"geometry": {"type": "Point", "coordinates": [-79.5227562, 43.6453248]}, "type": "Feature", "id": 752189346778722304, "properties": {"loc": [-79.5227562, 43.6453248], "screen_name": "tmj_gta_sales", "text": "Join the Apex Systems team! See our latest #job opening here: https://t.co/U9CK79XiAy #Sales #Toronto, Ontario #Hiring #CareerArc", "created_at": "Sun Jul 10 17:14:49 +0000 2016", "time": 1468170881.855228, "tid": 752189346778722304, "nei_num": "014"}}, {"geometry": {"type": "Point", "coordinates": [-79.56277265, 43.60901049]}, "type": "Feature", "id": 752199958577676289, "properties": {"loc": [-79.56277265, 43.60901049], "screen_name": "reneeabennett", "text": "Breathing Problems Suck \ud83d\ude37 #Asthma #Hospital #Mask @ Trillium Health Centre Urgent Care https://t.co/6cUP3B3j6x", "created_at": "Sun Jul 10 17:56:59 +0000 2016", "time": 1468173411.901692, "tid": 752199958577676289, "nei_num": "014"}}, {"geometry": {"type": "Point", "coordinates": [-79.5224953, 43.6451848]}, "type": "Feature", "id": 752202571872243712, "properties": {"loc": [-79.5224953, 43.6451848], "screen_name": "tmj_gta_hrta", "text": "If you're looking for work in , check out this #job: https://t.co/jYYIU29Xpp #Hospitality #Veterans #Hiring #CareerArc", "created_at": "Sun Jul 10 18:07:23 +0000 2016", "time": 1468174035.072587, "tid": 752202571872243712, "nei_num": "014"}}, {"geometry": {"type": "Point", "coordinates": [-79.5224953, 43.6451848]}, "type": "Feature", "id": 752204121231405057, "properties": {"loc": [-79.5224953, 43.6451848], "screen_name": "tmj_gta_hrta", "text": "This #job might be a great fit for you: Barista (CA) - https://t.co/uJYEzC7Ivw #Hospitality #Veterans #Hiring #CareerArc", "created_at": "Sun Jul 10 18:13:32 +0000 2016", "time": 1468174404.470657, "tid": 752204121231405057, "nei_num": "014"}}, {"geometry": {"type": "Point", "coordinates": [-79.5227562, 43.6453248]}, "type": "Feature", "id": 752240983505448960, "properties": {"loc": [-79.5227562, 43.6453248], "screen_name": "JoinApex", "text": "We're #hiring! Click to apply: Recruiting Inside Sales Trainee (Recruiter/Sales Representative) - https://t.co/6u1DJcS83c #Job #Sales #Jobs", "created_at": "Sun Jul 10 20:40:01 +0000 2016", "time": 1468183193.051308, "tid": 752240983505448960, "nei_num": "014"}}, {"geometry": {"type": "Point", "coordinates": [-79.560642, 43.609779]}, "type": "Feature", "id": 752244162523791360, "properties": {"loc": [-79.560642, 43.609779], "screen_name": "RaphaelaMandel", "text": "Great minds think alike \ud83d\udc6f || @jcrew @ J.Crew \u2013 Sherway Gardens https://t.co/6LcaAq7sqj", "created_at": "Sun Jul 10 20:52:39 +0000 2016", "time": 1468183950.988508, "tid": 752244162523791360, "nei_num": "014"}}, {"geometry": {"type": "Point", "coordinates": [-79.5227562, 43.6453248]}, "type": "Feature", "id": 752252413583593472, "properties": {"loc": [-79.5227562, 43.6453248], "screen_name": "JoinApex", "text": "See our latest #Toronto, Ontario #job and click to apply: Administrative Assistant for a Branch Office - https://t.co/QQxMjwSxnt #Hiring", "created_at": "Sun Jul 10 21:25:26 +0000 2016", "time": 1468185918.120682, "tid": 752252413583593472, "nei_num": "014"}}, {"geometry": {"type": "Point", "coordinates": [-79.5521196, 43.6371664]}, "type": "Feature", "id": 752272718356029442, "properties": {"loc": [-79.5521196, 43.6371664], "screen_name": "tofire", "text": "Medical (Trouble Breathing) - Tremont Road b/w Vickson Crt / Peterlee Avenue, Etobicoke (2 Trucks)", "created_at": "Sun Jul 10 22:46:07 +0000 2016", "time": 1468190759.128053, "tid": 752272718356029442, "nei_num": "014"}}, {"geometry": {"type": "Point", "coordinates": [-79.5521196, 43.6371664]}, "type": "Feature", "id": 752272719518003200, "properties": {"loc": [-79.5521196, 43.6371664], "screen_name": "tofireW", "text": "Medical (Trouble Breathing) - Tremont Road b/w Vickson Crt / Peterlee Avenue, Etobicoke (2 Trucks)", "created_at": "Sun Jul 10 22:46:07 +0000 2016", "time": 1468190759.292369, "tid": 752272719518003200, "nei_num": "014"}}, {"geometry": {"type": "Point", "coordinates": [-79.53798, 43.64159]}, "type": "Feature", "id": 752284913722765312, "properties": {"loc": [-79.53798, 43.64159], "screen_name": "JoshSayz", "text": "I promised my coworkers that if we raised $2500 for sick kids I would shave my head, we ended up\u2026 https://t.co/WBkHRPlSWH", "created_at": "Sun Jul 10 23:34:34 +0000 2016", "time": 1468193666.703565, "tid": 752284913722765312, "nei_num": "014"}}, {"geometry": {"type": "Point", "coordinates": [-79.52866, 43.64848]}, "type": "Feature", "id": 752455761435910144, "properties": {"loc": [-79.52866, 43.64848], "screen_name": "SixthStreetPub", "text": "Today's App: Irish Nachos with our Dark Ale Gravy \ud83d\ude1b\ud83d\ude4f\ud83c\udffb #mondaymotivation #mondaypickmeup\u2026 https://t.co/awR3VJmJQ3", "created_at": "Mon Jul 11 10:53:28 +0000 2016", "time": 1468234399.912389, "tid": 752455761435910144, "nei_num": "014"}}, {"geometry": {"type": "Point", "coordinates": [-79.52866, 43.64848]}, "type": "Feature", "id": 752457021425786881, "properties": {"loc": [-79.52866, 43.64848], "screen_name": "SixthStreetPub", "text": "Today's App: Irish Nachos Served up with our Dark Ale Gravy \ud83d\ude1b\ud83d\ude4f\ud83c\udffb #carbsfordays #the6ix #6thstreet\u2026 https://t.co/LXwxCWNLCp", "created_at": "Mon Jul 11 10:58:28 +0000 2016", "time": 1468234700.321868, "tid": 752457021425786881, "nei_num": "014"}}, {"geometry": {"type": "Point", "coordinates": [-79.52422, 43.63586]}, "type": "Feature", "id": 752460760148684800, "properties": {"loc": [-79.52422, 43.63586], "screen_name": "EtobHumaneSoc", "text": "Kitten yawns are the cutest. Contact cats@etobicokehumanesociety.com or visit\u2026 https://t.co/5RwvsxQnS8", "created_at": "Mon Jul 11 11:13:19 +0000 2016", "time": 1468235591.680421, "tid": 752460760148684800, "nei_num": "014"}}, {"geometry": {"type": "Point", "coordinates": [-79.56003249, 43.60916]}, "type": "Feature", "id": 752472924431540224, "properties": {"loc": [-79.56003249, 43.60916], "screen_name": "JaylixPorter", "text": "I'm at @TimHortonsNews in Toronto, ON https://t.co/jIPEsmASlh", "created_at": "Mon Jul 11 12:01:40 +0000 2016", "time": 1468238492.051348, "tid": 752472924431540224, "nei_num": "014"}}, {"geometry": {"type": "Point", "coordinates": [-79.5378148, 43.638135]}, "type": "Feature", "id": 752479241963319296, "properties": {"loc": [-79.5378148, 43.638135], "screen_name": "tmj_gta_hrta", "text": "Interested in a #job near ? This could be a great fit: https://t.co/7bfGxtjUUO #Hospitality #Veterans #Hiring #CareerArc", "created_at": "Mon Jul 11 12:26:46 +0000 2016", "time": 1468239998.086182, "tid": 752479241963319296, "nei_num": "014"}}, {"geometry": {"type": "Point", "coordinates": [-79.5227562, 43.6453248]}, "type": "Feature", "id": 752499834561568768, "properties": {"loc": [-79.5227562, 43.6453248], "screen_name": "JoinApex", "text": "Join the Apex Systems team! See our latest #job opening here: https://t.co/6u1DJcS83c #Sales #Toronto, Ontario #Hiring", "created_at": "Mon Jul 11 13:48:35 +0000 2016", "time": 1468244907.716169, "tid": 752499834561568768, "nei_num": "014"}}, {"geometry": {"type": "Point", "coordinates": [-79.54346911, 43.61763276]}, "type": "Feature", "id": 752504231211524096, "properties": {"loc": [-79.54346911, 43.61763276], "screen_name": "SunnyBreakfasts", "text": "Breakfast of champions \ud83d\udcaa\ud83c\udffc\ud83c\udf53\u2615\ufe0f\ud83c\udf4d\ud83c\udf73\ud83c\udf74\ud83c\udf4a\ud83c\udf47 #Repost jellars\n\u30fb\u30fb\u30fb\n192/365 Double date brunch \ud83c\udf73\ud83c\udf5e\ud83c\udf75 #brunch\u2026 https://t.co/Sr2CGzmupG", "created_at": "Mon Jul 11 14:06:04 +0000 2016", "time": 1468245955.953991, "tid": 752504231211524096, "nei_num": "014"}}, {"geometry": {"type": "Point", "coordinates": [-79.5227562, 43.6453248]}, "type": "Feature", "id": 752511246293807104, "properties": {"loc": [-79.5227562, 43.6453248], "screen_name": "JoinApex", "text": "Want to work at Apex Systems? We're #hiring in #Toronto, Ontario! Click for details: https://t.co/QQxMjwSxnt #Job #CustomerService #Jobs", "created_at": "Mon Jul 11 14:33:56 +0000 2016", "time": 1468247628.47362, "tid": 752511246293807104, "nei_num": "014"}}, {"geometry": {"type": "Point", "coordinates": [-79.5343, 43.64174]}, "type": "Feature", "id": 752516873112223744, "properties": {"loc": [-79.5343, 43.64174], "screen_name": "codydacosta", "text": "After all the recent things in the news from our neighbours to the south, this happened while\u2026 https://t.co/d3c9zYx7cM", "created_at": "Mon Jul 11 14:56:18 +0000 2016", "time": 1468248969.996559, "tid": 752516873112223744, "nei_num": "014"}}, {"geometry": {"type": "Point", "coordinates": [-79.5380531, 43.6401871]}, "type": "Feature", "id": 752531382081957888, "properties": {"loc": [-79.5380531, 43.6401871], "screen_name": "tmj_gta_hrta", "text": "Interested in a #job near 5230 DUNDAS ST W, #TORONTO, ON? This could be a great fit: https://t.co/KkaeVl6rkf #Hospitality #Veterans #Hiring", "created_at": "Mon Jul 11 15:53:57 +0000 2016", "time": 1468252429.187082, "tid": 752531382081957888, "nei_num": "014"}}, {"geometry": {"type": "Point", "coordinates": [-79.544673, 43.6321493]}, "type": "Feature", "id": 752545748512825344, "properties": {"loc": [-79.544673, 43.6321493], "screen_name": "tpscalls", "text": "Impaired Driver | Shorncliffe Rd &amp; Dundas St W [22 Div.] 07/11 12:47 #Islington_City_Centre_West #Toronto", "created_at": "Mon Jul 11 16:51:02 +0000 2016", "time": 1468255854.500048, "tid": 752545748512825344, "nei_num": "014"}}, {"geometry": {"type": "Point", "coordinates": [-79.5333803, 43.64376908]}, "type": "Feature", "id": 752554524091572225, "properties": {"loc": [-79.5333803, 43.64376908], "screen_name": "Cheoffrey", "text": "#texmex #threebean #summersalad #avocado #chipotleranch #dressing #summereats #eatclean\u2026 https://t.co/DJ0ccBTerI", "created_at": "Mon Jul 11 17:25:54 +0000 2016", "time": 1468257946.740326, "tid": 752554524091572225, "nei_num": "014"}}, {"geometry": {"type": "Point", "coordinates": [-79.5599945, 43.6160419]}, "type": "Feature", "id": 752564980969451520, "properties": {"loc": [-79.5599945, 43.6160419], "screen_name": "tmj_gta_retail", "text": "If you're looking for work in #Etobicoke, ON, check out this #job: https://t.co/PCkXh5wdDH #Retail #Hiring #CareerArc", "created_at": "Mon Jul 11 18:07:28 +0000 2016", "time": 1468260439.748875, "tid": 752564980969451520, "nei_num": "014"}}, {"geometry": {"type": "Point", "coordinates": [-79.5464732, 43.6255821]}, "type": "Feature", "id": 752565021008359425, "properties": {"loc": [-79.5464732, 43.6255821], "screen_name": "Pablo_074", "text": "@Radioacktiva_ conectado 100%", "created_at": "Mon Jul 11 18:07:37 +0000 2016", "time": 1468260449.452511, "tid": 752565021008359425, "nei_num": "014"}}, {"geometry": {"type": "Point", "coordinates": [-79.5333803, 43.64376908]}, "type": "Feature", "id": 752565308901224448, "properties": {"loc": [-79.5333803, 43.64376908], "screen_name": "Cheoffrey", "text": "#nathansfamous #footlong #hotdog #summereats #beermustard #cheese #caramelizedonion #cheoffeats\u2026 https://t.co/XDsZGrHvjs", "created_at": "Mon Jul 11 18:08:46 +0000 2016", "time": 1468260517.981414, "tid": 752565308901224448, "nei_num": "014"}}, {"geometry": {"type": "Point", "coordinates": [-79.54395, 43.6227]}, "type": "Feature", "id": 752599567829504000, "properties": {"loc": [-79.54395, 43.6227], "screen_name": "Storstac", "text": "This past Canada Day we teamed up with #TeamCanada by putting two of our shipping container\u2026 https://t.co/7FuMvlMk8D", "created_at": "Mon Jul 11 20:24:54 +0000 2016", "time": 1468268685.9462, "tid": 752599567829504000, "nei_num": "014"}}, {"geometry": {"type": "Point", "coordinates": [-79.544673, 43.6321493]}, "type": "Feature", "id": 752625782363721728, "properties": {"loc": [-79.544673, 43.6321493], "screen_name": "tpscalls", "text": "Personal Injury Collision | Dundas St W &amp; Shorncliffe Rd [22 Div.] 07/11 18:03 #Islington_City_Centre_West #Toronto", "created_at": "Mon Jul 11 22:09:04 +0000 2016", "time": 1468274935.894564, "tid": 752625782363721728, "nei_num": "014"}}, {"geometry": {"type": "Point", "coordinates": [-79.53555556, 43.63758333]}, "type": "Feature", "id": 752674791367335936, "properties": {"loc": [-79.53555556, 43.63758333], "screen_name": "Aladdin_1991", "text": "My Student From Prince Razzle Dazzle Driving Academy \ud83d\ude99\ud83d\udc4d\ud83c\udffc\ud83d\ude97 #SafeDriver #GoodStudent\u2026 https://t.co/ai3xVJt6JG", "created_at": "Tue Jul 12 01:23:48 +0000 2016", "time": 1468286620.545264, "tid": 752674791367335936, "nei_num": "014"}}, {"geometry": {"type": "Point", "coordinates": [-79.53466415, 43.63849774]}, "type": "Feature", "id": 752681864167587844, "properties": {"loc": [-79.53466415, 43.63849774], "screen_name": "katiepaterson", "text": "Why can j never remember how to get to my car... (@ Kipling GO Station in Toronto, ON) https://t.co/c8cHSinQnN", "created_at": "Tue Jul 12 01:51:55 +0000 2016", "time": 1468288306.910493, "tid": 752681864167587844, "nei_num": "014"}}, {"geometry": {"type": "Point", "coordinates": [-79.5227562, 43.6453248]}, "type": "Feature", "id": 752758576951595008, "properties": {"loc": [-79.5227562, 43.6453248], "screen_name": "JoinApex", "text": "Can you recommend anyone for this #job? Recruiting Inside Sales Trainee (Recruiter/Sales Representative) - https://t.co/6u1DJcS83c #Sales", "created_at": "Tue Jul 12 06:56:44 +0000 2016", "time": 1468306596.489758, "tid": 752758576951595008, "nei_num": "014"}}, {"geometry": {"type": "Point", "coordinates": [-79.5227562, 43.6453248]}, "type": "Feature", "id": 752769970958852096, "properties": {"loc": [-79.5227562, 43.6453248], "screen_name": "JoinApex", "text": "This #job might be a great fit for you: Administrative Assistant for a Branch Office - https://t.co/QQxMjwSxnt #Toronto, Ontario #Hiring", "created_at": "Tue Jul 12 07:42:01 +0000 2016", "time": 1468309313.075813, "tid": 752769970958852096, "nei_num": "014"}}, {"geometry": {"type": "Point", "coordinates": [-79.5427329, 43.6273777]}, "type": "Feature", "id": 752831886070865921, "properties": {"loc": [-79.5427329, 43.6273777], "screen_name": "tpscalls", "text": "Assault In Progress | Wilmar Rd &amp; Shorncliffe Rd [22 Div.] 07/12 07:44 #Islington_City_Centre_West #Toronto", "created_at": "Tue Jul 12 11:48:03 +0000 2016", "time": 1468324074.761566, "tid": 752831886070865921, "nei_num": "014"}}, {"geometry": {"type": "Point", "coordinates": [-79.56003249, 43.60916]}, "type": "Feature", "id": 752832322739773440, "properties": {"loc": [-79.56003249, 43.60916], "screen_name": "JaylixPorter", "text": "I'm at @TimHortonsNews in Toronto, ON https://t.co/lpYuFJjJpX", "created_at": "Tue Jul 12 11:49:47 +0000 2016", "time": 1468324178.884174, "tid": 752832322739773440, "nei_num": "014"}}, {"geometry": {"type": "Point", "coordinates": [-79.534217, 43.618151]}, "type": "Feature", "id": 752835501762158592, "properties": {"loc": [-79.534217, 43.618151], "screen_name": "angelogiomateo", "text": "\ud83d\udc3c ft. subtleanimewallpaper. @ IKEA Canada https://t.co/zti5hkgfJ9", "created_at": "Tue Jul 12 12:02:25 +0000 2016", "time": 1468324936.803904, "tid": 752835501762158592, "nei_num": "014"}}, {"geometry": {"type": "Point", "coordinates": [-79.5333803, 43.64376908]}, "type": "Feature", "id": 752844427853438976, "properties": {"loc": [-79.5333803, 43.64376908], "screen_name": "Cheoffrey", "text": "Hot &amp; sticky #coconut #shrimp #tacos #tacotuesday #cheoffeats #truecooks #gatekitchen\u2026 https://t.co/g8ZgN3qfOF", "created_at": "Tue Jul 12 12:37:53 +0000 2016", "time": 1468327064.970103, "tid": 752844427853438976, "nei_num": "014"}}, {"geometry": {"type": "Point", "coordinates": [-79.53211487, 43.63844763]}, "type": "Feature", "id": 752851187225890816, "properties": {"loc": [-79.53211487, 43.63844763], "screen_name": "readmyeyes22", "text": "Just posted a photo @ D.C. Music Toronto https://t.co/gl0QM7ZVGg", "created_at": "Tue Jul 12 13:04:44 +0000 2016", "time": 1468328676.494621, "tid": 752851187225890816, "nei_num": "014"}}, {"geometry": {"type": "Point", "coordinates": [-79.53211487, 43.63844763]}, "type": "Feature", "id": 752891934797029381, "properties": {"loc": [-79.53211487, 43.63844763], "screen_name": "readmyeyes22", "text": "Just posted a photo @ D.C. Music Toronto https://t.co/vtpScMTURY", "created_at": "Tue Jul 12 15:46:39 +0000 2016", "time": 1468338391.497672, "tid": 752891934797029381, "nei_num": "014"}}, {"geometry": {"type": "Point", "coordinates": [-79.55520988, 43.63149371]}, "type": "Feature", "id": 752909717861728256, "properties": {"loc": [-79.55520988, 43.63149371], "screen_name": "Drewber66", "text": "I'm at Cloverdale Mall in Etobicoke, ON https://t.co/ju3Eg7AhV8", "created_at": "Tue Jul 12 16:57:19 +0000 2016", "time": 1468342631.247679, "tid": 752909717861728256, "nei_num": "014"}}, {"geometry": {"type": "Point", "coordinates": [-79.55648327, 43.63211168]}, "type": "Feature", "id": 752910127817191424, "properties": {"loc": [-79.55648327, 43.63211168], "screen_name": "Drewber66", "text": "Quick food break (@ A&amp;W - @awcanada in Etobicoke, ON) https://t.co/Xn8mkQqfau", "created_at": "Tue Jul 12 16:58:57 +0000 2016", "time": 1468342728.997703, "tid": 752910127817191424, "nei_num": "014"}}, {"geometry": {"type": "Point", "coordinates": [-79.54395, 43.6227]}, "type": "Feature", "id": 752931281625841664, "properties": {"loc": [-79.54395, 43.6227], "screen_name": "Storstac", "text": "Make sure to head down to the Storstac supplied thewellmarket at the corner of Spadina and Front\u2026 https://t.co/44qRN2S89l", "created_at": "Tue Jul 12 18:23:00 +0000 2016", "time": 1468347772.606483, "tid": 752931281625841664, "nei_num": "014"}}, {"geometry": {"type": "Point", "coordinates": [-79.5190141, 43.6457356]}, "type": "Feature", "id": 752967784762580992, "properties": {"loc": [-79.5190141, 43.6457356], "screen_name": "tpscalls", "text": "Fire | Bloor St W &amp; Aberfoyle Cres [22 Div.] 07/12 16:43 #Islington_City_Centre_West #Toronto", "created_at": "Tue Jul 12 20:48:04 +0000 2016", "time": 1468356475.431223, "tid": 752967784762580992, "nei_num": "014"}}, {"geometry": {"type": "Point", "coordinates": [-79.5233878, 43.6447484]}, "type": "Feature", "id": 752968288762748929, "properties": {"loc": [-79.5233878, 43.6447484], "screen_name": "tofire", "text": "Fire (Subway) - Islington Avenue b/w Bloor St West / Aberfoyle Crescent, Etobicoke (9 Trucks)", "created_at": "Tue Jul 12 20:50:04 +0000 2016", "time": 1468356595.619856, "tid": 752968288762748929, "nei_num": "014"}}, {"geometry": {"type": "Point", "coordinates": [-79.5233878, 43.6447484]}, "type": "Feature", "id": 752968290503458816, "properties": {"loc": [-79.5233878, 43.6447484], "screen_name": "tofiref", "text": "Fire (Subway) - Islington Avenue b/w Bloor St West / Aberfoyle Crescent, Etobicoke (9 Trucks)", "created_at": "Tue Jul 12 20:50:04 +0000 2016", "time": 1468356595.993301, "tid": 752968290503458816, "nei_num": "014"}}, {"geometry": {"type": "Point", "coordinates": [-79.5233878, 43.6447484]}, "type": "Feature", "id": 752968289664569345, "properties": {"loc": [-79.5233878, 43.6447484], "screen_name": "tofireW", "text": "Fire (Subway) - Islington Avenue b/w Bloor St West / Aberfoyle Crescent, Etobicoke (9 Trucks)", "created_at": "Tue Jul 12 20:50:04 +0000 2016", "time": 1468356596.729569, "tid": 752968289664569345, "nei_num": "014"}}, {"geometry": {"type": "Point", "coordinates": [-79.5233878, 43.6447484]}, "type": "Feature", "id": 752969797277712384, "properties": {"loc": [-79.5233878, 43.6447484], "screen_name": "tofire", "text": "UD: Fire (Subway) - Islington Avenue b/w Bloor St West / Aberfoyle Crescent, Etobicoke (10 Trucks)", "created_at": "Tue Jul 12 20:56:03 +0000 2016", "time": 1468356955.310564, "tid": 752969797277712384, "nei_num": "014"}}, {"geometry": {"type": "Point", "coordinates": [-79.5233878, 43.6447484]}, "type": "Feature", "id": 752969799492304897, "properties": {"loc": [-79.5233878, 43.6447484], "screen_name": "tofiref", "text": "UD: Fire (Subway) - Islington Avenue b/w Bloor St West / Aberfoyle Crescent, Etobicoke (10 Trucks)", "created_at": "Tue Jul 12 20:56:04 +0000 2016", "time": 1468356955.74444, "tid": 752969799492304897, "nei_num": "014"}}, {"geometry": {"type": "Point", "coordinates": [-79.5233878, 43.6447484]}, "type": "Feature", "id": 752969798468923392, "properties": {"loc": [-79.5233878, 43.6447484], "screen_name": "tofireW", "text": "UD: Fire (Subway) - Islington Avenue b/w Bloor St West / Aberfoyle Crescent, Etobicoke (10 Trucks)", "created_at": "Tue Jul 12 20:56:04 +0000 2016", "time": 1468356955.551008, "tid": 752969798468923392, "nei_num": "014"}}, {"geometry": {"type": "Point", "coordinates": [-79.5416599, 43.61731]}, "type": "Feature", "id": 752972786973442050, "properties": {"loc": [-79.5416599, 43.61731], "screen_name": "lindsayreid87", "text": "Our depalletizer is in and the inner skater/stoner/tomboy I used to be is excited to learn it's\u2026 https://t.co/BsnIGeNr3c", "created_at": "Tue Jul 12 21:07:56 +0000 2016", "time": 1468357668.069241, "tid": 752972786973442050, "nei_num": "014"}}, {"geometry": {"type": "Point", "coordinates": [-79.53395785, 43.6178602]}, "type": "Feature", "id": 752979346114183168, "properties": {"loc": [-79.53395785, 43.6178602], "screen_name": "Kary_PJ", "text": "I'm at @IKEACanada in Etobicoke, ON https://t.co/IcUXtkfv0i", "created_at": "Tue Jul 12 21:34:00 +0000 2016", "time": 1468359231.909654, "tid": 752979346114183168, "nei_num": "014"}}, {"geometry": {"type": "Point", "coordinates": [-79.561593, 43.6141311]}, "type": "Feature", "id": 752979617200283648, "properties": {"loc": [-79.561593, 43.6141311], "screen_name": "tmj_gta_hrta", "text": "If you're looking for work in 1950 THE QUEENSWAY, #ETOBICOKE, ON, check out this #job: https://t.co/qmPstPLxTH #Hospitality #Veterans", "created_at": "Tue Jul 12 21:35:05 +0000 2016", "time": 1468359296.457297, "tid": 752979617200283648, "nei_num": "014"}}, {"geometry": {"type": "Point", "coordinates": [-79.51687345, 43.63431673]}, "type": "Feature", "id": 752985974762790912, "properties": {"loc": [-79.51687345, 43.63431673], "screen_name": "MRJ", "text": "Swimming for Diva (@ Norseman Community School &amp; Pool in Toronto, ON) https://t.co/mmTAWeaDeO", "created_at": "Tue Jul 12 22:00:20 +0000 2016", "time": 1468360812.289765, "tid": 752985974762790912, "nei_num": "014"}}, {"geometry": {"type": "Point", "coordinates": [-79.561429, 43.6107192]}, "type": "Feature", "id": 752988424529928192, "properties": {"loc": [-79.561429, 43.6107192], "screen_name": "tofire", "text": "Medical (Exposure) - The West Mall b/w Sherway Gardens Road / Hepc, Etobicoke (2 Trucks)", "created_at": "Tue Jul 12 22:10:04 +0000 2016", "time": 1468361396.277098, "tid": 752988424529928192, "nei_num": "014"}}, {"geometry": {"type": "Point", "coordinates": [-79.561429, 43.6107192]}, "type": "Feature", "id": 752988425662390273, "properties": {"loc": [-79.561429, 43.6107192], "screen_name": "tofireW", "text": "Medical (Exposure) - The West Mall b/w Sherway Gardens Road / Hepc, Etobicoke (2 Trucks)", "created_at": "Tue Jul 12 22:10:05 +0000 2016", "time": 1468361396.598686, "tid": 752988425662390273, "nei_num": "014"}}, {"geometry": {"type": "Point", "coordinates": [-79.528363, 43.641636]}, "type": "Feature", "id": 752997217426735104, "properties": {"loc": [-79.528363, 43.641636], "screen_name": "JonGauthier", "text": "Picking Up #SculptureJon i got done @ #ideacity (@ Objex Unlimted in Toronto) https://t.co/pbKYj0uSeQ https://t.co/hB3VwMTHbj", "created_at": "Tue Jul 12 22:45:01 +0000 2016", "time": 1468363493.163664, "tid": 752997217426735104, "nei_num": "014"}}, {"geometry": {"type": "Point", "coordinates": [-79.5227562, 43.6453248]}, "type": "Feature", "id": 753020999042338816, "properties": {"loc": [-79.5227562, 43.6453248], "screen_name": "JoinApex", "text": "Can you recommend anyone for this #job? Recruiting Inside Sales Trainee (Recruiter/Sales Representative) - https://t.co/6u1DJcS83c #Sales", "created_at": "Wed Jul 13 00:19:31 +0000 2016", "time": 1468369162.637626, "tid": 753020999042338816, "nei_num": "014"}}, {"geometry": {"type": "Point", "coordinates": [-79.5492533, 43.6303965]}, "type": "Feature", "id": 753031217214205952, "properties": {"loc": [-79.5492533, 43.6303965], "screen_name": "TracyCurley420", "text": "The Rockpile..Now! #CFBA #saveourdispensaries #therockpile #tonight #rockpilewest @ The Rockpile https://t.co/BYmSW0oDcl", "created_at": "Wed Jul 13 01:00:07 +0000 2016", "time": 1468371598.818798, "tid": 753031217214205952, "nei_num": "014"}}, {"geometry": {"type": "Point", "coordinates": [-79.5227562, 43.6453248]}, "type": "Feature", "id": 753032421604327424, "properties": {"loc": [-79.5227562, 43.6453248], "screen_name": "JoinApex", "text": "Interested in a #job near #Toronto, Ontario? This could be a great fit: https://t.co/QQxMjwSxnt #CustomerService #Hiring", "created_at": "Wed Jul 13 01:04:54 +0000 2016", "time": 1468371885.963093, "tid": 753032421604327424, "nei_num": "014"}}, {"geometry": {"type": "Point", "coordinates": [-79.5419342, 43.6202232]}, "type": "Feature", "id": 753123304379146240, "properties": {"loc": [-79.5419342, 43.6202232], "screen_name": "tpscalls", "text": "Assault Just Occurred | Algie Ave &amp; Atomic Ave [22 Div.] 07/13 03:02 #Islington_City_Centre_West #Toronto", "created_at": "Wed Jul 13 07:06:02 +0000 2016", "time": 1468393554.081617, "tid": 753123304379146240, "nei_num": "014"}}, {"geometry": {"type": "Point", "coordinates": [-79.52866, 43.64848]}, "type": "Feature", "id": 753183146774974464, "properties": {"loc": [-79.52866, 43.64848], "screen_name": "SixthStreetPub", "text": "Burgers, Burgers, Burgers! It's Burger Day \ud83c\udf54\ud83d\ude0e #torontoeats #torontofood #torontofoodie #the6ix\u2026 https://t.co/gwgfxIHcqB", "created_at": "Wed Jul 13 11:03:50 +0000 2016", "time": 1468407821.595038, "tid": 753183146774974464, "nei_num": "014"}}, {"geometry": {"type": "Point", "coordinates": [-79.5343, 43.64174]}, "type": "Feature", "id": 753188345057009664, "properties": {"loc": [-79.5343, 43.64174], "screen_name": "itsAfeeling", "text": "Chester was too distracted to pose with @lovebottherobot so just a tickle of a tail... @\u2026 https://t.co/uaSONJJMXk", "created_at": "Wed Jul 13 11:24:29 +0000 2016", "time": 1468409060.90176, "tid": 753188345057009664, "nei_num": "014"}}, {"geometry": {"type": "Point", "coordinates": [-79.56003249, 43.60916]}, "type": "Feature", "id": 753194071263440896, "properties": {"loc": [-79.56003249, 43.60916], "screen_name": "JaylixPorter", "text": "I'm at @TimHortonsNews in Toronto, ON https://t.co/WMHXi9kGCo", "created_at": "Wed Jul 13 11:47:14 +0000 2016", "time": 1468410426.146907, "tid": 753194071263440896, "nei_num": "014"}}, {"geometry": {"type": "Point", "coordinates": [-79.52422, 43.63586]}, "type": "Feature", "id": 753195060850626560, "properties": {"loc": [-79.52422, 43.63586], "screen_name": "EtobHumaneSoc", "text": "Wake up its #whiskerswednesday #nappingkitty #kittensofinstagram #rescuepets #EHSdogs\u2026 https://t.co/k0uT3fpA6b", "created_at": "Wed Jul 13 11:51:10 +0000 2016", "time": 1468410666.890178, "tid": 753195060850626560, "nei_num": "014"}}, {"geometry": {"type": "Point", "coordinates": [-79.55002, 43.61893]}, "type": "Feature", "id": 753208112136486912, "properties": {"loc": [-79.55002, 43.61893], "screen_name": "boulderzer", "text": "CAMP BOULDERZ Staff Rockin' this FULL week of #SummerCamp #kids\u2026 https://t.co/AA3bXaj1ed", "created_at": "Wed Jul 13 12:43:02 +0000 2016", "time": 1468413773.709351, "tid": 753208112136486912, "nei_num": "014"}}, {"geometry": {"type": "Point", "coordinates": [-79.561593, 43.6141311]}, "type": "Feature", "id": 753236252271325185, "properties": {"loc": [-79.561593, 43.6141311], "screen_name": "tmj_gta_hrta", "text": "We're #hiring! Read about our latest #job opening here: Barista (CA) - https://t.co/QTNCUYuSCU 1950 THE QUEENSWAY, #ETOBICOKE, ON #Veterans", "created_at": "Wed Jul 13 14:34:51 +0000 2016", "time": 1468420485.67131, "tid": 753236252271325185, "nei_num": "014"}}, {"geometry": {"type": "Point", "coordinates": [-79.52044211, 43.63587441]}, "type": "Feature", "id": 753246803768868869, "properties": {"loc": [-79.52044211, 43.63587441], "screen_name": "frankp316", "text": "I'm at TTC Bus #44 - Kipling South in Toronto, ON https://t.co/iF7vW0bFSl", "created_at": "Wed Jul 13 15:16:47 +0000 2016", "time": 1468422998.557087, "tid": 753246803768868869, "nei_num": "014"}}, {"geometry": {"type": "Point", "coordinates": [-79.53601599, 43.63694481]}, "type": "Feature", "id": 753249923047559168, "properties": {"loc": [-79.53601599, 43.63694481], "screen_name": "frankp316", "text": "I'm at Kipling Subway Station in Toronto, ON https://t.co/IzHkT0sale", "created_at": "Wed Jul 13 15:29:11 +0000 2016", "time": 1468423742.218296, "tid": 753249923047559168, "nei_num": "014"}}, {"geometry": {"type": "Point", "coordinates": [-79.5210089, 43.6453751]}, "type": "Feature", "id": 753251273470713856, "properties": {"loc": [-79.5210089, 43.6453751], "screen_name": "dr_mayers", "text": "These just in! Burberry X Ray Bans \ud83d\udc53\ud83d\udc40\u2600\ufe0f COME check out our newest SUNGLASSES And don't forget\u2026 https://t.co/JKtT00VdDR", "created_at": "Wed Jul 13 15:34:32 +0000 2016", "time": 1468424064.351782, "tid": 753251273470713856, "nei_num": "014"}}, {"geometry": {"type": "Point", "coordinates": [-79.5287577, 43.6487919]}, "type": "Feature", "id": 753272039683784704, "properties": {"loc": [-79.5287577, 43.6487919], "screen_name": "tpscalls", "text": "Disorderlies | Dundas St W &amp; Cordova Ave [22 Div.] 07/13 12:51 #Eatonville #Toronto", "created_at": "Wed Jul 13 16:57:04 +0000 2016", "time": 1468429015.173296, "tid": 753272039683784704, "nei_num": "014"}}, {"geometry": {"type": "Point", "coordinates": [-79.5227562, 43.6453248]}, "type": "Feature", "id": 753283665006690305, "properties": {"loc": [-79.5227562, 43.6453248], "screen_name": "JoinApex", "text": "Want to work at Apex Systems? We're #hiring in #Toronto, Ontario! Click for details: https://t.co/6u1DJcS83c #Job #Sales #Jobs", "created_at": "Wed Jul 13 17:43:15 +0000 2016", "time": 1468431786.980034, "tid": 753283665006690305, "nei_num": "014"}}, {"geometry": {"type": "Point", "coordinates": [-79.5227562, 43.6453248]}, "type": "Feature", "id": 753295093910560769, "properties": {"loc": [-79.5227562, 43.6453248], "screen_name": "JoinApex", "text": "Want to work in #Toronto, Ontario? View our latest opening: https://t.co/QQxMjwSxnt #Job #CustomerService #Jobs #Hiring", "created_at": "Wed Jul 13 18:28:40 +0000 2016", "time": 1468434511.799568, "tid": 753295093910560769, "nei_num": "014"}}, {"geometry": {"type": "Point", "coordinates": [-79.5190141, 43.6457356]}, "type": "Feature", "id": 753300976434642944, "properties": {"loc": [-79.5190141, 43.6457356], "screen_name": "tpscalls", "text": "See Ambulance | Bloor St W &amp; Aberfoyle Cres [22 Div.] 07/13 14:46 #Islington_City_Centre_West #Toronto", "created_at": "Wed Jul 13 18:52:03 +0000 2016", "time": 1468435914.231613, "tid": 753300976434642944, "nei_num": "014"}}, {"geometry": {"type": "Point", "coordinates": [-79.560642, 43.6097787]}, "type": "Feature", "id": 753306383198683137, "properties": {"loc": [-79.560642, 43.6097787], "screen_name": "Margocita", "text": "Beating the heat. #readingbooks #indigoatsherway #peacefulmoments\u2026 https://t.co/V6HaHJNfA0", "created_at": "Wed Jul 13 19:13:32 +0000 2016", "time": 1468437203.2986, "tid": 753306383198683137, "nei_num": "014"}}, {"geometry": {"type": "Point", "coordinates": [-79.5498859, 43.6303116]}, "type": "Feature", "id": 753311301129080832, "properties": {"loc": [-79.5498859, 43.6303116], "screen_name": "tpscalls", "text": "Personal Injury Collision | East Mall Cres &amp; Dundas St W [22 Div.] 07/13 15:28 #Islington_City_Centre_West #Toronto", "created_at": "Wed Jul 13 19:33:04 +0000 2016", "time": 1468438375.849954, "tid": 753311301129080832, "nei_num": "014"}}, {"geometry": {"type": "Point", "coordinates": [-79.5498859, 43.6303116]}, "type": "Feature", "id": 753311806769225730, "properties": {"loc": [-79.5498859, 43.6303116], "screen_name": "tofire", "text": "Vehicle (Personal Injury) - Dundas St West @ The East Mall, Etobicoke (2 Trucks)", "created_at": "Wed Jul 13 19:35:05 +0000 2016", "time": 1468438496.403294, "tid": 753311806769225730, "nei_num": "014"}}, {"geometry": {"type": "Point", "coordinates": [-79.5498859, 43.6303116]}, "type": "Feature", "id": 753311807691972608, "properties": {"loc": [-79.5498859, 43.6303116], "screen_name": "tofireW", "text": "Vehicle (Personal Injury) - Dundas St West @ The East Mall, Etobicoke (2 Trucks)", "created_at": "Wed Jul 13 19:35:05 +0000 2016", "time": 1468438514.547194, "tid": 753311807691972608, "nei_num": "014"}}, {"geometry": {"type": "Point", "coordinates": [-79.53601599, 43.63694481]},