{"type": "FeatureCollection", "features": [{"geometry": {"type": "Point", "coordinates": [-79.5140655, 43.6467664]}, "type": "Feature", "id": 705492607577686016, "properties": {"loc": [-79.5140655, 43.6467664], "screen_name": "tmj_gta_hrta", "text": "We're #hiring! Click to apply: Shift Supervisor (CA) - https://t.co/GrGAj2fv2I #Hospitality 3079 BLOOR ST W, #TORONTO, ON #Veterans #Job", "created_at": "Thu Mar 03 20:38:39 +0000 2016", "time": 1457037520.237607, "tid": 705492607577686016, "nei_num": "015"}}, {"geometry": {"type": "Point", "coordinates": [-79.5224666, 43.6465938]}, "type": "Feature", "id": 705521179206033409, "properties": {"loc": [-79.5224666, 43.6465938], "screen_name": "riccaluzon", "text": "Hindi ko na sya mahal", "created_at": "Thu Mar 03 22:32:11 +0000 2016", "time": 1457044332.108235, "tid": 705521179206033409, "nei_num": "015"}}, {"geometry": {"type": "Point", "coordinates": [-79.5250685, 43.6484007]}, "type": "Feature", "id": 705822899555405824, "properties": {"loc": [-79.5250685, 43.6484007], "screen_name": "tofireW", "text": "Tems Transferred (Read Remarks) - Cordova Avenue b/w Islington Avenue / Mimico Creek Trail, Etobicoke (2 Trucks)", "created_at": "Fri Mar 04 18:31:07 +0000 2016", "time": 1457116267.94662, "tid": 705822899555405824, "nei_num": "015"}}, {"geometry": {"type": "Point", "coordinates": [-79.5250685, 43.6484007]}, "type": "Feature", "id": 705822898448113664, "properties": {"loc": [-79.5250685, 43.6484007], "screen_name": "tofire", "text": "Tems Transferred (Read Remarks) - Cordova Avenue b/w Islington Avenue / Mimico Creek Trail, Etobicoke (2 Trucks)", "created_at": "Fri Mar 04 18:31:07 +0000 2016", "time": 1457116267.669684, "tid": 705822898448113664, "nei_num": "015"}}, {"geometry": {"type": "Point", "coordinates": [-79.51400485, 43.64637417]}, "type": "Feature", "id": 706145841560621061, "properties": {"loc": [-79.51400485, 43.64637417], "screen_name": "foxadam", "text": "Inspired preparing for a new challenge and new course this summer\u2026 https://t.co/BVxBdF1r73", "created_at": "Sat Mar 05 15:54:22 +0000 2016", "time": 1457193263.536506, "tid": 706145841560621061, "nei_num": "015"}}, {"geometry": {"type": "Point", "coordinates": [-79.5136783, 43.6468593]}, "type": "Feature", "id": 749805201322811392, "properties": {"loc": [-79.5136783, 43.6468593], "screen_name": "tpscalls", "text": "Disorderlies | Bloor St W &amp; Brentwood Rd N [22 Div.] 07/03 23:15 #Etobicoke #Toronto", "created_at": "Mon Jul 04 03:21:05 +0000 2016", "time": 1467602458.831515, "tid": 749805201322811392, "nei_num": "015"}}, {"geometry": {"type": "Point", "coordinates": [-79.5255122, 43.6472125]}, "type": "Feature", "id": 749821308817506305, "properties": {"loc": [-79.5255122, 43.6472125], "screen_name": "tofire", "text": "Medical (Chest Pains) - Mabelle Avenue b/w Cordova Avenue / Dundas St West, Etobicoke (2 Trucks)", "created_at": "Mon Jul 04 04:25:05 +0000 2016", "time": 1467606299.07116, "tid": 749821308817506305, "nei_num": "015"}}, {"geometry": {"type": "Point", "coordinates": [-79.5255122, 43.6472125]}, "type": "Feature", "id": 749821309689929732, "properties": {"loc": [-79.5255122, 43.6472125], "screen_name": "tofireW", "text": "Medical (Chest Pains) - Mabelle Avenue b/w Cordova Avenue / Dundas St West, Etobicoke (2 Trucks)", "created_at": "Mon Jul 04 04:25:05 +0000 2016", "time": 1467606299.287469, "tid": 749821309689929732, "nei_num": "015"}}, {"geometry": {"type": "Point", "coordinates": [-79.51400346, 43.6463712]}, "type": "Feature", "id": 750114889801293824, "properties": {"loc": [-79.51400346, 43.6463712], "screen_name": "foxadam", "text": "A great afterwork Monday combo #sunnysidesessionipa and #rarevinyl\u2026 https://t.co/0TM25o3SYj", "created_at": "Mon Jul 04 23:51:40 +0000 2016", "time": 1467676294.070434, "tid": 750114889801293824, "nei_num": "015"}}, {"geometry": {"type": "Point", "coordinates": [-79.51400346, 43.6463712]}, "type": "Feature", "id": 751237773730934784, "properties": {"loc": [-79.51400346, 43.6463712], "screen_name": "foxadam", "text": "Father and Pug time. #gocubsgo @ The Fox's Den - Chez Fox https://t.co/JQU1qZQud6", "created_at": "Fri Jul 08 02:13:37 +0000 2016", "time": 1467944009.674191, "tid": 751237773730934784, "nei_num": "015"}}, {"geometry": {"type": "Point", "coordinates": [-79.51400346, 43.6463712]}, "type": "Feature", "id": 751238252909195264, "properties": {"loc": [-79.51400346, 43.6463712], "screen_name": "foxadam", "text": "Father and Pug time #gocubsgo #wethenorthside #diegomaradonasanchez\u2026 https://t.co/4xXhSFIINU", "created_at": "Fri Jul 08 02:15:31 +0000 2016", "time": 1467944123.953682, "tid": 751238252909195264, "nei_num": "015"}}, {"geometry": {"type": "Point", "coordinates": [-79.5260192, 43.6474784]}, "type": "Feature", "id": 752116925312933889, "properties": {"loc": [-79.5260192, 43.6474784], "screen_name": "tpscalls", "text": "See Ambulance | C P R &amp; Cordova Ave [22 Div.] 07/10 08:23 #Islington #Toronto", "created_at": "Sun Jul 10 12:27:03 +0000 2016", "time": 1468153615.171645, "tid": 752116925312933889, "nei_num": "015"}}, {"geometry": {"type": "Point", "coordinates": [-79.5136783, 43.6468593]}, "type": "Feature", "id": 752117682732957696, "properties": {"loc": [-79.5136783, 43.6468593], "screen_name": "tpscalls", "text": "Animal Comp | Bloor St W &amp; Brentwood Rd S [22 Div.] 07/10 08:25 #Etobicoke #Toronto", "created_at": "Sun Jul 10 12:30:03 +0000 2016", "time": 1468153795.75452, "tid": 752117682732957696, "nei_num": "015"}}, {"geometry": {"type": "Point", "coordinates": [-79.5140655, 43.6467664]}, "type": "Feature", "id": 752190352509902848, "properties": {"loc": [-79.5140655, 43.6467664], "screen_name": "tmj_gta_hrta", "text": "This #job might be a great fit for you: Shift Supervisor (CA) - https://t.co/GrGAj2fv2I #Hospitality 3079 BLOOR ST W, #TORONTO, ON #Veterans", "created_at": "Sun Jul 10 17:18:49 +0000 2016", "time": 1468171121.607199, "tid": 752190352509902848, "nei_num": "015"}}, {"geometry": {"type": "Point", "coordinates": [-79.5136783, 43.6468593]}, "type": "Feature", "id": 752303407130615808, "properties": {"loc": [-79.5136783, 43.6468593], "screen_name": "tpscalls", "text": "Disorderlies | Brentwood Rd N &amp; Bloor St W [22 Div.] 07/10 20:43 #Etobicoke #Toronto", "created_at": "Mon Jul 11 00:48:04 +0000 2016", "time": 1468198075.811965, "tid": 752303407130615808, "nei_num": "015"}}, {"geometry": {"type": "Point", "coordinates": [-79.5140655, 43.6467664]}, "type": "Feature", "id": 752837020481794048, "properties": {"loc": [-79.5140655, 43.6467664], "screen_name": "tmj_gta_hrta", "text": "Want to work at Starbucks? We're #hiring in 3079 BLOOR ST W, #TORONTO, ON! Click for details: https://t.co/eKk6JLlkaM #Job #Hospitality", "created_at": "Tue Jul 12 12:08:27 +0000 2016", "time": 1468325298.839489, "tid": 752837020481794048, "nei_num": "015"}}, {"geometry": {"type": "Point", "coordinates": [-79.51419, 43.647]}, "type": "Feature", "id": 752894742371762177, "properties": {"loc": [-79.51419, 43.647], "screen_name": "ChrisStaig", "text": "I'll playing solo acoustic at Henry VIII Ale House tonight, 7 till 11 pm. C'mon out and bring\u2026 https://t.co/vdpr0EkSCv", "created_at": "Tue Jul 12 15:57:49 +0000 2016", "time": 1468339060.943825, "tid": 752894742371762177, "nei_num": "015"}}, {"geometry": {"type": "Point", "coordinates": [-79.5255122, 43.6472125]}, "type": "Feature", "id": 752930537803804672, "properties": {"loc": [-79.5255122, 43.6472125], "screen_name": "tofire", "text": "Medical (Assist) - Mabelle Avenue b/w Cordova Avenue / Dundas St West, Etobicoke (2 Trucks)", "created_at": "Tue Jul 12 18:20:03 +0000 2016", "time": 1468347595.076472, "tid": 752930537803804672, "nei_num": "015"}}, {"geometry": {"type": "Point", "coordinates": [-79.5255122, 43.6472125]}, "type": "Feature", "id": 752930539213119488, "properties": {"loc": [-79.5255122, 43.6472125], "screen_name": "tofireW", "text": "Medical (Assist) - Mabelle Avenue b/w Cordova Avenue / Dundas St West, Etobicoke (2 Trucks)", "created_at": "Tue Jul 12 18:20:03 +0000 2016", "time": 1468347595.401541, "tid": 752930539213119488, "nei_num": "015"}}, {"geometry": {"type": "Point", "coordinates": [-79.5255122, 43.6472125]}, "type": "Feature", "id": 753324637929472001, "properties": {"loc": [-79.5255122, 43.6472125], "screen_name": "tofire", "text": "Medical (Unconscious) - Mabelle Avenue b/w Cordova Avenue / Dundas St West, Etobicoke (3 Trucks)", "created_at": "Wed Jul 13 20:26:04 +0000 2016", "time": 1468441555.66951, "tid": 753324637929472001, "nei_num": "015"}}, {"geometry": {"type": "Point", "coordinates": [-79.5255122, 43.6472125]}, "type": "Feature", "id": 753324638810308608, "properties": {"loc": [-79.5255122, 43.6472125], "screen_name": "tofireW", "text": "Medical (Unconscious) - Mabelle Avenue b/w Cordova Avenue / Dundas St West, Etobicoke (3 Trucks)", "created_at": "Wed Jul 13 20:26:04 +0000 2016", "time": 1468441555.735737, "tid": 753324638810308608, "nei_num": "015"}}, {"geometry": {"type": "Point", "coordinates": [-79.5136783, 43.6468593]}, "type": "Feature", "id": 753398118239076352, "properties": {"loc": [-79.5136783, 43.6468593], "screen_name": "tpscalls", "text": "Disorderlies | Bloor St W &amp; Brentwood Rd N [22 Div.] 07/13 21:14 #Etobicoke #Toronto", "created_at": "Thu Jul 14 01:18:03 +0000 2016", "time": 1468459074.54867, "tid": 753398118239076352, "nei_num": "015"}}, {"geometry": {"type": "Point", "coordinates": [-79.5140826, 43.64638538]}, "type": "Feature", "id": 753764955011309569, "properties": {"loc": [-79.5140826, 43.64638538], "screen_name": "foxadam", "text": "It's #thursday night #love #bamboo #japanesewhisky #japan @ The\u2026 https://t.co/ulUFzYUVY4", "created_at": "Fri Jul 15 01:35:44 +0000 2016", "time": 1468546534.987224, "tid": 753764955011309569, "nei_num": "015"}}, {"geometry": {"type": "Point", "coordinates": [-79.51313071, 43.64700941]}, "type": "Feature", "id": 753809464436809728, "properties": {"loc": [-79.51313071, 43.64700941], "screen_name": "ShaunMazoka", "text": "No such thing as a life that\u2019s better than yours #LoveYourz @JColeNC", "created_at": "Fri Jul 15 04:32:36 +0000 2016", "time": 1468557147.070323, "tid": 753809464436809728, "nei_num": "015"}}, {"geometry": {"type": "Point", "coordinates": [-79.51606, 43.64676]}, "type": "Feature", "id": 754010846922215424, "properties": {"loc": [-79.51606, 43.64676], "screen_name": "ChebabyTO", "text": "COME FIND US TONIGHT !! Come early before we sell out !! @ Humberview Chevrolet https://t.co/SmUy97lMQN", "created_at": "Fri Jul 15 17:52:49 +0000 2016", "time": 1468605160.150342, "tid": 754010846922215424, "nei_num": "015"}}, {"geometry": {"type": "Point", "coordinates": [-79.51606, 43.64676]}, "type": "Feature", "id": 754062977335193601, "properties": {"loc": [-79.51606, 43.64676], "screen_name": "ChebabyTO", "text": "YOU GOOOOODDDDDD @frankiefett13 @FRANKIE_SCHETTS 5-10 get here !!! @ Humberview Chevrolet https://t.co/qwgW7wkBUV", "created_at": "Fri Jul 15 21:19:58 +0000 2016", "time": 1468617589.319787, "tid": 754062977335193601, "nei_num": "015"}}, {"geometry": {"type": "Point", "coordinates": [-79.51606, 43.64676]}, "type": "Feature", "id": 754068739868483589, "properties": {"loc": [-79.51606, 43.64676], "screen_name": "FeasTOronto", "text": "We out here at #etobicoke @FoodTrucknFri! With so many friends @chebabyto @ArepaRepublic\u2026 https://t.co/I3hL8KEoXz", "created_at": "Fri Jul 15 21:42:52 +0000 2016", "time": 1468618962.965836, "tid": 754068739868483589, "nei_num": "015"}}, {"geometry": {"type": "Point", "coordinates": [-79.5255122, 43.6472125]}, "type": "Feature", "id": 754071813068652545, "properties": {"loc": [-79.5255122, 43.6472125], "screen_name": "tofire", "text": "Medical (Check Call) - Mabelle Avenue b/w Cordova Avenue / Dundas St West, Etobicoke (2 Trucks)", "created_at": "Fri Jul 15 21:55:04 +0000 2016", "time": 1468619695.569732, "tid": 754071813068652545, "nei_num": "015"}}, {"geometry": {"type": "Point", "coordinates": [-79.5255122, 43.6472125]}, "type": "Feature", "id": 754071813983010816, "properties": {"loc": [-79.5255122, 43.6472125], "screen_name": "tofireW", "text": "Medical (Check Call) - Mabelle Avenue b/w Cordova Avenue / Dundas St West, Etobicoke (2 Trucks)", "created_at": "Fri Jul 15 21:55:05 +0000 2016", "time": 1468619695.74679, "tid": 754071813983010816, "nei_num": "015"}}, {"geometry": {"type": "Point", "coordinates": [-79.51606, 43.64676]}, "type": "Feature", "id": 754072869827645440, "properties": {"loc": [-79.51606, 43.64676], "screen_name": "ArepaRepublic", "text": "Pabellon #arepa is a bundle of deliciousness = Shredded Flank Steak + Sweet Plantain + Black\u2026 https://t.co/8feWsmzxNp", "created_at": "Fri Jul 15 21:59:16 +0000 2016", "time": 1468619947.541479, "tid": 754072869827645440, "nei_num": "015"}}, {"geometry": {"type": "Point", "coordinates": [-79.51606, 43.64676]}, "type": "Feature", "id": 754086857424547840, "properties": {"loc": [-79.51606, 43.64676], "screen_name": "MADuench", "text": "Great seeing you again ,@bestianera and your pizza was by far the best thing being served this\u2026 https://t.co/qZwKwLrpZa", "created_at": "Fri Jul 15 22:54:51 +0000 2016", "time": 1468623282.326163, "tid": 754086857424547840, "nei_num": "015"}}, {"geometry": {"type": "Point", "coordinates": [-79.51606, 43.64676]}, "type": "Feature", "id": 754089933355253762, "properties": {"loc": [-79.51606, 43.64676], "screen_name": "ChebabyTO", "text": "FOOODDDDTRUCKING FRIDAY !!!!!! @ Humberview Chevrolet https://t.co/XcjKnSnFqw", "created_at": "Fri Jul 15 23:07:05 +0000 2016", "time": 1468624015.735946, "tid": 754089933355253762, "nei_num": "015"}}, {"geometry": {"type": "Point", "coordinates": [-79.5255122, 43.6472125]}, "type": "Feature", "id": 754094711053361152, "properties": {"loc": [-79.5255122, 43.6472125], "screen_name": "tofireW", "text": "Medical (Seizures/convulsions) - Mabelle Avenue b/w Cordova Avenue / Dundas St West, Etobicoke (2 Trucks)", "created_at": "Fri Jul 15 23:26:04 +0000 2016", "time": 1468625154.828504, "tid": 754094711053361152, "nei_num": "015"}}, {"geometry": {"type": "Point", "coordinates": [-79.5255122, 43.6472125]}, "type": "Feature", "id": 754094710130565120, "properties": {"loc": [-79.5255122, 43.6472125], "screen_name": "tofire", "text": "Medical (Seizures/convulsions) - Mabelle Avenue b/w Cordova Avenue / Dundas St West, Etobicoke (2 Trucks)", "created_at": "Fri Jul 15 23:26:03 +0000 2016", "time": 1468625159.986507, "tid": 754094710130565120, "nei_num": "015"}}, {"geometry": {"type": "Point", "coordinates": [-79.5255122, 43.6472125]}, "type": "Feature", "id": 754095722279075840, "properties": {"loc": [-79.5255122, 43.6472125], "screen_name": "tofire", "text": "UD: Tems Transferred (Read Remarks) - Mabelle Avenue b/w Cordova Avenue / Dundas St West, Etobicoke (2 Trucks)", "created_at": "Fri Jul 15 23:30:05 +0000 2016", "time": 1468625395.911554, "tid": 754095722279075840, "nei_num": "015"}}, {"geometry": {"type": "Point", "coordinates": [-79.5255122, 43.6472125]}, "type": "Feature", "id": 754095723117944832, "properties": {"loc": [-79.5255122, 43.6472125], "screen_name": "tofireW", "text": "UD: Tems Transferred (Read Remarks) - Mabelle Avenue b/w Cordova Avenue / Dundas St West, Etobicoke (2 Trucks)", "created_at": "Fri Jul 15 23:30:05 +0000 2016", "time": 1468625396.106906, "tid": 754095723117944832, "nei_num": "015"}}, {"geometry": {"type": "Point", "coordinates": [-79.51606, 43.64676]}, "type": "Feature", "id": 754099866410872832, "properties": {"loc": [-79.51606, 43.64676], "screen_name": "ChebabyTO", "text": "SAMMMMMMMYYYYYY G @ Humberview Chevrolet https://t.co/vAyw916IC9", "created_at": "Fri Jul 15 23:46:33 +0000 2016", "time": 1468626383.935717, "tid": 754099866410872832, "nei_num": "015"}}, {"geometry": {"type": "Point", "coordinates": [-79.51606, 43.64676]}, "type": "Feature", "id": 754101683685355520, "properties": {"loc": [-79.51606, 43.64676], "screen_name": "ChebabyTO", "text": "Hahahahaha yelling for joy @ Humberview Chevrolet https://t.co/7OOEJ2xOdT", "created_at": "Fri Jul 15 23:53:46 +0000 2016", "time": 1468626817.280929, "tid": 754101683685355520, "nei_num": "015"}}, {"geometry": {"type": "Point", "coordinates": [-79.51606, 43.64676]}, "type": "Feature", "id": 754114948968710145, "properties": {"loc": [-79.51606, 43.64676], "screen_name": "ChebabyTO", "text": "#Repost the_wanderin_foodie with repostapp\n\u30fb\u30fb\u30fb\nChoripan Sandwich (Homemade Chorizo Sausage on a\u2026 https://t.co/dEI5jzEPnw", "created_at": "Sat Jul 16 00:46:29 +0000 2016", "time": 1468629979.993139, "tid": 754114948968710145, "nei_num": "015"}}, {"geometry": {"type": "Point", "coordinates": [-79.5141387, 43.6477151]}, "type": "Feature", "id": 754131199115878400, "properties": {"loc": [-79.5141387, 43.6477151], "screen_name": "tpscalls", "text": "Person With A Gun | Ln N Bloor E Royal York &amp; Birchview Blvd [22 Div.] 07/15 21:45 #The_Kingsway #Toronto", "created_at": "Sat Jul 16 01:51:03 +0000 2016", "time": 1468633854.192193, "tid": 754131199115878400, "nei_num": "015"}}, {"geometry": {"type": "Point", "coordinates": [-79.5140826, 43.64638538]}, "type": "Feature", "id": 754138407790645248, "properties": {"loc": [-79.5140826, 43.64638538], "screen_name": "foxadam", "text": "Now hot tub free - so much more space :) @ The Fox's Den - Chez Fox https://t.co/XXdPWnc0pM", "created_at": "Sat Jul 16 02:19:42 +0000 2016", "time": 1468635572.902548, "tid": 754138407790645248, "nei_num": "015"}}, {"geometry": {"type": "Point", "coordinates": [-79.51606, 43.64676]}, "type": "Feature", "id": 754328424643166208, "properties": {"loc": [-79.51606, 43.64676], "screen_name": "ArepaRepublic", "text": "With our #amigos from @chebabyto @frankiefett13 at @FoodTrucknFri #foodtrucksto #amazingteam\u2026 https://t.co/JexA2t8CYn", "created_at": "Sat Jul 16 14:54:45 +0000 2016", "time": 1468680876.394173, "tid": 754328424643166208, "nei_num": "015"}}, {"geometry": {"type": "Point", "coordinates": [-79.5140655, 43.6467664]}, "type": "Feature", "id": 754375548747427840, "properties": {"loc": [-79.5140655, 43.6467664], "screen_name": "tmj_gta_hrta", "text": "Can you recommend anyone for this #job? Shift Supervisor (CA) - https://t.co/GrGAj2fv2I #Hospitality 3079 BLOOR ST W, #TORONTO, ON #Veterans", "created_at": "Sat Jul 16 18:02:01 +0000 2016", "time": 1468692111.680466, "tid": 754375548747427840, "nei_num": "015"}}, {"geometry": {"type": "Point", "coordinates": [-79.5136783, 43.6468593]}, "type": "Feature", "id": 754440492008534016, "properties": {"loc": [-79.5136783, 43.6468593], "screen_name": "tofireW", "text": "Alarm Residential - Thompson Avenue b/w Lane South Bloor West Brentwood / Meadowvale Dr, Etobicoke (6 Trucks)", "created_at": "Sat Jul 16 22:20:04 +0000 2016", "time": 1468707595.206815, "tid": 754440492008534016, "nei_num": "015"}}, {"geometry": {"type": "Point", "coordinates": [-79.5136783, 43.6468593]}, "type": "Feature", "id": 754440491240914945, "properties": {"loc": [-79.5136783, 43.6468593], "screen_name": "tofire", "text": "Alarm Residential - Thompson Avenue b/w Lane South Bloor West Brentwood / Meadowvale Dr, Etobicoke (6 Trucks)", "created_at": "Sat Jul 16 22:20:04 +0000 2016", "time": 1468707594.983452, "tid": 754440491240914945, "nei_num": "015"}}, {"geometry": {"type": "Point", "coordinates": [-79.5255122, 43.6472125]}, "type": "Feature", "id": 754754063972069376, "properties": {"loc": [-79.5255122, 43.6472125], "screen_name": "tofireW", "text": "Medical (Trouble Breathing) - Mabelle Avenue b/w Cordova Avenue / Dundas St West, Etobicoke (2 Trucks)", "created_at": "Sun Jul 17 19:06:06 +0000 2016", "time": 1468782356.358339, "tid": 754754063972069376, "nei_num": "015"}}, {"geometry": {"type": "Point", "coordinates": [-79.5255122, 43.6472125]}, "type": "Feature", "id": 754754063166742528, "properties": {"loc": [-79.5255122, 43.6472125], "screen_name": "tofire", "text": "Medical (Trouble Breathing) - Mabelle Avenue b/w Cordova Avenue / Dundas St West, Etobicoke (2 Trucks)", "created_at": "Sun Jul 17 19:06:05 +0000 2016", "time": 1468782356.198642, "tid": 754754063166742528, "nei_num": "015"}}, {"geometry": {"type": "Point", "coordinates": [-79.5133743, 43.6471138]}, "type": "Feature", "id": 754852448880107520, "properties": {"loc": [-79.5133743, 43.6471138], "screen_name": "foodpages", "text": "#Healthy Living Plus #Thompson Orchard #Etobicoke https://t.co/jM5VmbXN0x My first visit was June 1, https://t.co/IdRYa2cQ7G", "created_at": "Mon Jul 18 01:37:02 +0000 2016", "time": 1468805813.335565, "tid": 754852448880107520, "nei_num": "015"}}, {"geometry": {"type": "Point", "coordinates": [-79.5140655, 43.6467664]}, "type": "Feature", "id": 755022165242556418, "properties": {"loc": [-79.5140655, 43.6467664], "screen_name": "tmj_gta_hrta", "text": "Interested in a #job near 3079 BLOOR ST W, #TORONTO, ON? This could be a great fit: https://t.co/eKk6JLlkaM #Hospitality #Veterans #Hiring", "created_at": "Mon Jul 18 12:51:26 +0000 2016", "time": 1468846276.653097, "tid": 755022165242556418, "nei_num": "015"}}, {"geometry": {"type": "Point", "coordinates": [-79.5255122, 43.6472125]}, "type": "Feature", "id": 755165519674826752, "properties": {"loc": [-79.5255122, 43.6472125], "screen_name": "tofireW", "text": "Medical (Chest Pains) - Mabelle Avenue b/w Cordova Avenue / Dundas St West, Etobicoke (2 Trucks)", "created_at": "Mon Jul 18 22:21:04 +0000 2016", "time": 1468880454.698267, "tid": 755165519674826752, "nei_num": "015"}}, {"geometry": {"type": "Point", "coordinates": [-79.5255122, 43.6472125]}, "type": "Feature", "id": 755165518663970816, "properties": {"loc": [-79.5255122, 43.6472125], "screen_name": "tofire", "text": "Medical (Chest Pains) - Mabelle Avenue b/w Cordova Avenue / Dundas St West, Etobicoke (2 Trucks)", "created_at": "Mon Jul 18 22:21:04 +0000 2016", "time": 1468880454.504019, "tid": 755165518663970816, "nei_num": "015"}}, {"geometry": {"type": "Point", "coordinates": [-79.51372, 43.64659]}, "type": "Feature", "id": 755184949205012480, "properties": {"loc": [-79.51372, 43.64659], "screen_name": "ptc555", "text": "Drinks with Drowzee @ The Monk's Kettle https://t.co/Lht3B2rCkG", "created_at": "Mon Jul 18 23:38:17 +0000 2016", "time": 1468885087.128611, "tid": 755184949205012480, "nei_num": "015"}}, {"geometry": {"type": "Point", "coordinates": [-79.5113757, 43.6474094]}, "type": "Feature", "id": 755552066454585345, "properties": {"loc": [-79.5113757, 43.6474094], "screen_name": "tpscalls", "text": "Person With A Gun | Royal York Rd &amp; Bloor St W [22 Div.] 07/19 19:53 #Etobicoke #Toronto", "created_at": "Tue Jul 19 23:57:04 +0000 2016", "time": 1468972618.565379, "tid": 755552066454585345, "nei_num": "015"}}, {"geometry": {"type": "Point", "coordinates": [-79.51400346, 43.6463712]}, "type": "Feature", "id": 755750782004236288, "properties": {"loc": [-79.51400346, 43.6463712], "screen_name": "foxadam", "text": "This guy is rallying for a @cubs win vs the #nymets today! #gocubsgo\u2026 https://t.co/E41Ywvy5fu", "created_at": "Wed Jul 20 13:06:42 +0000 2016", "time": 1469019991.781554, "tid": 755750782004236288, "nei_num": "015"}}, {"geometry": {"type": "Point", "coordinates": [-79.5113757, 43.6474094]}, "type": "Feature", "id": 756086076708651008, "properties": {"loc": [-79.5113757, 43.6474094], "screen_name": "tpscalls", "text": "Personal Injury Collision | Royal York Rd &amp; Bloor St W [HP] 07/21 07:14 #Etobicoke #Toronto", "created_at": "Thu Jul 21 11:19:02 +0000 2016", "time": 1469099932.130898, "tid": 756086076708651008, "nei_num": "015"}}, {"geometry": {"type": "Point", "coordinates": [-79.5113757, 43.6474094]}, "type": "Feature", "id": 756086828923494400, "properties": {"loc": [-79.5113757, 43.6474094], "screen_name": "tpscalls", "text": "Personal Injury Collision | Royal York Rd &amp; Bloor St W [22 Div.] 07/21 07:16 #Etobicoke #Toronto", "created_at": "Thu Jul 21 11:22:02 +0000 2016", "time": 1469100111.40137, "tid": 756086828923494400, "nei_num": "015"}}, {"geometry": {"type": "Point", "coordinates": [-79.51187, 43.64702]}, "type": "Feature", "id": 756214348012486656, "properties": {"loc": [-79.51187, 43.64702], "screen_name": "SkyNaslenas", "text": "Our day is not completed without another beautiful smile! clareradnoff @ Royal York Orthodontics https://t.co/9zhZbaWHzq", "created_at": "Thu Jul 21 19:48:45 +0000 2016", "time": 1469130514.291418, "tid": 756214348012486656, "nei_num": "015"}}, {"geometry": {"type": "Point", "coordinates": [-79.5144653, 43.6485873]}, "type": "Feature", "id": 756237828758142978, "properties": {"loc": [-79.5144653, 43.6485873], "screen_name": "tpscalls", "text": "See Ambulance | Birchview Blvd &amp; White Oak Blvd [22 Div.] 07/21 17:15 #The_Kingsway #Toronto", "created_at": "Thu Jul 21 21:22:03 +0000 2016", "time": 1469136112.547813, "tid": 756237828758142978, "nei_num": "015"}}, {"geometry": {"type": "Point", "coordinates": [-79.51400346, 43.6463712]}, "type": "Feature", "id": 756560654316761088, "properties": {"loc": [-79.51400346, 43.6463712], "screen_name": "foxadam", "text": "A very happy 9th birthday to the one and only #diegomaradonasanchez\u2026 https://t.co/TIBZ3j0yui", "created_at": "Fri Jul 22 18:44:50 +0000 2016", "time": 1469213079.865762, "tid": 756560654316761088, "nei_num": "015"}}, {"geometry": {"type": "Point", "coordinates": [-79.5140655, 43.6467664]}, "type": "Feature", "id": 756569792912338944, "properties": {"loc": [-79.5140655, 43.6467664], "screen_name": "tmj_gta_hrta", "text": "We're #hiring! Click to apply: Shift Supervisor (CA) - https://t.co/GrGAj2fv2I #Job #Hospitality 3079 BLOOR ST W, #TORONTO, ON #Veterans", "created_at": "Fri Jul 22 19:21:09 +0000 2016", "time": 1469215258.832761, "tid": 756569792912338944, "nei_num": "015"}}, {"geometry": {"type": "Point", "coordinates": [-79.5255122, 43.6472125]}, "type": "Feature", "id": 756606022656098305, "properties": {"loc": [-79.5255122, 43.6472125], "screen_name": "tofire", "text": "Rescue (Elevator) - Mabelle Avenue b/w Cordova Avenue / Dundas St West, Etobicoke (3 Trucks)", "created_at": "Fri Jul 22 21:45:07 +0000 2016", "time": 1469223896.452151, "tid": 756606022656098305, "nei_num": "015"}}, {"geometry": {"type": "Point", "coordinates": [-79.5255122, 43.6472125]}, "type": "Feature", "id": 756606023469764608, "properties": {"loc": [-79.5255122, 43.6472125], "screen_name": "tofireW", "text": "Rescue (Elevator) - Mabelle Avenue b/w Cordova Avenue / Dundas St West, Etobicoke (3 Trucks)", "created_at": "Fri Jul 22 21:45:07 +0000 2016", "time": 1469223896.72161, "tid": 756606023469764608, "nei_num": "015"}}, {"geometry": {"type": "Point", "coordinates": [-79.52487686, 43.64861698]}, "type": "Feature", "id": 756619839699947520, "properties": {"loc": [-79.52487686, 43.64861698], "screen_name": "Jyushin", "text": "@TTChelps Shout out to the driver of northbound route 37 bus#8085 for blowing by me after standing here for 10 mins in 34 degree weather.", "created_at": "Fri Jul 22 22:40:01 +0000 2016", "time": 1469227190.800268, "tid": 756619839699947520, "nei_num": "015"}}, {"geometry": {"type": "Point", "coordinates": [-79.52168836, 43.64752201]}, "type": "Feature", "id": 756965894639718401, "properties": {"loc": [-79.52168836, 43.64752201], "screen_name": "Goonknox", "text": "Water and sun, can't mess.\n#tan #etobicoke #toronto #water #river #locks #dreads #dreadlocks\u2026 https://t.co/jEug2W6Ncf", "created_at": "Sat Jul 23 21:35:07 +0000 2016", "time": 1469309696.542411, "tid": 756965894639718401, "nei_num": "015"}}, {"geometry": {"type": "Point", "coordinates": [-79.5140655, 43.6467664]}, "type": "Feature", "id": 757214988159234048, "properties": {"loc": [-79.5140655, 43.6467664], "screen_name": "tmj_gta_hrta", "text": "Want to work in 3079 BLOOR ST W, #TORONTO, ON? View our latest opening: https://t.co/eKk6JLlkaM #Job #Hospitality #Veterans #Jobs #Hiring", "created_at": "Sun Jul 24 14:04:56 +0000 2016", "time": 1469369085.032276, "tid": 757214988159234048, "nei_num": "015"}}, {"geometry": {"type": "Point", "coordinates": [-79.501, 43.6471]}, "type": "Feature", "id": 757390965330087936, "properties": {"loc": [-79.501, 43.6471], "screen_name": "DrCDElia", "text": "Francis Saverio Elia, born July 26, 1947, Terelle, (FR) Italia, died July 25, 2010, Toronto,\u2026 https://t.co/CnasxJNqT5", "created_at": "Mon Jul 25 01:44:12 +0000 2016", "time": 1469411040.925803, "tid": 757390965330087936, "nei_num": "015"}}, {"geometry": {"type": "Point", "coordinates": [-79.5199592, 43.6495892]}, "type": "Feature", "id": 758048258581225472, "properties": {"loc": [-79.5199592, 43.6495892], "screen_name": "tpscalls", "text": "See Ambulance | Chestnut Hills Cres &amp; Montgomery Rd [22 Div.] 07/26 17:10 #Etobicoke #Toronto", "created_at": "Tue Jul 26 21:16:03 +0000 2016", "time": 1469567751.484078, "tid": 758048258581225472, "nei_num": "015"}}, {"geometry": {"type": "Point", "coordinates": [-79.51427, 43.64743]}, "type": "Feature", "id": 758079934975860737, "properties": {"loc": [-79.51427, 43.64743], "screen_name": "myonlinelifenow", "text": "#JacksLibraryTour July 26th torontolibrary #Brentwood #43 @ Toronto Public Library- Brentwood https://t.co/TXiUbGxScr", "created_at": "Tue Jul 26 23:21:55 +0000 2016", "time": 1469575303.696538, "tid": 758079934975860737, "nei_num": "015"}}, {"geometry": {"type": "Point", "coordinates": [-79.5255122, 43.6472125]}, "type": "Feature", "id": 758346482982326277, "properties": {"loc": [-79.5255122, 43.6472125], "screen_name": "tofire", "text": "Rescue (Elevator) - Mabelle Avenue b/w Cordova Avenue / Dundas St West, Etobicoke (3 Trucks)", "created_at": "Wed Jul 27 17:01:05 +0000 2016", "time": 1469638853.4808, "tid": 758346482982326277, "nei_num": "015"}}, {"geometry": {"type": "Point", "coordinates": [-79.5255122, 43.6472125]}, "type": "Feature", "id": 758346483980759040, "properties": {"loc": [-79.5255122, 43.6472125], "screen_name": "tofireW", "text": "Rescue (Elevator) - Mabelle Avenue b/w Cordova Avenue / Dundas St West, Etobicoke (3 Trucks)", "created_at": "Wed Jul 27 17:01:05 +0000 2016", "time": 1469638853.679579, "tid": 758346483980759040, "nei_num": "015"}}, {"geometry": {"type": "Point", "coordinates": [-79.5141387, 43.6477151]}, "type": "Feature", "id": 758457959852679168, "properties": {"loc": [-79.5141387, 43.6477151], "screen_name": "tpscalls", "text": "Person With A Knife | Ln N Bloor E Royal York &amp; Birchview Blvd [22 Div.] 07/27 20:20 #The_Kingsway #Toronto", "created_at": "Thu Jul 28 00:24:03 +0000 2016", "time": 1469665431.528688, "tid": 758457959852679168, "nei_num": "015"}}, {"geometry": {"type": "Point", "coordinates": [-79.5141387, 43.6477151]}, "type": "Feature", "id": 758751653344350208, "properties": {"loc": [-79.5141387, 43.6477151], "screen_name": "tofireW", "text": "Rescue (Elevator) - Birchview Boulevard b/w Brentwood Road North / Montgomery Road, Etobicoke (3 Trucks)", "created_at": "Thu Jul 28 19:51:05 +0000 2016", "time": 1469735453.410424, "tid": 758751653344350208, "nei_num": "015"}}, {"geometry": {"type": "Point", "coordinates": [-79.5141387, 43.6477151]}, "type": "Feature", "id": 758751652409212928, "properties": {"loc": [-79.5141387, 43.6477151], "screen_name": "tofire", "text": "Rescue (Elevator) - Birchview Boulevard b/w Brentwood Road North / Montgomery Road, Etobicoke (3 Trucks)", "created_at": "Thu Jul 28 19:51:05 +0000 2016", "time": 1469735453.148273, "tid": 758751652409212928, "nei_num": "015"}}, {"geometry": {"type": "Point", "coordinates": [-79.5140655, 43.6467664]}, "type": "Feature", "id": 758772807673090049, "properties": {"loc": [-79.5140655, 43.6467664], "screen_name": "tmj_gta_hrta", "text": "Want to work at Starbucks? We're #hiring in 3079 BLOOR ST W, #TORONTO, ON! Click for details: https://t.co/GrGAj2fv2I #Job #Hospitality", "created_at": "Thu Jul 28 21:15:09 +0000 2016", "time": 1469740496.937695, "tid": 758772807673090049, "nei_num": "015"}}, {"geometry": {"type": "Point", "coordinates": [-79.51213264, 43.64721629]}, "type": "Feature", "id": 758819366838296576, "properties": {"loc": [-79.51213264, 43.64721629], "screen_name": "jonathankkim_", "text": "Seoul Searching. #seoulsearching #movienight #toronto #actors #dreambig @ Kingsway Theatre https://t.co/AMpbDLJS2Q", "created_at": "Fri Jul 29 00:20:09 +0000 2016", "time": 1469751597.55566, "tid": 758819366838296576, "nei_num": "015"}}, {"geometry": {"type": "Point", "coordinates": [-79.5140826, 43.64638538]}, "type": "Feature", "id": 758860684545236992, "properties": {"loc": [-79.5140826, 43.64638538], "screen_name": "foxadam", "text": "Diego rallied for the #cubs to beat the #whitesox tonight and we\u2026 https://t.co/LSSq17q8kb", "created_at": "Fri Jul 29 03:04:20 +0000 2016", "time": 1469761448.351404, "tid": 758860684545236992, "nei_num": "015"}}, {"geometry": {"type": "Point", "coordinates": [-79.5189261, 43.6500648]}, "type": "Feature", "id": 759068732488638464, "properties": {"loc": [-79.5189261, 43.6500648], "screen_name": "tofire", "text": "Alarm Residential - Westrose Avenue b/w Lynngrove Avenue / Frame Road, Etobicoke (6 Trucks)", "created_at": "Fri Jul 29 16:51:03 +0000 2016", "time": 1469811050.622361, "tid": 759068732488638464, "nei_num": "015"}}, {"geometry": {"type": "Point", "coordinates": [-79.5189261, 43.6500648]}, "type": "Feature", "id": 759068733407162368, "properties": {"loc": [-79.5189261, 43.6500648], "screen_name": "tofireW", "text": "Alarm Residential - Westrose Avenue b/w Lynngrove Avenue / Frame Road, Etobicoke (6 Trucks)", "created_at": "Fri Jul 29 16:51:03 +0000 2016", "time": 1469811050.849346, "tid": 759068733407162368, "nei_num": "015"}}, {"geometry": {"type": "Point", "coordinates": [-79.5140655, 43.6467664]}, "type": "Feature", "id": 759412555680841728, "properties": {"loc": [-79.5140655, 43.6467664], "screen_name": "tmj_gta_hrta", "text": "Want to work in 3079 BLOOR ST W, #TORONTO, ON? View our latest opening: https://t.co/eKk6JLlkaM #Job #Hospitality #Veterans #Jobs #Hiring", "created_at": "Sat Jul 30 15:37:17 +0000 2016", "time": 1469893024.311712, "tid": 759412555680841728, "nei_num": "015"}}, {"geometry": {"type": "Point", "coordinates": [-79.5122465, 43.6473594]}, "type": "Feature", "id": 759532805974007808, "properties": {"loc": [-79.5122465, 43.6473594], "screen_name": "ShanninskiLou", "text": "Just saw Vaxxed, the documentary! Amazing! It is a must see. It was an honour to meet Dr. Andy\u2026 https://t.co/rkQHu3qb7A", "created_at": "Sat Jul 30 23:35:07 +0000 2016", "time": 1469921694.089913, "tid": 759532805974007808, "nei_num": "015"}}, {"geometry": {"type": "Point", "coordinates": [-79.51400346, 43.6463712]}, "type": "Feature", "id": 759542424305864704, "properties": {"loc": [-79.51400346, 43.6463712], "screen_name": "foxadam", "text": "Dog days of summer #diegomaradonasanchez #pugsofinstagram @ The\u2026 https://t.co/I7pZ7Auk98", "created_at": "Sun Jul 31 00:13:20 +0000 2016", "time": 1469923987.230735, "tid": 759542424305864704, "nei_num": "015"}}, {"geometry": {"type": "Point", "coordinates": [-79.51419, 43.647]}, "type": "Feature", "id": 760144203846389761, "properties": {"loc": [-79.51419, 43.647], "screen_name": "warrengroom", "text": "#pub #lunch in #toronto @ Henry VIII Ale House https://t.co/GAZ9IqcNMt", "created_at": "Mon Aug 01 16:04:35 +0000 2016", "time": 1470067462.291675, "tid": 760144203846389761, "nei_num": "015"}}, {"geometry": {"type": "Point", "coordinates": [-79.51400346, 43.6463712]}, "type": "Feature", "id": 760227248972726273, "properties": {"loc": [-79.51400346, 43.6463712], "screen_name": "foxadam", "text": "Looks new again ... @ The Fox's Den - Chez Fox https://t.co/oPlEQVJAhn", "created_at": "Mon Aug 01 21:34:35 +0000 2016", "time": 1470087261.835503, "tid": 760227248972726273, "nei_num": "015"}}, {"geometry": {"type": "Point", "coordinates": [-79.5141387, 43.6477151]}, "type": "Feature", "id": 760596304032563200, "properties": {"loc": [-79.5141387, 43.6477151], "screen_name": "tpscalls", "text": "See Ambulance | Ln N Bloor E Royal York &amp; Birchview Blvd [22 Div.] 08/02 17:55 #The_Kingsway #Toronto", "created_at": "Tue Aug 02 22:01:04 +0000 2016", "time": 1470175251.070908, "tid": 760596304032563200, "nei_num": "015"}}, {"geometry": {"type": "Point", "coordinates": [-79.5122465, 43.6473594]}, "type": "Feature", "id": 760605582235570177, "properties": {"loc": [-79.5122465, 43.6473594], "screen_name": "Sandra_Pozzobon", "text": "Few movies bring me to tears. The documentary #Vaxxed did just that. Watch it! #autism @\u2026 https://t.co/DFHFfq0p2d", "created_at": "Tue Aug 02 22:37:56 +0000 2016", "time": 1470177463.279219, "tid": 760605582235570177, "nei_num": "015"}}, {"geometry": {"type": "Point", "coordinates": [-79.5140655, 43.6467664]}, "type": "Feature", "id": 761177564144558080, "properties": {"loc": [-79.5140655, 43.6467664], "screen_name": "tmj_gta_hrta", "text": "Want to work at Starbucks? We're #hiring in 3079 BLOOR ST W, #TORONTO, ON! Click for details: https://t.co/GrGAj2fv2I #Job #Hospitality", "created_at": "Thu Aug 04 12:30:47 +0000 2016", "time": 1470313833.963612, "tid": 761177564144558080, "nei_num": "015"}}, {"geometry": {"type": "Point", "coordinates": [-79.5140655, 43.6467664]}, "type": "Feature", "id": 761612635980693504, "properties": {"loc": [-79.5140655, 43.6467664], "screen_name": "tmj_gta_hrta", "text": "Can you recommend anyone for this #job? Barista (CA) - https://t.co/eKk6JLlkaM #Hospitality 3079 BLOOR ST W, #TORONTO, ON #Veterans #Hiring", "created_at": "Fri Aug 05 17:19:37 +0000 2016", "time": 1470417562.860244, "tid": 761612635980693504, "nei_num": "015"}}, {"geometry": {"type": "Point", "coordinates": [-79.51400346, 43.6463712]}, "type": "Feature", "id": 761681061881516032, "properties": {"loc": [-79.51400346, 43.6463712], "screen_name": "foxadam", "text": "We just made our den a little cozier with this beautiful new\u2026 https://t.co/0PpIOYWuFg", "created_at": "Fri Aug 05 21:51:31 +0000 2016", "time": 1470433876.821457, "tid": 761681061881516032, "nei_num": "015"}}, {"geometry": {"type": "Point", "coordinates": [-79.5133, 43.64713]}, "type": "Feature", "id": 761702304806428672, "properties": {"loc": [-79.5133, 43.64713], "screen_name": "tinalovespinot", "text": "Yay Friday = Fish &amp; Chips takeout \u2763\ud83d\ude1c \nBest in town @kingswayfc3060 @ Kingsway Fish And Chips https://t.co/CiKsrNRIOL", "created_at": "Fri Aug 05 23:15:55 +0000 2016", "time": 1470438941.549867, "tid": 761702304806428672, "nei_num": "015"}}, {"geometry": {"type": "Point", "coordinates": [-79.51400346, 43.6463712]}, "type": "Feature", "id": 761940865287946240, "properties": {"loc": [-79.51400346, 43.6463712], "screen_name": "foxadam", "text": "cucumbers, celery stalks, green apples\nkale or spinach, lemon,\u2026 https://t.co/xkQvf3XXkQ", "created_at": "Sat Aug 06 15:03:53 +0000 2016", "time": 1470495818.788081, "tid": 761940865287946240, "nei_num": "015"}}, {"geometry": {"type": "Point", "coordinates": [-79.52168836, 43.64752201]}, "type": "Feature", "id": 762099936431308800, "properties": {"loc": [-79.52168836, 43.64752201], "screen_name": "msbathan", "text": "Chubby is definitely SEXY! \ud83d\ude0d\ud83d\ude09 Sorry \ud83d\ude09\ud83d\ude18\n#nature #park #summer @ Tom Riley Park https://t.co/UnKPYG2aAA", "created_at": "Sun Aug 07 01:35:58 +0000 2016", "time": 1470533744.064322, "tid": 762099936431308800, "nei_num": "015"}}, {"geometry": {"type": "Point", "coordinates": [-79.52168836, 43.64752201]}, "type": "Feature", "id": 762296355788300288, "properties": {"loc": [-79.52168836, 43.64752201], "screen_name": "msbathan", "text": "Love your curves and all your edges\nAll your perfect imperfections \ud83c\udfa4\ud83c\udfa7\ud83c\udfa4\n#nofilter #backview\u2026 https://t.co/2xdUR8k70n", "created_at": "Sun Aug 07 14:36:28 +0000 2016", "time": 1470580574.014649, "tid": 762296355788300288, "nei_num": "015"}}, {"geometry": {"type": "Point", "coordinates": [-79.525067, 43.650897]}, "type": "Feature", "id": 762357028912332802, "properties": {"loc": [-79.525067, 43.650897], "screen_name": "Najamuddin", "text": "I'm at Montgomery's Meadow in Ontario https://t.co/vfy7FiB8Vi", "created_at": "Sun Aug 07 18:37:34 +0000 2016", "time": 1470595039.53309, "tid": 762357028912332802, "nei_num": "015"}}, {"geometry": {"type": "Point", "coordinates": [-79.5139869, 43.6466697]}, "type": "Feature", "id": 762365408397529092, "properties": {"loc": [-79.5139869, 43.6466697], "screen_name": "Najamuddin", "text": "Montgomery Condos @ Starbucks Canada https://t.co/DUtSSI5lLA", "created_at": "Sun Aug 07 19:10:52 +0000 2016", "time": 1470597037.318202, "tid": 762365408397529092, "nei_num": "015"}}, {"geometry": {"type": "Point", "coordinates": [-79.5255122, 43.6472125]}, "type": "Feature", "id": 762726336318279680, "properties": {"loc": [-79.5255122, 43.6472125], "screen_name": "tofire", "text": "Alarm Highrise Residential - Mabelle Avenue b/w Cordova Avenue / Dundas St West, Etobicoke (6 Trucks)", "created_at": "Mon Aug 08 19:05:04 +0000 2016", "time": 1470683088.968809, "tid": 762726336318279680, "nei_num": "015"}}, {"geometry": {"type": "Point", "coordinates": [-79.5255122, 43.6472125]}, "type": "Feature", "id": 762726337375330305, "properties": {"loc": [-79.5255122, 43.6472125], "screen_name": "tofireW", "text": "Alarm Highrise Residential - Mabelle Avenue b/w Cordova Avenue / Dundas St West, Etobicoke (6 Trucks)", "created_at": "Mon Aug 08 19:05:04 +0000 2016", "time": 1470683089.192381, "tid": 762726337375330305, "nei_num": "015"}}, {"geometry": {"type": "Point", "coordinates": [-79.51400346, 43.6463712]}, "type": "Feature", "id": 763163271943913475, "properties": {"loc": [-79.51400346, 43.6463712], "screen_name": "foxadam", "text": "#juicing #greenmachine #drinkyourveggies #energyhealing #detox\u2026 https://t.co/RFcU4W1CmH", "created_at": "Wed Aug 10 00:01:17 +0000 2016", "time": 1470787262.228595, "tid": 763163271943913475, "nei_num": "015"}}, {"geometry": {"type": "Point", "coordinates": [-79.51400346, 43.6463712]}, "type": "Feature", "id": 763180811290017792, "properties": {"loc": [-79.51400346, 43.6463712], "screen_name": "foxadam", "text": "#taylorswift is everywhere #hatersgonnahate #beaus #beausknows @ The\u2026 https://t.co/1Qw1LZ6j4p", "created_at": "Wed Aug 10 01:10:59 +0000 2016", "time": 1470791443.958436, "tid": 763180811290017792, "nei_num": "015"}}, {"geometry": {"type": "Point", "coordinates": [-79.51400346, 43.6463712]}, "type": "Feature", "id": 763181045399289860, "properties": {"loc": [-79.51400346, 43.6463712], "screen_name": "foxadam", "text": "@r2vh2 #trophies #onatuesday @ The Fox's Den - Chez Fox https://t.co/NmD3sluWln", "created_at": "Wed Aug 10 01:11:55 +0000 2016", "time": 1470791499.721107, "tid": 763181045399289860, "nei_num": "015"}}, {"geometry": {"type": "Point", "coordinates": [-79.5140655, 43.6467664]}, "type": "Feature", "id": 763374627556958209, "properties": {"loc": [-79.5140655, 43.6467664], "screen_name": "tmj_gta_hrta", "text": "Can you recommend anyone for this #job? Shift Supervisor (CA) - https://t.co/GrGAj2fv2I #Hospitality 3079 BLOOR ST W, #TORONTO, ON #Hiring", "created_at": "Wed Aug 10 14:01:08 +0000 2016", "time": 1470837653.303106, "tid": 763374627556958209, "nei_num": "015"}}, {"geometry": {"type": "Point", "coordinates": [-79.51304019, 43.64711027]}, "type": "Feature", "id": 763429758243840001, "properties": {"loc": [-79.51304019, 43.64711027], "screen_name": "AMEtobicoke", "text": "So excited to announced our first ever annual Charity Event: Dancing with Toronto Celebrities.\u2026 https://t.co/dzB3Q3TM9k", "created_at": "Wed Aug 10 17:40:12 +0000 2016", "time": 1470850797.395362, "tid": 763429758243840001, "nei_num": "015"}}, {"geometry": {"type": "Point", "coordinates": [-79.51304019, 43.64711027]}, "type": "Feature", "id": 763429794176434176, "properties": {"loc": [-79.51304019, 43.64711027], "screen_name": "AMEtobicoke", "text": "Exciting behind the scene footage for our group number for Dancing with Toronto Celebrities\u2026 https://t.co/fmUuzgorej", "created_at": "Wed Aug 10 17:40:21 +0000 2016", "time": 1470850805.885543, "tid": 763429794176434176, "nei_num": "015"}}, {"geometry": {"type": "Point", "coordinates": [-79.5140655, 43.6467664]}, "type": "Feature", "id": 763812211332554752, "properties": {"loc": [-79.5140655, 43.6467664], "screen_name": "tmj_gta_hrta", "text": "Can you recommend anyone for this #job? Barista (CA) - https://t.co/eKk6JLlkaM #Hospitality 3079 BLOOR ST W, #TORONTO, ON #Veterans #Hiring", "created_at": "Thu Aug 11 18:59:56 +0000 2016", "time": 1470941981.046138, "tid": 763812211332554752, "nei_num": "015"}}, {"geometry": {"type": "Point", "coordinates": [-79.51304019, 43.64711027]}, "type": "Feature", "id": 764172442541645824, "properties": {"loc": [-79.51304019, 43.64711027], "screen_name": "AMEtobicoke", "text": "Look who decided to visit the studio! Baby Alexander and Cynthia! Only 15 weeks old and already\u2026 https://t.co/qEMOX4Ath1", "created_at": "Fri Aug 12 18:51:22 +0000 2016", "time": 1471027866.62483, "tid": 764172442541645824, "nei_num": "015"}}, {"geometry": {"type": "Point", "coordinates": [-79.5266317, 43.6511443]}, "type": "Feature", "id": 764265226791452672, "properties": {"loc": [-79.5266317, 43.6511443], "screen_name": "tpscalls", "text": "Break &amp; Enter | Bank St &amp; Dundas St W [11 Div.] 08/12 20:55 #Eatonville #Toronto", "created_at": "Sat Aug 13 01:00:04 +0000 2016", "time": 1471049988.091981, "tid": 764265226791452672, "nei_num": "015"}}, {"geometry": {"type": "Point", "coordinates": [-79.5136783, 43.6468593]}, "type": "Feature", "id": 764668635956834308, "properties": {"loc": [-79.5136783, 43.6468593], "screen_name": "tpscalls", "text": "Fight | Brentwood Rd S &amp; Bloor St W [22 Div.] 08/13 23:37 #Etobicoke #Toronto", "created_at": "Sun Aug 14 03:43:04 +0000 2016", "time": 1471146168.016186, "tid": 764668635956834308, "nei_num": "015"}}, {"geometry": {"type": "Point", "coordinates": [-79.51395, 43.6468]}, "type": "Feature", "id": 765240950738132992, "properties": {"loc": [-79.51395, 43.6468], "screen_name": "taissaboutique", "text": "Newest arrivals from Elisa Cavaletti! @ Taissa Boutique https://t.co/lwSs23ptGh", "created_at": "Mon Aug 15 17:37:14 +0000 2016", "time": 1471282618.159746, "tid": 765240950738132992, "nei_num": "015"}}, {"geometry": {"type": "Point", "coordinates": [-79.5140655, 43.6467664]}, "type": "Feature", "id": 765568440530710529, "properties": {"loc": [-79.5140655, 43.6467664], "screen_name": "tmj_gta_hrta", "text": "If you're looking for work in 3079 BLOOR ST W, #TORONTO, ON, check out this #job: https://t.co/GrGAj2fv2I #Hospitality #Veterans #Hiring", "created_at": "Tue Aug 16 15:18:34 +0000 2016", "time": 1471360697.536066, "tid": 765568440530710529, "nei_num": "015"}}, {"geometry": {"type": "Point", "coordinates": [-79.51304019, 43.64711027]}, "type": "Feature", "id": 765672004418756608, "properties": {"loc": [-79.51304019, 43.64711027], "screen_name": "AMEtobicoke", "text": "Purchase your tickets today! Dancing with the Toronto Celebrities 2016. @ The Arthur Murray Group https://t.co/tRx2aRnC7D", "created_at": "Tue Aug 16 22:10:06 +0000 2016", "time": 1471385389.13171, "tid": 765672004418756608, "nei_num": "015"}}, {"geometry": {"type": "Point", "coordinates": [-79.51304019, 43.64711027]}, "type": "Feature", "id": 765966188912443393, "properties": {"loc": [-79.51304019, 43.64711027], "screen_name": "AMEtobicoke", "text": "Be sure to catch the pro show at Dancing with Toronto Celebrities. Starring  Your favourite\u2026 https://t.co/730SkTWDje", "created_at": "Wed Aug 17 17:39:05 +0000 2016", "time": 1471455528.080706, "tid": 765966188912443393, "nei_num": "015"}}, {"geometry": {"type": "Point", "coordinates": [-79.51304019, 43.64711027]}, "type": "Feature", "id": 765999635680952320, "properties": {"loc": [-79.51304019, 43.64711027], "screen_name": "AMEtobicoke", "text": "Work it girls!!!!Only ONE MONTH. Until the event. #dancingwithtorontocelebrities #athurmurray\u2026 https://t.co/zo9xbU8xfo", "created_at": "Wed Aug 17 19:51:59 +0000 2016", "time": 1471463502.213603, "tid": 765999635680952320, "nei_num": "015"}}, {"geometry": {"type": "Point", "coordinates": [-79.5140655, 43.6467664]}, "type": "Feature", "id": 766002229564157952, "properties": {"loc": [-79.5140655, 43.6467664], "screen_name": "tmj_gta_hrta", "text": "Want to work at Starbucks? We're #hiring in 3079 BLOOR ST W, #TORONTO, ON! Click for details: https://t.co/eKk6JLlkaM #Job #Hospitality", "created_at": "Wed Aug 17 20:02:17 +0000 2016", "time": 1471464120.641437, "tid": 766002229564157952, "nei_num": "015"}}, {"geometry": {"type": "Point", "coordinates": [-79.51167, 43.64731]}, "type": "Feature", "id": 766008999393329152, "properties": {"loc": [-79.51167, 43.64731], "screen_name": "DinaAlonzi", "text": "Our bride Devin looked spectacular in her #alvinavalenta gown \ud83d\ude0d\ud83d\udc97 @DinaAlonzi @alvina_valenta\u2026 https://t.co/ym6T75V56Z", "created_at": "Wed Aug 17 20:29:11 +0000 2016", "time": 1471465734.788835, "tid": 766008999393329152, "nei_num": "015"}}, {"geometry": {"type": "Point", "coordinates": [-79.5141387, 43.6477151]}, "type": "Feature", "id": 766036646718541829, "properties": {"loc": [-79.5141387, 43.6477151], "screen_name": "tpscalls", "text": "Assault | Ln N Bloor E Royal York &amp; Birchview Blvd [22 Div.] 08/17 18:12 #The_Kingsway #Toronto", "created_at": "Wed Aug 17 22:19:03 +0000 2016", "time": 1471472326.261218, "tid": 766036646718541829, "nei_num": "015"}}, {"geometry": {"type": "Point", "coordinates": [-79.51472, 43.64723]}, "type": "Feature", "id": 766393736477540352, "properties": {"loc": [-79.51472, 43.64723], "screen_name": "mitchdindc", "text": "I have the honor and privilege of walking one of these two down the aisle on their special day.\u2026 https://t.co/tlDCGrgQBE", "created_at": "Thu Aug 18 21:58:00 +0000 2016", "time": 1471557462.981622, "tid": 766393736477540352, "nei_num": "015"}}, {"geometry": {"type": "Point", "coordinates": [-79.51167, 43.64731]}, "type": "Feature", "id": 766668170077822980, "properties": {"loc": [-79.51167, 43.64731], "screen_name": "DinaAlonzi", "text": "Valerie \u2764\ufe0f looking beautiful in her custom #alvinavalenta gown @DinaAlonzi @alvina_valenta\u2026 https://t.co/E72rDxNCc2", "created_at": "Fri Aug 19 16:08:30 +0000 2016", "time": 1471622892.874269, "tid": 766668170077822980, "nei_num": "015"}}, {"geometry": {"type": "Point", "coordinates": [-79.51167, 43.64731]}, "type": "Feature", "id": 766678287343034368, "properties": {"loc": [-79.51167, 43.64731], "screen_name": "DinaAlonzi", "text": "Pretty in Pink bridesmaids \ud83d\udc97 @DinaAlonzi #DAbrideTO #dinaalonzi #moniquelhuillierbridesmaids\u2026 https://t.co/oO8xPzoaFl", "created_at": "Fri Aug 19 16:48:42 +0000 2016", "time": 1471625305.032584, "tid": 766678287343034368, "nei_num": "015"}}, {"geometry": {"type": "Point", "coordinates": [-79.51167, 43.64731]}, "type": "Feature", "id": 766682639927484416, "properties": {"loc": [-79.51167, 43.64731], "screen_name": "DinaAlonzi", "text": "\ud83c\udf3e\ud83c\udf38\ud83c\udf3a\ud83c\udf38\ud83c\udf3a @DinaAlonzi #dinaalonzibridesmaids #dinaalonzi #DAbrideTO #moniquelhuillierbridesmaids\u2026 https://t.co/PuWVUn00Ei", "created_at": "Fri Aug 19 17:06:00 +0000 2016", "time": 1471626342.832198, "tid": 766682639927484416, "nei_num": "015"}}, {"geometry": {"type": "Point", "coordinates": [-79.51304019, 43.64711027]}, "type": "Feature", "id": 766770667249397760, "properties": {"loc": [-79.51304019, 43.64711027], "screen_name": "AMEtobicoke", "text": "Getting ready for summer spotlight tonight! Make your way down for 8pm sharp for performances\u2026 https://t.co/5hcZdT4va5", "created_at": "Fri Aug 19 22:55:47 +0000 2016", "time": 1471647330.005178, "tid": 766770667249397760, "nei_num": "015"}}, {"geometry": {"type": "Point", "coordinates": [-79.51312602, 43.6472177]}, "type": "Feature", "id": 766784106680164352, "properties": {"loc": [-79.51312602, 43.6472177], "screen_name": "VelvetSkye", "text": "At a pre wedding party... 3 days of non stop fun \ud83c\udf89\ud83c\udf7e (@ The Crooked Cue on Bloor in Toronto, ON) https://t.co/tP1urknNpV", "created_at": "Fri Aug 19 23:49:11 +0000 2016", "time": 1471650534.253743, "tid": 766784106680164352, "nei_num": "015"}}, {"geometry": {"type": "Point", "coordinates": [-79.51304019, 43.64711027]}, "type": "Feature", "id": 766801828906500096, "properties": {"loc": [-79.51304019, 43.64711027], "screen_name": "AMEtobicoke", "text": "Ludmila working it with a fierce cha cha at tonight's spotlight! @ The Arthur Murray Group https://t.co/qWcK7PhXSv", "created_at": "Sat Aug 20 00:59:37 +0000 2016", "time": 1471654759.486642, "tid": 766801828906500096, "nei_num": "015"}}, {"geometry": {"type": "Point", "coordinates": [-79.51304019, 43.64711027]}, "type": "Feature", "id": 766807490617020416, "properties": {"loc": [-79.51304019, 43.64711027], "screen_name": "AMEtobicoke", "text": "Couples that dance together, stay together #arthurmurraytoronto #teachingtheworldtodance @ The\u2026 https://t.co/bMMTMgH1TX", "created_at": "Sat Aug 20 01:22:07 +0000 2016", "time": 1471656109.322543, "tid": 766807490617020416, "nei_num": "015"}}, {"geometry": {"type": "Point", "coordinates": [-79.51304019, 43.64711027]}, "type": "Feature", "id": 766808006835183616, "properties": {"loc": [-79.51304019, 43.64711027], "screen_name": "AMEtobicoke", "text": "Just posted a video @ The Arthur Murray Group https://t.co/X2ED2Ia2qx", "created_at": "Sat Aug 20 01:24:10 +0000 2016", "time": 1471656232.393404, "tid": 766808006835183616, "nei_num": "015"}}, {"geometry": {"type": "Point", "coordinates": [-79.51304019, 43.64711027]}, "type": "Feature", "id": 766810718473555968, "properties": {"loc": [-79.51304019, 43.64711027], "screen_name": "AMEtobicoke", "text": "Ludmila Rocking it tonight at spotlight! #chacha\u2026 https://t.co/EaQvNMAHyE", "created_at": "Sat Aug 20 01:34:56 +0000 2016", "time": 1471656878.878204, "tid": 766810718473555968, "nei_num": "015"}}, {"geometry": {"type": "Point", "coordinates": [-79.52168836, 43.64752201]}, "type": "Feature", "id": 767182530768310272, "properties": {"loc": [-79.52168836, 43.64752201], "screen_name": "GConnaughton", "text": "A lot of 40 year olds are enjoying #TheHip tonight but here's to my nephew Jesse Baker coaching\u2026 https://t.co/7MEd6R3UTI", "created_at": "Sun Aug 21 02:12:23 +0000 2016", "time": 1471745525.5709, "tid": 767182530768310272, "nei_num": "015"}}, {"geometry": {"type": "Point", "coordinates": [-79.501, 43.6471]}, "type": "Feature", "id": 767462379185639424, "properties": {"loc": [-79.501, 43.6471], "screen_name": "PedroVianna5", "text": "#instapic @ Park Lawn Cemetery https://t.co/OspDLpQPDx", "created_at": "Sun Aug 21 20:44:24 +0000 2016", "time": 1471812246.555127, "tid": 767462379185639424, "nei_num": "015"}}, {"geometry": {"type": "Point", "coordinates": [-79.5136783, 43.6468593]}, "type": "Feature", "id": 767534515594096640, "properties": {"loc": [-79.5136783, 43.6468593], "screen_name": "tpscalls", "text": "Disorderlies | Bloor St W &amp; Brentwood Rd S [22 Div.] 08/21 21:26 #Etobicoke #Toronto", "created_at": "Mon Aug 22 01:31:03 +0000 2016", "time": 1471829445.120098, "tid": 767534515594096640, "nei_num": "015"}}, {"geometry": {"type": "Point", "coordinates": [-79.5140655, 43.6467664]}, "type": "Feature", "id": 767762220167999488, "properties": {"loc": [-79.5140655, 43.6467664], "screen_name": "tmj_gta_hrta", "text": "We're #hiring! Read about our latest #job opening here: Shift Supervisor (CA) - https://t.co/GrGAj2fv2I 3079 BLOOR ST W, #TORONTO, ON", "created_at": "Mon Aug 22 16:35:52 +0000 2016", "time": 1471883734.449429, "tid": 767762220167999488, "nei_num": "015"}}, {"geometry": {"type": "Point", "coordinates": [-79.5255122, 43.6472125]}, "type": "Feature", "id": 768187580928131072, "properties": {"loc": [-79.5255122, 43.6472125], "screen_name": "tofire", "text": "Rescue (Elevator) - Mabelle Avenue b/w Cordova Avenue / Dundas St West, Etobicoke (3 Trucks)", "created_at": "Tue Aug 23 20:46:06 +0000 2016", "time": 1471985147.692144, "tid": 768187580928131072, "nei_num": "015"}}, {"geometry": {"type": "Point", "coordinates": [-79.5255122, 43.6472125]}, "type": "Feature", "id": 768187582299578368, "properties": {"loc": [-79.5255122, 43.6472125], "screen_name": "tofireW", "text": "Rescue (Elevator) - Mabelle Avenue b/w Cordova Avenue / Dundas St West, Etobicoke (3 Trucks)", "created_at": "Tue Aug 23 20:46:06 +0000 2016", "time": 1471985147.969403, "tid": 768187582299578368, "nei_num": "015"}}, {"geometry": {"type": "Point", "coordinates": [-79.5140655, 43.6467664]}, "type": "Feature", "id": 768195733312843776, "properties": {"loc": [-79.5140655, 43.6467664], "screen_name": "tmj_gta_hrta", "text": "Can you recommend anyone for this #job? Barista (CA) - https://t.co/eKk6JLlkaM #Hospitality 3079 BLOOR ST W, #TORONTO, ON #Veterans #Hiring", "created_at": "Tue Aug 23 21:18:29 +0000 2016", "time": 1471987091.308106, "tid": 768195733312843776, "nei_num": "015"}}, {"geometry": {"type": "Point", "coordinates": [-79.5255122, 43.6472125]}, "type": "Feature", "id": 768582427753189376, "properties": {"loc": [-79.5255122, 43.6472125], "screen_name": "tofireW", "text": "Medical (Chest Pains) - Mabelle Avenue b/w Cordova Avenue / Dundas St West, Etobicoke (2 Trucks)", "created_at": "Wed Aug 24 22:55:05 +0000 2016", "time": 1472079286.215454, "tid": 768582427753189376, "nei_num": "015"}}, {"geometry": {"type": "Point", "coordinates": [-79.5255122, 43.6472125]}, "type": "Feature", "id": 768582426914394113, "properties": {"loc": [-79.5255122, 43.6472125], "screen_name": "tofire", "text": "Medical (Chest Pains) - Mabelle Avenue b/w Cordova Avenue / Dundas St West, Etobicoke (2 Trucks)", "created_at": "Wed Aug 24 22:55:04 +0000 2016", "time": 1472079286.121847, "tid": 768582426914394113, "nei_num": "015"}}, {"geometry": {"type": "Point", "coordinates": [-79.5140826, 43.64638538]}, "type": "Feature", "id": 768593440196132864, "properties": {"loc": [-79.5140826, 43.64638538], "screen_name": "foxadam", "text": "#SUSHI hina_sushi hinasushi ubereats_toronto @ The Fox's Den - Chez Fox https://t.co/hTpwKHXHn9", "created_at": "Wed Aug 24 23:38:50 +0000 2016", "time": 1472081911.82809, "tid": 768593440196132864, "nei_num": "015"}}, {"geometry": {"type": "Point", "coordinates": [-79.5140826, 43.64638538]}, "type": "Feature", "id": 768593726784544768, "properties": {"loc": [-79.5140826, 43.64638538], "screen_name": "foxadam", "text": "Picked up 6 of only 300 lovely bottles of #toronto's best craft beer\u2026 https://t.co/KvIob9mCJg", "created_at": "Wed Aug 24 23:39:58 +0000 2016", "time": 1472081980.094403, "tid": 768593726784544768, "nei_num": "015"}}, {"geometry": {"type": "Point", "coordinates": [-79.501, 43.6471]}, "type": "Feature", "id": 768882156584087554, "properties": {"loc": [-79.501, 43.6471], "screen_name": "ggardenman", "text": "#parklawncemetery #largest #cemetery in #toronto #death #life #cemeteryart #cemeterystone\u2026 https://t.co/yJjNghsn9v", "created_at": "Thu Aug 25 18:46:05 +0000 2016", "time": 1472150746.878547, "tid": 768882156584087554, "nei_num": "015"}}, {"geometry": {"type": "Point", "coordinates": [-79.5141387, 43.6477151]}, "type": "Feature", "id": 769007470945632256, "properties": {"loc": [-79.5141387, 43.6477151], "screen_name": "tpscalls", "text": "Theft Just Occurred | Ln N Bloor E Royal York &amp; Birchview Blvd [22 Div.] 08/25 22:58 #The_Kingsway #Toronto", "created_at": "Fri Aug 26 03:04:03 +0000 2016", "time": 1472180624.129987, "tid": 769007470945632256, "nei_num": "015"}}, {"geometry": {"type": "Point", "coordinates": [-79.5255122, 43.6472125]}, "type": "Feature", "id": 769230698721009664, "properties": {"loc": [-79.5255122, 43.6472125], "screen_name": "tofire", "text": "Alarm Highrise Residential - Mabelle Avenue b/w Cordova Avenue / Dundas St West, Etobicoke (6 Trucks)", "created_at": "Fri Aug 26 17:51:04 +0000 2016", "time": 1472233845.526871, "tid": 769230698721009664, "nei_num": "015"}}, {"geometry": {"type": "Point", "coordinates": [-79.5255122, 43.6472125]}, "type": "Feature", "id": 769230699547201536, "properties": {"loc": [-79.5255122, 43.6472125], "screen_name": "tofireW", "text": "Alarm Highrise Residential - Mabelle Avenue b/w Cordova Avenue / Dundas St West, Etobicoke (6 Trucks)", "created_at": "Fri Aug 26 17:51:05 +0000 2016", "time": 1472233845.698685, "tid": 769230699547201536, "nei_num": "015"}}, {"geometry": {"type": "Point", "coordinates": [-79.5141387, 43.6477151]}, "type": "Feature", "id": 769416665784258560, "properties": {"loc": [-79.5141387, 43.6477151], "screen_name": "tpscalls", "text": "Unknown Trouble | Ln N Bloor E Royal York &amp; Birchview Blvd [22 Div.] 08/27 02:03 #The_Kingsway #Toronto", "created_at": "Sat Aug 27 06:10:02 +0000 2016", "time": 1472278183.418476, "tid": 769416665784258560, "nei_num": "015"}}, {"geometry": {"type": "Point", "coordinates": [-79.5140826, 43.64638538]}, "type": "Feature", "id": 769950038692888576, "properties": {"loc": [-79.5140826, 43.64638538], "screen_name": "foxadam", "text": "Diego liked the party yesterday - thanks to everyone who came by\u2026 https://t.co/xrHUeXyl1w", "created_at": "Sun Aug 28 17:29:28 +0000 2016", "time": 1472405349.105706, "tid": 769950038692888576, "nei_num": "015"}}, {"geometry": {"type": "Point", "coordinates": [-79.5140655, 43.6467664]}, "type": "Feature", "id": 769977998120476676, "properties": {"loc": [-79.5140655, 43.6467664], "screen_name": "tmj_gta_hrta", "text": "Can you recommend anyone for this #job? Shift Supervisor (CA) - https://t.co/GrGAj2x6ri #Hospitality 3079 BLOOR ST W, #TORONTO, ON #Hiring", "created_at": "Sun Aug 28 19:20:34 +0000 2016", "time": 1472412015.087974, "tid": 769977998120476676, "nei_num": "015"}}, {"geometry": {"type": "Point", "coordinates": [-79.5140826, 43.64638538]}, "type": "Feature", "id": 769998488809697284, "properties": {"loc": [-79.5140826, 43.64638538], "screen_name": "foxadam", "text": "#fundaysunday with some smooth @stlucia beats, a solid pint of\u2026 https://t.co/9xGr3SN8NP", "created_at": "Sun Aug 28 20:42:00 +0000 2016", "time": 1472416900.633265, "tid": 769998488809697284, "nei_num": "015"}}, {"geometry": {"type": "Point", "coordinates": [-79.5140826, 43.64638538]}, "type": "Feature", "id": 770000516495597572, "properties": {"loc": [-79.5140826, 43.64638538], "screen_name": "foxadam", "text": "Sometimes it's tough being the center of the party so I reach for a\u2026 https://t.co/66xaTYsqAq", "created_at": "Sun Aug 28 20:50:03 +0000 2016", "time": 1472417384.023291, "tid": 770000516495597572, "nei_num": "015"}}, {"geometry": {"type": "Point", "coordinates": [-79.5140826, 43.64638538]}, "type": "Feature", "id": 770015887759904769, "properties": {"loc": [-79.5140826, 43.64638538], "screen_name": "foxadam", "text": "Our little mans nursery complete - shoutout ashforthpress and\u2026 https://t.co/F5szHNHtJC", "created_at": "Sun Aug 28 21:51:08 +0000 2016", "time": 1472421048.682098, "tid": 770015887759904769, "nei_num": "015"}}, {"geometry": {"type": "Point", "coordinates": [-79.5140826, 43.64638538]}, "type": "Feature", "id": 770045882716852228, "properties": {"loc": [-79.5140826, 43.64638538], "screen_name": "foxadam", "text": "#sundayfunday continues with #freshfishtacos Small Lot #pinotnoir by\u2026 https://t.co/EZpTjZ2ii0", "created_at": "Sun Aug 28 23:50:19 +0000 2016", "time": 1472428200.166502, "tid": 770045882716852228, "nei_num": "015"}}, {"geometry": {"type": "Point", "coordinates": [-79.5140655, 43.6467664]}, "type": "Feature", "id": 770623034453438465, "properties": {"loc": [-79.5140655, 43.6467664], "screen_name": "tmj_gta_hrta", "text": "Can you recommend anyone for this #job? https://t.co/eKk6JLlkaM #Hospitality 3079 BLOOR ST W, #TORONTO, ON #Veterans #Hiring #CareerArc", "created_at": "Tue Aug 30 14:03:43 +0000 2016", "time": 1472565803.537351, "tid": 770623034453438465, "nei_num": "015"}}, {"geometry": {"type": "Point", "coordinates": [-79.5250685, 43.6484007]}, "type": "Feature", "id": 771415088091820032, "properties": {"loc": [-79.5250685, 43.6484007], "screen_name": "tofire", "text": "Alarm Highrise Residential - Islington Avenue b/w Cordova Avenue / Cordova Avenue, Etobicoke (6 Trucks)", "created_at": "Thu Sep 01 18:31:03 +0000 2016", "time": 1472754643.18442, "tid": 771415088091820032, "nei_num": "015"}}, {"geometry": {"type": "Point", "coordinates": [-79.5250685, 43.6484007]}, "type": "Feature", "id": 771415089731735552, "properties": {"loc": [-79.5250685, 43.6484007], "screen_name": "tofireW", "text": "Alarm Highrise Residential - Islington Avenue b/w Cordova Avenue / Cordova Avenue, Etobicoke (6 Trucks)", "created_at": "Thu Sep 01 18:31:04 +0000 2016", "time": 1472754643.613007, "tid": 771415089731735552, "nei_num": "015"}}, {"geometry": {"type": "Point", "coordinates": [-79.5250685, 43.6484007]}, "type": "Feature", "id": 771416095412617217, "properties": {"loc": [-79.5250685, 43.6484007], "screen_name": "tofire", "text": "UD: Alarm Highrise Residential - Islington Avenue b/w Cordova Avenue / Cordova Avenue, Etobicoke (7 Trucks)", "created_at": "Thu Sep 01 18:35:04 +0000 2016", "time": 1472754883.468193, "tid": 771416095412617217, "nei_num": "015"}}, {"geometry": {"type": "Point", "coordinates": [-79.5250685, 43.6484007]}, "type": "Feature", "id": 771416096717074432, "properties": {"loc": [-79.5250685, 43.6484007], "screen_name": "tofireW", "text": "UD: Alarm Highrise Residential - Islington Avenue b/w Cordova Avenue / Cordova Avenue, Etobicoke (7 Trucks)", "created_at": "Thu Sep 01 18:35:04 +0000 2016", "time": 1472754883.633742, "tid": 771416096717074432, "nei_num": "015"}}, {"geometry": {"type": "Point", "coordinates": [-79.51167, 43.64731]}, "type": "Feature", "id": 771451936872755200, "properties": {"loc": [-79.51167, 43.64731], "screen_name": "DinaAlonzi", "text": "Tulle and Sparkle \u2728 @DinaAlonzi #lihihodbride #DAbrideTO #dinaalonzibridal #mlbridesmaids\u2026 https://t.co/51s6iMoZ5Q", "created_at": "Thu Sep 01 20:57:29 +0000 2016", "time": 1472763428.708626, "tid": 771451936872755200, "nei_num": "015"}}, {"geometry": {"type": "Point", "coordinates": [-79.5260192, 43.6474784]}, "type": "Feature", "id": 771650637050150917, "properties": {"loc": [-79.5260192, 43.6474784], "screen_name": "tpscalls", "text": "Prowler On Location | C P R &amp; Cordova Ave [22 Div.] 09/02 06:00 #Islington #Toronto", "created_at": "Fri Sep 02 10:07:03 +0000 2016", "time": 1472810802.273214, "tid": 771650637050150917, "nei_num": "015"}}, {"geometry": {"type": "Point", "coordinates": [-79.5142073, 43.6467516]}, "type": "Feature", "id": 771832590978482176, "properties": {"loc": [-79.5142073, 43.6467516], "screen_name": "tofire", "text": "Medical (Vsa) - Bloor St b/w Thompson Avenue / Montgomery Road, Etobicoke (2 Trucks)", "created_at": "Fri Sep 02 22:10:04 +0000 2016", "time": 1472854183.297101, "tid": 771832590978482176, "nei_num": "015"}}, {"geometry": {"type": "Point", "coordinates": [-79.5142073, 43.6467516]}, "type": "Feature", "id": 771832592043765761, "properties": {"loc": [-79.5142073, 43.6467516], "screen_name": "tofireW", "text": "Medical (Vsa) - Bloor St b/w Thompson Avenue / Montgomery Road, Etobicoke (2 Trucks)", "created_at": "Fri Sep 02 22:10:04 +0000 2016", "time": 1472854183.631718, "tid": 771832592043765761, "nei_num": "015"}}, {"geometry": {"type": "Point", "coordinates": [-79.5266317, 43.6511443]}, "type": "Feature", "id": 771945585939189760, "properties": {"loc": [-79.5266317, 43.6511443], "screen_name": "tpscalls", "text": "Dispute | Bank St &amp; Dundas St W [14 Div.] 09/03 01:33 #Eatonville #Toronto", "created_at": "Sat Sep 03 05:39:04 +0000 2016", "time": 1472881123.383566, "tid": 771945585939189760, "nei_num": "015"}}, {"geometry": {"type": "Point", "coordinates": [-79.5140826, 43.64638538]}, "type": "Feature", "id": 772123404992385024, "properties": {"loc": [-79.5140826, 43.64638538], "screen_name": "foxadam", "text": "Sometimes it's the simple things that make a day great\u2026 https://t.co/HhJYo8iUQw", "created_at": "Sat Sep 03 17:25:39 +0000 2016", "time": 1472923518.623399, "tid": 772123404992385024, "nei_num": "015"}}, {"geometry": {"type": "Point", "coordinates": [-79.5140826, 43.64638538]}, "type": "Feature", "id": 772140013547098112, "properties": {"loc": [-79.5140826, 43.64638538], "screen_name": "foxadam", "text": "Did you know #orca calves in the wild stay with their mothers their\u2026 https://t.co/BxcWfwDI6N", "created_at": "Sat Sep 03 18:31:39 +0000 2016", "time": 1472927478.399588, "tid": 772140013547098112, "nei_num": "015"}}, {"geometry": {"type": "Point", "coordinates": [-79.5140655, 43.6467664]}, "type": "Feature", "id": 772183661009481728, "properties": {"loc": [-79.5140655, 43.6467664], "screen_name": "tmj_gta_hrta", "text": "This #job might be a great fit for you: Shift Supervisor (CA) - https://t.co/GrGAj2fv2I #Hospitality 3079 BLOOR ST W, #TORONTO, ON #Hiring", "created_at": "Sat Sep 03 21:25:05 +0000 2016", "time": 1472937884.826157, "tid": 772183661009481728, "nei_num": "015"}}, {"geometry": {"type": "Point", "coordinates": [-79.5113757, 43.6474094]}, "type": "Feature", "id": 772201018197151745, "properties": {"loc": [-79.5113757, 43.6474094], "screen_name": "tpscalls", "text": "Disorderlies | Royal York Rd &amp; Bloor St W [22 Div.] 09/03 18:29 #Etobicoke #Toronto", "created_at": "Sat Sep 03 22:34:04 +0000 2016", "time": 1472942022.970191, "tid": 772201018197151745, "nei_num": "015"}}, {"geometry": {"type": "Point", "coordinates": [-79.51312602, 43.6472177]}, "type": "Feature", "id": 772249983617753089, "properties": {"loc": [-79.51312602, 43.6472177], "screen_name": "VelvetSkye", "text": "I'm at The Crooked Cue on Bloor in Toronto, ON https://t.co/dKJaul4rXA", "created_at": "Sun Sep 04 01:48:38 +0000 2016", "time": 1472953697.272759, "tid": 772249983617753089, "nei_num": "015"}}, {"geometry": {"type": "Point", "coordinates": [-79.5140655, 43.6467664]}, "type": "Feature", "id": 772824240290533376, "properties": {"loc": [-79.5140655, 43.6467664], "screen_name": "tmj_gta_hrta", "text": "See our latest 3079 BLOOR ST W, #TORONTO, ON #job and click to apply: Barista (CA) - https://t.co/eKk6JLlkaM #Hospitality #Veterans #Hiring", "created_at": "Mon Sep 05 15:50:31 +0000 2016", "time": 1473090610.393103, "tid": 772824240290533376, "nei_num": "015"}}, {"geometry": {"type": "Point", "coordinates": [-79.5224, 43.6502]}, "type": "Feature", "id": 773142930609410049, "properties": {"loc": [-79.5224, 43.6502], "screen_name": "editorpauld", "text": "High school!  #BTbacktoschool #summerisover #highschool #etobicoke #etobicokecollegiateinstitute\u2026 https://t.co/CHsFrf1x8m", "created_at": "Tue Sep 06 12:56:53 +0000 2016", "time": 1473166591.853453, "tid": 773142930609410049, "nei_num": "015"}}, {"geometry": {"type": "Point", "coordinates": [-79.51899679, 43.64801629]}, "type": "Feature", "id": 773157079137693697, "properties": {"loc": [-79.51899679, 43.64801629], "screen_name": "omarlo_aguiba", "text": "#dreamscometrue the first time we imagined how can be possible that our children study in other\u2026 https://t.co/fca8eDVc2z", "created_at": "Tue Sep 06 13:53:06 +0000 2016", "time": 1473169965.174776, "tid": 773157079137693697, "nei_num": "015"}}]}