{"type": "FeatureCollection", "features": [{"geometry": {"type": "Point", "coordinates": [-79.4574216, 43.7894581]}, "type": "Feature", "id": 749837661922353152, "properties": {"loc": [-79.4574216, 43.7894581], "screen_name": "tpscalls", "text": "Unknown Trouble | Black Hawkway &amp; Dove Hawkway [32 Div.] 07/04 01:25 #Newtonbrook #Toronto", "created_at": "Mon Jul 04 05:30:04 +0000 2016", "time": 1467610197.908817, "tid": 749837661922353152, "nei_num": "035"}}, {"geometry": {"type": "Point", "coordinates": [-79.4471042, 43.7901958]}, "type": "Feature", "id": 751962161946169344, "properties": {"loc": [-79.4471042, 43.7901958], "screen_name": "tpscalls", "text": "Fight | Dewlane Dr &amp; Carpenter Rd [32 Div.] 07/09 22:08 #Newtonbrook #Toronto", "created_at": "Sun Jul 10 02:12:04 +0000 2016", "time": 1468116716.782758, "tid": 751962161946169344, "nei_num": "035"}}, {"geometry": {"type": "Point", "coordinates": [-79.4631479, 43.7886094]}, "type": "Feature", "id": 752472013982273536, "properties": {"loc": [-79.4631479, 43.7886094], "screen_name": "tpscalls", "text": "Break &amp; Enter | Finch Corridor Trl &amp; Steeles Ave W [31 Div.] 07/11 07:51 #Toronto", "created_at": "Mon Jul 11 11:58:03 +0000 2016", "time": 1468238274.831639, "tid": 752472013982273536, "nei_num": "035"}}, {"geometry": {"type": "Point", "coordinates": [-79.4504099, 43.7885572]}, "type": "Feature", "id": 752950936624963584, "properties": {"loc": [-79.4504099, 43.7885572], "screen_name": "tofire", "text": "Fire (Transformer/pole) - Russfax Dr b/w Twin Circle Crt / Torresdale Avenue, North York (2 Trucks)", "created_at": "Tue Jul 12 19:41:07 +0000 2016", "time": 1468352458.449594, "tid": 752950936624963584, "nei_num": "035"}}, {"geometry": {"type": "Point", "coordinates": [-79.4504099, 43.7885572]}, "type": "Feature", "id": 752950937677918209, "properties": {"loc": [-79.4504099, 43.7885572], "screen_name": "tofireN", "text": "Fire (Transformer/pole) - Russfax Dr b/w Twin Circle Crt / Torresdale Avenue, North York (2 Trucks)", "created_at": "Tue Jul 12 19:41:07 +0000 2016", "time": 1468352458.782567, "tid": 752950937677918209, "nei_num": "035"}}, {"geometry": {"type": "Point", "coordinates": [-79.4504099, 43.7885572]}, "type": "Feature", "id": 752950938579701760, "properties": {"loc": [-79.4504099, 43.7885572], "screen_name": "tofiref", "text": "Fire (Transformer/pole) - Russfax Dr b/w Twin Circle Crt / Torresdale Avenue, North York (2 Trucks)", "created_at": "Tue Jul 12 19:41:07 +0000 2016", "time": 1468352459.038002, "tid": 752950938579701760, "nei_num": "035"}}, {"geometry": {"type": "Point", "coordinates": [-79.4631479, 43.7886094]}, "type": "Feature", "id": 753097641916043267, "properties": {"loc": [-79.4631479, 43.7886094], "screen_name": "tpscalls", "text": "See Ambulance | Hullmar Dr &amp; Steeles Ave W [31 Div.] 07/13 01:19 #Toronto", "created_at": "Wed Jul 13 05:24:04 +0000 2016", "time": 1468387435.578292, "tid": 753097641916043267, "nei_num": "035"}}, {"geometry": {"type": "Point", "coordinates": [-79.4471042, 43.7901958]}, "type": "Feature", "id": 753290909924593665, "properties": {"loc": [-79.4471042, 43.7901958], "screen_name": "tpscalls", "text": "Personal Injury Collision | Carpenter Rd &amp; Fisherville Rd [HP] 07/13 14:08 #Newtonbrook #Toronto", "created_at": "Wed Jul 13 18:12:03 +0000 2016", "time": 1468433514.155583, "tid": 753290909924593665, "nei_num": "035"}}, {"geometry": {"type": "Point", "coordinates": [-79.4504099, 43.7885572]}, "type": "Feature", "id": 753371697357721600, "properties": {"loc": [-79.4504099, 43.7885572], "screen_name": "tpscalls", "text": "Fire | Carpenter Rd &amp; Russfax Dr [32 Div.] 07/13 19:27 #Newtonbrook #Toronto", "created_at": "Wed Jul 13 23:33:04 +0000 2016", "time": 1468452775.383608, "tid": 753371697357721600, "nei_num": "035"}}, {"geometry": {"type": "Point", "coordinates": [-79.4631479, 43.7886094]}, "type": "Feature", "id": 755090015877730304, "properties": {"loc": [-79.4631479, 43.7886094], "screen_name": "tpscalls", "text": "See Ambulance | Kipling Ave Bicycle Trl &amp; Steeles Ave W [23 Div.] 07/18 13:17 #Toronto", "created_at": "Mon Jul 18 17:21:03 +0000 2016", "time": 1468862453.36437, "tid": 755090015877730304, "nei_num": "035"}}, {"geometry": {"type": "Point", "coordinates": [-79.4605243, 43.79067522]}, "type": "Feature", "id": 755171571388538882, "properties": {"loc": [-79.4605243, 43.79067522], "screen_name": "magickislife", "text": "Cat and I found a new park while play #pokemongo Appearently almost all the #pokestops in our\u2026 https://t.co/8khsNDUDbX", "created_at": "Mon Jul 18 22:45:07 +0000 2016", "time": 1468881897.635268, "tid": 755171571388538882, "nei_num": "035"}}, {"geometry": {"type": "Point", "coordinates": [-79.46376627, 43.78897661]}, "type": "Feature", "id": 755392146975457280, "properties": {"loc": [-79.46376627, 43.78897661], "screen_name": "c_ada_c", "text": "Finally after 4yrs my teeth can breath freely!! Braces free\ud83d\ude01\ud83d\ude01 (@ Orthodontically Yours in Thornhill) https://t.co/D6T4Jp8xzh", "created_at": "Tue Jul 19 13:21:37 +0000 2016", "time": 1468934486.786415, "tid": 755392146975457280, "nei_num": "035"}}, {"geometry": {"type": "Point", "coordinates": [-79.4631479, 43.7886094]}, "type": "Feature", "id": 755610200497872896, "properties": {"loc": [-79.4631479, 43.7886094], "screen_name": "tpscalls", "text": "Dispute | Green Bush Rd &amp; Steeles Ave W [32 Div.] 07/19 23:42 #Toronto", "created_at": "Wed Jul 20 03:48:05 +0000 2016", "time": 1468986474.619109, "tid": 755610200497872896, "nei_num": "035"}}, {"geometry": {"type": "Point", "coordinates": [-79.4475922, 43.7920544]}, "type": "Feature", "id": 756196308273229825, "properties": {"loc": [-79.4475922, 43.7920544], "screen_name": "tofire", "text": "Medical (Trouble Breathing) - Steeles Avenue b/w Carpenter Road / Torresdale Avenue, North York (2 Trucks)", "created_at": "Thu Jul 21 18:37:03 +0000 2016", "time": 1469126213.333587, "tid": 756196308273229825, "nei_num": "035"}}, {"geometry": {"type": "Point", "coordinates": [-79.4475922, 43.7920544]}, "type": "Feature", "id": 756196309393141764, "properties": {"loc": [-79.4475922, 43.7920544], "screen_name": "tofireN", "text": "Medical (Trouble Breathing) - Steeles Avenue b/w Carpenter Road / Torresdale Avenue, North York (2 Trucks)", "created_at": "Thu Jul 21 18:37:04 +0000 2016", "time": 1469126213.517961, "tid": 756196309393141764, "nei_num": "035"}}, {"geometry": {"type": "Point", "coordinates": [-79.4475922, 43.7920544]}, "type": "Feature", "id": 756270050630373376, "properties": {"loc": [-79.4475922, 43.7920544], "screen_name": "tofireN", "text": "Medical (Allergy) - Steeles Avenue b/w Carpenter Road / Torresdale Avenue, North York (2 Trucks)", "created_at": "Thu Jul 21 23:30:05 +0000 2016", "time": 1469143794.776013, "tid": 756270050630373376, "nei_num": "035"}}, {"geometry": {"type": "Point", "coordinates": [-79.4475922, 43.7920544]}, "type": "Feature", "id": 756270049711751168, "properties": {"loc": [-79.4475922, 43.7920544], "screen_name": "tofire", "text": "Medical (Allergy) - Steeles Avenue b/w Carpenter Road / Torresdale Avenue, North York (2 Trucks)", "created_at": "Thu Jul 21 23:30:05 +0000 2016", "time": 1469143794.564952, "tid": 756270049711751168, "nei_num": "035"}}, {"geometry": {"type": "Point", "coordinates": [-79.4558224, 43.7902387]}, "type": "Feature", "id": 756330693328826369, "properties": {"loc": [-79.4558224, 43.7902387], "screen_name": "tpscalls", "text": "Break &amp; Enter | Steeles Ave W &amp; Sea Hawkway [32 Div.] 07/21 23:25 #Newtonbrook #Toronto", "created_at": "Fri Jul 22 03:31:03 +0000 2016", "time": 1469158253.075593, "tid": 756330693328826369, "nei_num": "035"}}, {"geometry": {"type": "Point", "coordinates": [-79.4631479, 43.7886094]}, "type": "Feature", "id": 756643250983796737, "properties": {"loc": [-79.4631479, 43.7886094], "screen_name": "tpscalls", "text": "Animal Comp | Hullmar Dr &amp; Steeles Ave W [31 Div.] 07/22 20:08 #Toronto", "created_at": "Sat Jul 23 00:13:03 +0000 2016", "time": 1469232772.468745, "tid": 756643250983796737, "nei_num": "035"}}, {"geometry": {"type": "Point", "coordinates": [-79.46376627, 43.78897661]}, "type": "Feature", "id": 757203276894961666, "properties": {"loc": [-79.46376627, 43.78897661], "screen_name": "c_ada_c", "text": "See u again in six months. Ilabmyretainers \ud83d\ude01\ud83d\ude01\ud83d\ude01 (@ Orthodontically Yours in Thornhill) https://t.co/iyG1tCvSds", "created_at": "Sun Jul 24 13:18:24 +0000 2016", "time": 1469366292.63213, "tid": 757203276894961666, "nei_num": "035"}}, {"geometry": {"type": "Point", "coordinates": [-79.4471042, 43.7901958]}, "type": "Feature", "id": 757283471165386752, "properties": {"loc": [-79.4471042, 43.7901958], "screen_name": "tpscalls", "text": "Unknown Trouble | Dewlane Dr &amp; Carpenter Rd [32 Div.] 07/24 14:30 #Newtonbrook #Toronto", "created_at": "Sun Jul 24 18:37:03 +0000 2016", "time": 1469385412.37892, "tid": 757283471165386752, "nei_num": "035"}}, {"geometry": {"type": "Point", "coordinates": [-79.4471042, 43.7901958]}, "type": "Feature", "id": 757352678179672064, "properties": {"loc": [-79.4471042, 43.7901958], "screen_name": "tpscalls", "text": "Person With A Gun | Dewlane Dr &amp; Carpenter Rd [32 Div.] 07/24 19:06 #Newtonbrook #Toronto", "created_at": "Sun Jul 24 23:12:04 +0000 2016", "time": 1469401912.576889, "tid": 757352678179672064, "nei_num": "035"}}, {"geometry": {"type": "Point", "coordinates": [-79.4631479, 43.7886094]}, "type": "Feature", "id": 757524303923544064, "properties": {"loc": [-79.4631479, 43.7886094], "screen_name": "tpscalls", "text": "Break &amp; Enter | Finch Corridor Trl &amp; Steeles Ave W [31 Div.] 07/25 06:29 #Toronto", "created_at": "Mon Jul 25 10:34:02 +0000 2016", "time": 1469442831.193591, "tid": 757524303923544064, "nei_num": "035"}}, {"geometry": {"type": "Point", "coordinates": [-79.44802042, 43.79234316]}, "type": "Feature", "id": 757744220102950912, "properties": {"loc": [-79.44802042, 43.79234316], "screen_name": "maks_marusenko", "text": "I'm at Second Cup in Vaughan, Canada https://t.co/EK5Sy55Bxd", "created_at": "Tue Jul 26 01:07:54 +0000 2016", "time": 1469495263.181042, "tid": 757744220102950912, "nei_num": "035"}}, {"geometry": {"type": "Point", "coordinates": [-79.4475922, 43.7920544]}, "type": "Feature", "id": 758052786693140480, "properties": {"loc": [-79.4475922, 43.7920544], "screen_name": "tpscalls", "text": "Assault In Progress | Carpenter Rd &amp; Steeles Ave W [32 Div.] 07/26 17:28 #Newtonbrook #Toronto", "created_at": "Tue Jul 26 21:34:02 +0000 2016", "time": 1469568831.232972, "tid": 758052786693140480, "nei_num": "035"}}, {"geometry": {"type": "Point", "coordinates": [-79.4631479, 43.7886094]}, "type": "Feature", "id": 758892827648466945, "properties": {"loc": [-79.4631479, 43.7886094], "screen_name": "tpscalls", "text": "Disorderlies | Hullmar Dr &amp; Steeles Ave W [31 Div.] 07/29 01:06 #Toronto", "created_at": "Fri Jul 29 05:12:04 +0000 2016", "time": 1469769111.862628, "tid": 758892827648466945, "nei_num": "035"}}, {"geometry": {"type": "Point", "coordinates": [-79.46494633, 43.78960918]}, "type": "Feature", "id": 758963666431508481, "properties": {"loc": [-79.46494633, 43.78960918], "screen_name": "Acadianite", "text": "I just finished walking 1.62 km in 27m:50s with #Endomondo #endorphins https://t.co/SkQH9H0lru", "created_at": "Fri Jul 29 09:53:33 +0000 2016", "time": 1469786001.08951, "tid": 758963666431508481, "nei_num": "035"}}, {"geometry": {"type": "Point", "coordinates": [-79.4471042, 43.7901958]}, "type": "Feature", "id": 759513663283888129, "properties": {"loc": [-79.4471042, 43.7901958], "screen_name": "tpscalls", "text": "Unknown Trouble | Dewlane Dr &amp; Carpenter Rd [32 Div.] 07/30 18:14 #Newtonbrook #Toronto", "created_at": "Sat Jul 30 22:19:03 +0000 2016", "time": 1469917130.084898, "tid": 759513663283888129, "nei_num": "035"}}, {"geometry": {"type": "Point", "coordinates": [-79.4475922, 43.7920544]}, "type": "Feature", "id": 759672963792826368, "properties": {"loc": [-79.4475922, 43.7920544], "screen_name": "tpscalls", "text": "Unknown Trouble | Steeles Ave W &amp; Carpenter Rd [32 Div.] 07/31 04:45 #Newtonbrook #Toronto", "created_at": "Sun Jul 31 08:52:03 +0000 2016", "time": 1469955110.255742, "tid": 759672963792826368, "nei_num": "035"}}, {"geometry": {"type": "Point", "coordinates": [-79.44894923, 43.7888678]}, "type": "Feature", "id": 760069813750403072, "properties": {"loc": [-79.44894923, 43.7888678], "screen_name": "VncMnglmn", "text": "Goodmorning :) @ 25 Fisherville Building https://t.co/wQ6wbViafb", "created_at": "Mon Aug 01 11:08:59 +0000 2016", "time": 1470049726.360454, "tid": 760069813750403072, "nei_num": "035"}}, {"geometry": {"type": "Point", "coordinates": [-79.4631479, 43.7886094]}, "type": "Feature", "id": 760227870891450368, "properties": {"loc": [-79.4631479, 43.7886094], "screen_name": "tpscalls", "text": "See Ambulance | Finch Corridor Trl &amp; Steeles Ave W [31 Div.] 08/01 17:31 #Toronto", "created_at": "Mon Aug 01 21:37:03 +0000 2016", "time": 1470087410.027912, "tid": 760227870891450368, "nei_num": "035"}}, {"geometry": {"type": "Point", "coordinates": [-79.4475922, 43.7920544]}, "type": "Feature", "id": 760466958001270785, "properties": {"loc": [-79.4475922, 43.7920544], "screen_name": "tpscalls", "text": "Property Damage Collision | Steeles Ave W &amp; Carpenter Rd [32 Div.] 08/02 09:23 #Newtonbrook #Toronto", "created_at": "Tue Aug 02 13:27:06 +0000 2016", "time": 1470144412.663789, "tid": 760466958001270785, "nei_num": "035"}}, {"geometry": {"type": "Point", "coordinates": [-79.46481993, 43.78966123]}, "type": "Feature", "id": 760569558348464128, "properties": {"loc": [-79.46481993, 43.78966123], "screen_name": "Acadianite", "text": "I just finished walking 6.45 km in 3h:03m:39s with #Endomondo #endorphins https://t.co/NdOSBNtOsy", "created_at": "Tue Aug 02 20:14:48 +0000 2016", "time": 1470168874.505427, "tid": 760569558348464128, "nei_num": "035"}}, {"geometry": {"type": "Point", "coordinates": [-79.4471042, 43.7901958]}, "type": "Feature", "id": 761000207417049088, "properties": {"loc": [-79.4471042, 43.7901958], "screen_name": "tpscalls", "text": "Dispute | Dewlane Dr &amp; Carpenter Rd [32 Div.] 08/03 20:39 #Newtonbrook #Toronto", "created_at": "Thu Aug 04 00:46:02 +0000 2016", "time": 1470271548.8994, "tid": 761000207417049088, "nei_num": "035"}}, {"geometry": {"type": "Point", "coordinates": [-79.4475922, 43.7920544]}, "type": "Feature", "id": 761151200511295488, "properties": {"loc": [-79.4475922, 43.7920544], "screen_name": "tpscalls", "text": "Check Traffic Signals | Steeles Ave W &amp; Carpenter Rd [32 Div.] 08/04 06:41 #Newtonbrook #Toronto", "created_at": "Thu Aug 04 10:46:02 +0000 2016", "time": 1470307548.410692, "tid": 761151200511295488, "nei_num": "035"}}, {"geometry": {"type": "Point", "coordinates": [-79.4471042, 43.7901958]}, "type": "Feature", "id": 761300944348938241, "properties": {"loc": [-79.4471042, 43.7901958], "screen_name": "tofire", "text": "Rescue (Elevator) - Fisherville Road b/w Carpenter Road / Russfax Dr, North York (3 Trucks)", "created_at": "Thu Aug 04 20:41:04 +0000 2016", "time": 1470343250.017705, "tid": 761300944348938241, "nei_num": "035"}}, {"geometry": {"type": "Point", "coordinates": [-79.4471042, 43.7901958]}, "type": "Feature", "id": 761300945137467392, "properties": {"loc": [-79.4471042, 43.7901958], "screen_name": "tofireN", "text": "Rescue (Elevator) - Fisherville Road b/w Carpenter Road / Russfax Dr, North York (3 Trucks)", "created_at": "Thu Aug 04 20:41:04 +0000 2016", "time": 1470343250.269007, "tid": 761300945137467392, "nei_num": "035"}}, {"geometry": {"type": "Point", "coordinates": [-79.4577384, 43.79179127]}, "type": "Feature", "id": 761402049552642048, "properties": {"loc": [-79.4577384, 43.79179127], "screen_name": "daisyjiang", "text": "One more day until vineyards and sunshine! \ud83c\udf47\ud83c\udf47\ud83c\udf47 #weekendaway #winery #vineyard  #summersixteen @\u2026 https://t.co/sClZNY9oTD", "created_at": "Fri Aug 05 03:22:49 +0000 2016", "time": 1470367355.283972, "tid": 761402049552642048, "nei_num": "035"}}, {"geometry": {"type": "Point", "coordinates": [-79.4631479, 43.7886094]}, "type": "Feature", "id": 761679691463921664, "properties": {"loc": [-79.4631479, 43.7886094], "screen_name": "tpscalls", "text": "See Ambulance | Green Bush Rd &amp; Steeles Ave W [32 Div.] 08/05 17:39 #Toronto", "created_at": "Fri Aug 05 21:46:04 +0000 2016", "time": 1470433550.073554, "tid": 761679691463921664, "nei_num": "035"}}, {"geometry": {"type": "Point", "coordinates": [-79.4471042, 43.7901958]}, "type": "Feature", "id": 761731780042981376, "properties": {"loc": [-79.4471042, 43.7901958], "screen_name": "tpscalls", "text": "See Ambulance | Dewlane Dr &amp; Carpenter Rd [32 Div.] 08/05 21:06 #Newtonbrook #Toronto", "created_at": "Sat Aug 06 01:13:03 +0000 2016", "time": 1470445969.027699, "tid": 761731780042981376, "nei_num": "035"}}, {"geometry": {"type": "Point", "coordinates": [-79.44894923, 43.7888678]}, "type": "Feature", "id": 762006766389432320, "properties": {"loc": [-79.44894923, 43.7888678], "screen_name": "ajjayyyy", "text": "\ud83d\udc4d\ud83d\ude2e @ 25 Fisherville Building https://t.co/gDBpNS2wKE", "created_at": "Sat Aug 06 19:25:45 +0000 2016", "time": 1470511530.666391, "tid": 762006766389432320, "nei_num": "035"}}, {"geometry": {"type": "Point", "coordinates": [-79.4471042, 43.7901958]}, "type": "Feature", "id": 762077314494652416, "properties": {"loc": [-79.4471042, 43.7901958], "screen_name": "tpscalls", "text": "Holding One | Dewlane Dr &amp; Carpenter Rd [32 Div.] 08/06 20:01 #Newtonbrook #Toronto", "created_at": "Sun Aug 07 00:06:05 +0000 2016", "time": 1470528350.575754, "tid": 762077314494652416, "nei_num": "035"}}, {"geometry": {"type": "Point", "coordinates": [-79.4631479, 43.7886094]}, "type": "Feature", "id": 762404974064205824, "properties": {"loc": [-79.4631479, 43.7886094], "screen_name": "tpscalls", "text": "Animal Comp | Garyray Dr &amp; Steeles Ave W [31 Div.] 08/07 17:44 #Toronto", "created_at": "Sun Aug 07 21:48:05 +0000 2016", "time": 1470606470.488452, "tid": 762404974064205824, "nei_num": "035"}}, {"geometry": {"type": "Point", "coordinates": [-79.44894923, 43.7888678]}, "type": "Feature", "id": 762449515550904320, "properties": {"loc": [-79.44894923, 43.7888678], "screen_name": "VncMnglmn", "text": "Not good enough for the truth and cliche. \n\n#StandardTuning #ClassicalGuitar @ 25 Fisherville\u2026 https://t.co/BrLC4xPc5P", "created_at": "Mon Aug 08 00:45:04 +0000 2016", "time": 1470617089.940097, "tid": 762449515550904320, "nei_num": "035"}}, {"geometry": {"type": "Point", "coordinates": [-79.4631479, 43.7886094]}, "type": "Feature", "id": 762711498821165056, "properties": {"loc": [-79.4631479, 43.7886094], "screen_name": "tofire", "text": "Vehicle (Personal Injury) - Steeles Avenue b/w Hidden Trail / Don River West Branch, North York (2 Trucks)", "created_at": "Mon Aug 08 18:06:06 +0000 2016", "time": 1470679551.552761, "tid": 762711498821165056, "nei_num": "035"}}, {"geometry": {"type": "Point", "coordinates": [-79.4631479, 43.7886094]}, "type": "Feature", "id": 762711500419108864, "properties": {"loc": [-79.4631479, 43.7886094], "screen_name": "tofireN", "text": "Vehicle (Personal Injury) - Steeles Avenue b/w Hidden Trail / Don River West Branch, North York (2 Trucks)", "created_at": "Mon Aug 08 18:06:06 +0000 2016", "time": 1470679551.74794, "tid": 762711500419108864, "nei_num": "035"}}, {"geometry": {"type": "Point", "coordinates": [-79.45458951, 43.79092379]}, "type": "Feature", "id": 762782696485552128, "properties": {"loc": [-79.45458951, 43.79092379], "screen_name": "jessicafryy", "text": "Monday's are better spent on the beach \u2600\ufe0f\ud83d\ude0a @ Grand Bend Beach https://t.co/HtGnUF5URp", "created_at": "Mon Aug 08 22:49:01 +0000 2016", "time": 1470696526.280115, "tid": 762782696485552128, "nei_num": "035"}}, {"geometry": {"type": "Point", "coordinates": [-79.46456253, 43.79078466]}, "type": "Feature", "id": 762835190443941888, "properties": {"loc": [-79.46456253, 43.79078466], "screen_name": "Acadianite", "text": "I just finished running 7.39 km in 59m:18s with #Endomondo #endorphins https://t.co/zE5qVrgRyc", "created_at": "Tue Aug 09 02:17:36 +0000 2016", "time": 1470709041.767661, "tid": 762835190443941888, "nei_num": "035"}}, {"geometry": {"type": "Point", "coordinates": [-79.4471042, 43.7901958]}, "type": "Feature", "id": 762924640557797376, "properties": {"loc": [-79.4471042, 43.7901958], "screen_name": "tpscalls", "text": "Assault Just Occurred | Dewlane Dr &amp; Carpenter Rd [31 Div.] 08/09 04:08 #Newtonbrook #Toronto", "created_at": "Tue Aug 09 08:13:03 +0000 2016", "time": 1470730368.221051, "tid": 762924640557797376, "nei_num": "035"}}, {"geometry": {"type": "Point", "coordinates": [-79.4631479, 43.7886094]}, "type": "Feature", "id": 763082937092956160, "properties": {"loc": [-79.4631479, 43.7886094], "screen_name": "tpscalls", "text": "See Ambulance | Steeles Ave W &amp; Hidden Trl [32 Div.] 08/09 14:36 #Newtonbrook #Toronto", "created_at": "Tue Aug 09 18:42:04 +0000 2016", "time": 1470768108.958807, "tid": 763082937092956160, "nei_num": "035"}}, {"geometry": {"type": "Point", "coordinates": [-79.44940641, 43.7911713]}, "type": "Feature", "id": 763134552361631744, "properties": {"loc": [-79.44940641, 43.7911713], "screen_name": "johndiemer", "text": "work, work, work, work, work... @ Lissom Park https://t.co/zxxovaWBfT", "created_at": "Tue Aug 09 22:07:10 +0000 2016", "time": 1470780414.960227, "tid": 763134552361631744, "nei_num": "035"}}, {"geometry": {"type": "Point", "coordinates": [-79.4475922, 43.7920544]}, "type": "Feature", "id": 763562347751407616, "properties": {"loc": [-79.4475922, 43.7920544], "screen_name": "tpscalls", "text": "Unknown Trouble | Carpenter Rd &amp; Steeles Ave W [32 Div.] 08/10 22:21 #Newtonbrook #Toronto", "created_at": "Thu Aug 11 02:27:04 +0000 2016", "time": 1470882409.025445, "tid": 763562347751407616, "nei_num": "035"}}, {"geometry": {"type": "Point", "coordinates": [-79.4501844, 43.7903096]}, "type": "Feature", "id": 763910342799949824, "properties": {"loc": [-79.4501844, 43.7903096], "screen_name": "World_trading1", "text": "@CBCToronto let him rest in peace! https://t.co/UJdPCOheY8", "created_at": "Fri Aug 12 01:29:53 +0000 2016", "time": 1470965377.627728, "tid": 763910342799949824, "nei_num": "035"}}, {"geometry": {"type": "Point", "coordinates": [-79.4475922, 43.7920544]}, "type": "Feature", "id": 764094098361901056, "properties": {"loc": [-79.4475922, 43.7920544], "screen_name": "tpscalls", "text": "Fire | Steeles Ave W &amp; Carpenter Rd [32 Div.] 08/12 09:35 #Newtonbrook #Toronto", "created_at": "Fri Aug 12 13:40:03 +0000 2016", "time": 1471009187.980064, "tid": 764094098361901056, "nei_num": "035"}}, {"geometry": {"type": "Point", "coordinates": [-79.4631479, 43.7886094]}, "type": "Feature", "id": 764623333350576128, "properties": {"loc": [-79.4631479, 43.7886094], "screen_name": "tpscalls", "text": "Holding Lost Elderly | Hullmar Dr &amp; Steeles Ave W [31 Div.] 08/13 20:36 #Toronto", "created_at": "Sun Aug 14 00:43:03 +0000 2016", "time": 1471135367.058983, "tid": 764623333350576128, "nei_num": "035"}}, {"geometry": {"type": "Point", "coordinates": [-79.44900299, 43.78876979]}, "type": "Feature", "id": 764720926302896129, "properties": {"loc": [-79.44900299, 43.78876979], "screen_name": "VncMnglmn", "text": "Chill. #weekend #dayoff @ 25 Fisherville Building https://t.co/dwk5YXcrOW", "created_at": "Sun Aug 14 07:10:51 +0000 2016", "time": 1471158634.993946, "tid": 764720926302896129, "nei_num": "035"}}, {"geometry": {"type": "Point", "coordinates": [-79.4471042, 43.7901958]}, "type": "Feature", "id": 764781876838076416, "properties": {"loc": [-79.4471042, 43.7901958], "screen_name": "tpscalls", "text": "Assault | Dewlane Dr &amp; Carpenter Rd [32 Div.] 08/14 07:08 #Newtonbrook #Toronto", "created_at": "Sun Aug 14 11:13:03 +0000 2016", "time": 1471173166.792791, "tid": 764781876838076416, "nei_num": "035"}}, {"geometry": {"type": "Point", "coordinates": [-79.4631479, 43.7886094]}, "type": "Feature", "id": 764964583027113984, "properties": {"loc": [-79.4631479, 43.7886094], "screen_name": "tpscalls", "text": "Person Gone Berserk | Kipling Ave Bicycle Trl &amp; Steeles Ave W [23 Div.] 08/14 19:14 #Toronto", "created_at": "Sun Aug 14 23:19:03 +0000 2016", "time": 1471216727.072425, "tid": 764964583027113984, "nei_num": "035"}}, {"geometry": {"type": "Point", "coordinates": [-79.4475922, 43.7920544]}, "type": "Feature", "id": 765256762664558592, "properties": {"loc": [-79.4475922, 43.7920544], "screen_name": "tofire", "text": "Medical (Trouble Breathing) - Steeles Avenue b/w Carpenter Road / Torresdale Avenue, North York (2 Trucks)", "created_at": "Mon Aug 15 18:40:04 +0000 2016", "time": 1471286388.016872, "tid": 765256762664558592, "nei_num": "035"}}, {"geometry": {"type": "Point", "coordinates": [-79.4475922, 43.7920544]}, "type": "Feature", "id": 765256763495047168, "properties": {"loc": [-79.4475922, 43.7920544], "screen_name": "tofireN", "text": "Medical (Trouble Breathing) - Steeles Avenue b/w Carpenter Road / Torresdale Avenue, North York (2 Trucks)", "created_at": "Mon Aug 15 18:40:04 +0000 2016", "time": 1471286388.15387, "tid": 765256763495047168, "nei_num": "035"}}, {"geometry": {"type": "Point", "coordinates": [-79.46472086, 43.7898292]}, "type": "Feature", "id": 765386258159923200, "properties": {"loc": [-79.46472086, 43.7898292], "screen_name": "Acadianite", "text": "I just finished running 7.54 km in 59m:08s with #Endomondo #endorphins https://t.co/VN5oSgiHY5", "created_at": "Tue Aug 16 03:14:38 +0000 2016", "time": 1471317262.047849, "tid": 765386258159923200, "nei_num": "035"}}, {"geometry": {"type": "Point", "coordinates": [-79.4475922, 43.7920544]}, "type": "Feature", "id": 765598005856788480, "properties": {"loc": [-79.4475922, 43.7920544], "screen_name": "tpscalls", "text": "Property Damage Collision | Carpenter Rd &amp; Steeles Ave W [32 Div.] 08/16 13:11 #Newtonbrook #Toronto", "created_at": "Tue Aug 16 17:16:03 +0000 2016", "time": 1471367746.486936, "tid": 765598005856788480, "nei_num": "035"}}, {"geometry": {"type": "Point", "coordinates": [-79.4631479, 43.7886094]}, "type": "Feature", "id": 765680803418370050, "properties": {"loc": [-79.4631479, 43.7886094], "screen_name": "tpscalls", "text": "See Ambulance | The Chimneystack Rd &amp; Steeles Ave W [31 Div.] 08/16 18:39 #Toronto", "created_at": "Tue Aug 16 22:45:03 +0000 2016", "time": 1471387486.926108, "tid": 765680803418370050, "nei_num": "035"}}, {"geometry": {"type": "Point", "coordinates": [-79.4631479, 43.7886094]}, "type": "Feature", "id": 765736166117302272, "properties": {"loc": [-79.4631479, 43.7886094], "screen_name": "tpscalls", "text": "Property Damage Collision | Hullmar Dr &amp; Steeles Ave W [HP] 08/16 22:20 #Toronto", "created_at": "Wed Aug 17 02:25:03 +0000 2016", "time": 1471400686.631892, "tid": 765736166117302272, "nei_num": "035"}}, {"geometry": {"type": "Point", "coordinates": [-79.46471089, 43.7899437]}, "type": "Feature", "id": 765736046160179200, "properties": {"loc": [-79.46471089, 43.7899437], "screen_name": "Acadianite", "text": "I just finished walking 7.32 km in 59m:32s with #Endomondo #endorphins https://t.co/hpmZoh7BL4", "created_at": "Wed Aug 17 02:24:34 +0000 2016", "time": 1471400657.822747, "tid": 765736046160179200, "nei_num": "035"}}, {"geometry": {"type": "Point", "coordinates": [-79.4631479, 43.7886094]}, "type": "Feature", "id": 766338634433822720, "properties": {"loc": [-79.4631479, 43.7886094], "screen_name": "tpscalls", "text": "See Ambulance | Greenwin Village Rd &amp; Steeles Ave W [32 Div.] 08/18 14:13 #Toronto", "created_at": "Thu Aug 18 18:19:02 +0000 2016", "time": 1471544325.581992, "tid": 766338634433822720, "nei_num": "035"}}, {"geometry": {"type": "Point", "coordinates": [-79.4631479, 43.7886094]}, "type": "Feature", "id": 766823330645147648, "properties": {"loc": [-79.4631479, 43.7886094], "screen_name": "tpscalls", "text": "Fire | 400 Hwy N &amp; Steeles Ave W [31 Div.] 08/19 22:20 #Toronto", "created_at": "Sat Aug 20 02:25:03 +0000 2016", "time": 1471659886.001965, "tid": 766823330645147648, "nei_num": "035"}}, {"geometry": {"type": "Point", "coordinates": [-79.4475922, 43.7920544]}, "type": "Feature", "id": 767075244997836801, "properties": {"loc": [-79.4475922, 43.7920544], "screen_name": "tofire", "text": "Medical (Unconscious) - Steeles Avenue b/w Carpenter Road / Torresdale Avenue, North York (2 Trucks)", "created_at": "Sat Aug 20 19:06:04 +0000 2016", "time": 1471719946.831333, "tid": 767075244997836801, "nei_num": "035"}}, {"geometry": {"type": "Point", "coordinates": [-79.4475922, 43.7920544]}, "type": "Feature", "id": 767075245836689408, "properties": {"loc": [-79.4475922, 43.7920544], "screen_name": "tofireN", "text": "Medical (Unconscious) - Steeles Avenue b/w Carpenter Road / Torresdale Avenue, North York (2 Trucks)", "created_at": "Sat Aug 20 19:06:04 +0000 2016", "time": 1471719946.987112, "tid": 767075245836689408, "nei_num": "035"}}, {"geometry": {"type": "Point", "coordinates": [-79.4475922, 43.7920544]}, "type": "Feature", "id": 767099149636538369, "properties": {"loc": [-79.4475922, 43.7920544], "screen_name": "tofireN", "text": "Rescue (Elevator) - Steeles Avenue b/w Carpenter Road / Torresdale Avenue, North York (3 Trucks)", "created_at": "Sat Aug 20 20:41:03 +0000 2016", "time": 1471725646.084242, "tid": 767099149636538369, "nei_num": "035"}}, {"geometry": {"type": "Point", "coordinates": [-79.4475922, 43.7920544]}, "type": "Feature", "id": 767099148843778048, "properties": {"loc": [-79.4475922, 43.7920544], "screen_name": "tofire", "text": "Rescue (Elevator) - Steeles Avenue b/w Carpenter Road / Torresdale Avenue, North York (3 Trucks)", "created_at": "Sat Aug 20 20:41:03 +0000 2016", "time": 1471725645.867751, "tid": 767099148843778048, "nei_num": "035"}}, {"geometry": {"type": "Point", "coordinates": [-79.4631479, 43.7886094]}, "type": "Feature", "id": 767427305253789697, "properties": {"loc": [-79.4631479, 43.7886094], "screen_name": "tpscalls", "text": "Sound Of Gunshots | Hullmar Dr &amp; Steeles Ave W [31 Div.] 08/21 14:20 #Toronto", "created_at": "Sun Aug 21 18:25:02 +0000 2016", "time": 1471803884.245088, "tid": 767427305253789697, "nei_num": "035"}}, {"geometry": {"type": "Point", "coordinates": [-79.4471042, 43.7901958]}, "type": "Feature", "id": 767510354427600901, "properties": {"loc": [-79.4471042, 43.7901958], "screen_name": "tpscalls", "text": "Unknown Trouble | Dewlane Dr &amp; Carpenter Rd [32 Div.] 08/21 19:48 #Newtonbrook #Toronto", "created_at": "Sun Aug 21 23:55:02 +0000 2016", "time": 1471823684.686024, "tid": 767510354427600901, "nei_num": "035"}}, {"geometry": {"type": "Point", "coordinates": [-79.4631479, 43.7886094]}, "type": "Feature", "id": 767902951423766528, "properties": {"loc": [-79.4631479, 43.7886094], "screen_name": "tpscalls", "text": "Robbery | Kipling Ave Bicycle Trl &amp; Steeles Ave W [23 Div.] 08/22 21:50 #Toronto", "created_at": "Tue Aug 23 01:55:05 +0000 2016", "time": 1471917286.817098, "tid": 767902951423766528, "nei_num": "035"}}, {"geometry": {"type": "Point", "coordinates": [-79.4577384, 43.79179127]}, "type": "Feature", "id": 767928027275821057, "properties": {"loc": [-79.4577384, 43.79179127], "screen_name": "BOWLDI_INC", "text": "#Digital #Marketing #Agency &amp; #Business #Directory #Canada Add your business it's free!\u2026 https://t.co/yrr0T56RDL", "created_at": "Tue Aug 23 03:34:43 +0000 2016", "time": 1471923265.324407, "tid": 767928027275821057, "nei_num": "035"}}, {"geometry": {"type": "Point", "coordinates": [-79.4475922, 43.7920544]}, "type": "Feature", "id": 768904554423447552, "properties": {"loc": [-79.4475922, 43.7920544], "screen_name": "tofire", "text": "Medical (Trouble Breathing) - Steeles Avenue b/w Carpenter Road / Torresdale Avenue, North York (2 Trucks)", "created_at": "Thu Aug 25 20:15:05 +0000 2016", "time": 1472156087.024436, "tid": 768904554423447552, "nei_num": "035"}}, {"geometry": {"type": "Point", "coordinates": [-79.4475922, 43.7920544]}, "type": "Feature", "id": 768904555262251008, "properties": {"loc": [-79.4475922, 43.7920544], "screen_name": "tofireN", "text": "Medical (Trouble Breathing) - Steeles Avenue b/w Carpenter Road / Torresdale Avenue, North York (2 Trucks)", "created_at": "Thu Aug 25 20:15:06 +0000 2016", "time": 1472156094.055121, "tid": 768904555262251008, "nei_num": "035"}}, {"geometry": {"type": "Point", "coordinates": [-79.4471042, 43.7901958]}, "type": "Feature", "id": 769215606138802177, "properties": {"loc": [-79.4471042, 43.7901958], "screen_name": "tofire", "text": "Medical (Chest Pains) - Fisherville Road b/w Carpenter Road / Russfax Dr, North York (2 Trucks)", "created_at": "Fri Aug 26 16:51:06 +0000 2016", "time": 1472230247.185316, "tid": 769215606138802177, "nei_num": "035"}}, {"geometry": {"type": "Point", "coordinates": [-79.4471042, 43.7901958]}, "type": "Feature", "id": 769215607011176448, "properties": {"loc": [-79.4471042, 43.7901958], "screen_name": "tofireN", "text": "Medical (Chest Pains) - Fisherville Road b/w Carpenter Road / Russfax Dr, North York (2 Trucks)", "created_at": "Fri Aug 26 16:51:06 +0000 2016", "time": 1472230247.408925, "tid": 769215607011176448, "nei_num": "035"}}, {"geometry": {"type": "Point", "coordinates": [-79.4576474, 43.7897807]}, "type": "Feature", "id": 769304687774425089, "properties": {"loc": [-79.4576474, 43.7897807], "screen_name": "tofire", "text": "Vehicle (Personal Injury) - New Westminster Dr @ Steeles Avenue West, North York (2 Trucks)", "created_at": "Fri Aug 26 22:45:05 +0000 2016", "time": 1472251485.825908, "tid": 769304687774425089, "nei_num": "035"}}, {"geometry": {"type": "Point", "coordinates": [-79.4576474, 43.7897807]}, "type": "Feature", "id": 769304688663625728, "properties": {"loc": [-79.4576474, 43.7897807], "screen_name": "tofireN", "text": "Vehicle (Personal Injury) - New Westminster Dr @ Steeles Avenue West, North York (2 Trucks)", "created_at": "Fri Aug 26 22:45:05 +0000 2016", "time": 1472251486.054443, "tid": 769304688663625728, "nei_num": "035"}}, {"geometry": {"type": "Point", "coordinates": [-79.4576474, 43.7897807]}, "type": "Feature", "id": 769305938868264961, "properties": {"loc": [-79.4576474, 43.7897807], "screen_name": "tofire", "text": "UD: Vehicle (Personal Injury) - New Westminster Dr @ Steeles Avenue West, North York (3 Trucks)", "created_at": "Fri Aug 26 22:50:03 +0000 2016", "time": 1472251784.110654, "tid": 769305938868264961, "nei_num": "035"}}, {"geometry": {"type": "Point", "coordinates": [-79.4576474, 43.7897807]}, "type": "Feature", "id": 769305939795124224, "properties": {"loc": [-79.4576474, 43.7897807], "screen_name": "tofireN", "text": "UD: Vehicle (Personal Injury) - New Westminster Dr @ Steeles Avenue West, North York (3 Trucks)", "created_at": "Fri Aug 26 22:50:03 +0000 2016", "time": 1472251784.397525, "tid": 769305939795124224, "nei_num": "035"}}, {"geometry": {"type": "Point", "coordinates": [-79.4576474, 43.7897807]}, "type": "Feature", "id": 769310217964314625, "properties": {"loc": [-79.4576474, 43.7897807], "screen_name": "tpscalls", "text": "Personal Injury Collision | Steeles Ave W &amp; New Westminster [32 Div.] 08/26 19:02 #Newtonbrook #Toronto", "created_at": "Fri Aug 26 23:07:03 +0000 2016", "time": 1472252804.332428, "tid": 769310217964314625, "nei_num": "035"}}, {"geometry": {"type": "Point", "coordinates": [-79.4471042, 43.7901958]}, "type": "Feature", "id": 769313740605054976, "properties": {"loc": [-79.4471042, 43.7901958], "screen_name": "tpscalls", "text": "Unknown Trouble | Dewlane Dr &amp; Carpenter Rd [32 Div.] 08/26 19:17 #Newtonbrook #Toronto", "created_at": "Fri Aug 26 23:21:03 +0000 2016", "time": 1472253644.525756, "tid": 769313740605054976, "nei_num": "035"}}, {"geometry": {"type": "Point", "coordinates": [-79.4576474, 43.7897807]}, "type": "Feature", "id": 769314749016313861, "properties": {"loc": [-79.4576474, 43.7897807], "screen_name": "tpscalls", "text": "Personal Injury Collision | Steeles Ave W &amp; New Westminster [HP] 08/26 19:18 #Newtonbrook #Toronto", "created_at": "Fri Aug 26 23:25:03 +0000 2016", "time": 1472253884.616008, "tid": 769314749016313861, "nei_num": "035"}}, {"geometry": {"type": "Point", "coordinates": [-79.4471042, 43.7901958]}, "type": "Feature", "id": 769521611493998596, "properties": {"loc": [-79.4471042, 43.7901958], "screen_name": "tpscalls", "text": "See Ambulance | Dewlane Dr &amp; Carpenter Rd [32 Div.] 08/27 09:00 #Newtonbrook #Toronto", "created_at": "Sat Aug 27 13:07:03 +0000 2016", "time": 1472303204.337392, "tid": 769521611493998596, "nei_num": "035"}}, {"geometry": {"type": "Point", "coordinates": [-79.4631479, 43.7886094]}, "type": "Feature", "id": 769742573804122112, "properties": {"loc": [-79.4631479, 43.7886094], "screen_name": "tpscalls", "text": "Dispute | Kipling Ave Bicycle Trl &amp; Steeles Ave W [23 Div.] 08/27 23:40 #Toronto", "created_at": "Sun Aug 28 03:45:05 +0000 2016", "time": 1472355885.692035, "tid": 769742573804122112, "nei_num": "035"}}, {"geometry": {"type": "Point", "coordinates": [-79.4471042, 43.7901958]}, "type": "Feature", "id": 769855307409424384, "properties": {"loc": [-79.4471042, 43.7901958], "screen_name": "tpscalls", "text": "Unknown Trouble | Dewlane Dr &amp; Carpenter Rd [32 Div.] 08/28 07:07 #Newtonbrook #Toronto", "created_at": "Sun Aug 28 11:13:03 +0000 2016", "time": 1472382763.398099, "tid": 769855307409424384, "nei_num": "035"}}, {"geometry": {"type": "Point", "coordinates": [-79.4475922, 43.7920544]}, "type": "Feature", "id": 769958738308526080, "properties": {"loc": [-79.4475922, 43.7920544], "screen_name": "tpscalls", "text": "Hazard | Steeles Ave W &amp; Carpenter Rd [32 Div.] 08/28 13:59 #Newtonbrook #Toronto", "created_at": "Sun Aug 28 18:04:03 +0000 2016", "time": 1472407423.204163, "tid": 769958738308526080, "nei_num": "035"}}, {"geometry": {"type": "Point", "coordinates": [-79.4577384, 43.79179127]}, "type": "Feature", "id": 770111067720736768, "properties": {"loc": [-79.4577384, 43.79179127], "screen_name": "daisyjiang", "text": "Peller Estates gave us spectacular views and wines this weekend. Always forget that Niagara on\u2026 https://t.co/eiO5rNruHw", "created_at": "Mon Aug 29 04:09:21 +0000 2016", "time": 1472443741.384168, "tid": 770111067720736768, "nei_num": "035"}}, {"geometry": {"type": "Point", "coordinates": [-79.4631479, 43.7886094]}, "type": "Feature", "id": 770482442327224320, "properties": {"loc": [-79.4631479, 43.7886094], "screen_name": "tpscalls", "text": "Unknown Trouble | Hullmar Dr &amp; Steeles Ave W [31 Div.] 08/30 00:40 #Toronto", "created_at": "Tue Aug 30 04:45:03 +0000 2016", "time": 1472532283.604353, "tid": 770482442327224320, "nei_num": "035"}}, {"geometry": {"type": "Point", "coordinates": [-79.44758, 43.79207]}, "type": "Feature", "id": 770702041656287232, "properties": {"loc": [-79.44758, 43.79207], "screen_name": "SheenaQProteam", "text": "#ScalpMicroPigmentation is the perfect way to blend scars in with your hair. Another great job\u2026 https://t.co/drEd5zF1BI", "created_at": "Tue Aug 30 19:17:40 +0000 2016", "time": 1472584640.128867, "tid": 770702041656287232, "nei_num": "035"}}, {"geometry": {"type": "Point", "coordinates": [-79.44758, 43.79207]}, "type": "Feature", "id": 771081065859584001, "properties": {"loc": [-79.44758, 43.79207], "screen_name": "SheenaQProteam", "text": "Final day of our #August #Promo 1/2 priced PRP Packages. See why all the celebrities are raving\u2026 https://t.co/GWN2fKlnPx", "created_at": "Wed Aug 31 20:23:46 +0000 2016", "time": 1472675006.285662, "tid": 771081065859584001, "nei_num": "035"}}, {"geometry": {"type": "Point", "coordinates": [-79.4471042, 43.7901958]}, "type": "Feature", "id": 771119891407601666, "properties": {"loc": [-79.4471042, 43.7901958], "screen_name": "tpscalls", "text": "Assault | Dewlane Dr &amp; Carpenter Rd [32 Div.] 08/31 18:51 #Newtonbrook #Toronto", "created_at": "Wed Aug 31 22:58:03 +0000 2016", "time": 1472684263.00206, "tid": 771119891407601666, "nei_num": "035"}}, {"geometry": {"type": "Point", "coordinates": [-79.4631479, 43.7886094]}, "type": "Feature", "id": 771708523419955200, "properties": {"loc": [-79.4631479, 43.7886094], "screen_name": "tpscalls", "text": "Theft | Greenwin Village Rd &amp; Steeles Ave W [32 Div.] 09/02 09:53 #Toronto", "created_at": "Fri Sep 02 13:57:04 +0000 2016", "time": 1472824603.516107, "tid": 771708523419955200, "nei_num": "035"}}, {"geometry": {"type": "Point", "coordinates": [-79.4577384, 43.79179127]}, "type": "Feature", "id": 771855481581277184, "properties": {"loc": [-79.4577384, 43.79179127], "screen_name": "vitoriajanssen", "text": "Just posted a photo @ Niagara Falls &amp; Nigara on the Lake. https://t.co/vNw1VwosXP", "created_at": "Fri Sep 02 23:41:01 +0000 2016", "time": 1472859640.862298, "tid": 771855481581277184, "nei_num": "035"}}, {"geometry": {"type": "Point", "coordinates": [-79.45458951, 43.79092379]}, "type": "Feature", "id": 772265805471817728, "properties": {"loc": [-79.45458951, 43.79092379], "screen_name": "lavieestlibre", "text": "Last days of summer! \ud83d\ude0d\u2764\ud83c\udf1e\ud83c\udfd6 #GrandBendBeach @ Grand Bend Beach https://t.co/qkYktb8hNi", "created_at": "Sun Sep 04 02:51:30 +0000 2016", "time": 1472957469.631597, "tid": 772265805471817728, "nei_num": "035"}}, {"geometry": {"type": "Point", "coordinates": [-79.45458951, 43.79092379]}, "type": "Feature", "id": 772272822122983424, "properties": {"loc": [-79.45458951, 43.79092379], "screen_name": "lavieestlibre", "text": "Paint the sky, make it yours. \u2764 #GrandBendBeach #AnimeFilter @ Grand Bend Beach https://t.co/cnjMfPKDJ5", "created_at": "Sun Sep 04 03:19:23 +0000 2016", "time": 1472959142.390527, "tid": 772272822122983424, "nei_num": "035"}}, {"geometry": {"type": "Point", "coordinates": [-79.4471042, 43.7901958]}, "type": "Feature", "id": 772643431520886784, "properties": {"loc": [-79.4471042, 43.7901958], "screen_name": "tpscalls", "text": "Hazard | Dewlane Dr &amp; Carpenter Rd [32 Div.] 09/04 23:47 #Newtonbrook #Toronto", "created_at": "Mon Sep 05 03:52:03 +0000 2016", "time": 1473047502.314595, "tid": 772643431520886784, "nei_num": "035"}}]}