{"type": "FeatureCollection", "features": [{"geometry": {"type": "Point", "coordinates": [-79.32539552, 43.69004081]}, "type": "Feature", "id": 705077563232821248, "properties": {"loc": [-79.32539552, 43.69004081], "screen_name": "BarryTheBazman", "text": "I'm at @TorontoEast General Hospital in Toronto, ON https://t.co/8XhyT6UKg0", "created_at": "Wed Mar 02 17:09:25 +0000 2016", "time": 1456938565.652787, "tid": 705077563232821248, "nei_num": "058"}}, {"geometry": {"type": "Point", "coordinates": [-79.32801983, 43.69089146]}, "type": "Feature", "id": 705107840483069952, "properties": {"loc": [-79.32801983, 43.69089146], "screen_name": "BobRodkin", "text": "@jafarmirsalari All signed up my friend. The ball is rolling \ud83d\ude0a (@ Metro Licensing &amp; Standards in Toronto, ON) https://t.co/1xiiN9NLz2", "created_at": "Wed Mar 02 19:09:44 +0000 2016", "time": 1456945784.362941, "tid": 705107840483069952, "nei_num": "058"}}, {"geometry": {"type": "Point", "coordinates": [-79.329171, 43.6960615]}, "type": "Feature", "id": 705109710144348160, "properties": {"loc": [-79.329171, 43.6960615], "screen_name": "tmj_gta_hrta", "text": "#Hospitality #Job: Shift Supervisor (CA) at Starbucks https://t.co/8uWKCWo96o #Veterans #Jobs #Hiring #CareerArc", "created_at": "Wed Mar 02 19:17:09 +0000 2016", "time": 1456946230.110933, "tid": 705109710144348160, "nei_num": "058"}}, {"geometry": {"type": "Point", "coordinates": [-79.32600621, 43.68982824]}, "type": "Feature", "id": 705123074602090496, "properties": {"loc": [-79.32600621, 43.68982824], "screen_name": "BarryTheBazman", "text": "I'm at @TimHortons https://t.co/K6O4Waeulg", "created_at": "Wed Mar 02 20:10:16 +0000 2016", "time": 1456949416.465799, "tid": 705123074602090496, "nei_num": "058"}}, {"geometry": {"type": "Point", "coordinates": [-79.3278, 43.6913]}, "type": "Feature", "id": 705190786128863232, "properties": {"loc": [-79.3278, 43.6913], "screen_name": "lorettalouise", "text": "Unreasonably happy about this. @ East York https://t.co/5yvyd3eiI9", "created_at": "Thu Mar 03 00:39:19 +0000 2016", "time": 1456965560.178901, "tid": 705190786128863232, "nei_num": "058"}}, {"geometry": {"type": "Point", "coordinates": [-79.3416638, 43.6912006]}, "type": "Feature", "id": 705381689212559361, "properties": {"loc": [-79.3416638, 43.6912006], "screen_name": "tmj_ON_NURSING", "text": "We're #hiring! Read about our latest #job opening here: Registered Practical Nurse (9577) - https://t.co/aLLPsbhEL2 #EastYork, Ontario", "created_at": "Thu Mar 03 13:17:54 +0000 2016", "time": 1457011075.07781, "tid": 705381689212559361, "nei_num": "058"}}, {"geometry": {"type": "Point", "coordinates": [-79.32551, 43.69954]}, "type": "Feature", "id": 705475190382313472, "properties": {"loc": [-79.32551, 43.69954], "screen_name": "onawav_", "text": "She Just Wanna Fuck Wit A Nigga From The East Side\u00ae \n#onawav @ Toronto East End https://t.co/3nDiG88oak", "created_at": "Thu Mar 03 19:29:27 +0000 2016", "time": 1457033367.487895, "tid": 705475190382313472, "nei_num": "058"}}, {"geometry": {"type": "Point", "coordinates": [-79.3344912, 43.7028794]}, "type": "Feature", "id": 705518143033253890, "properties": {"loc": [-79.3344912, 43.7028794], "screen_name": "tofire", "text": "Rescue (Elevator) - Thorncliffe Park Dr b/w West Don River Trail / Overlea Boulevard, East York (2 Trucks)", "created_at": "Thu Mar 03 22:20:07 +0000 2016", "time": 1457043608.225877, "tid": 705518143033253890, "nei_num": "058"}}, {"geometry": {"type": "Point", "coordinates": [-79.3344912, 43.7028794]}, "type": "Feature", "id": 705518148305428480, "properties": {"loc": [-79.3344912, 43.7028794], "screen_name": "tofireS", "text": "Rescue (Elevator) - Thorncliffe Park Dr b/w West Don River Trail / Overlea Boulevard, East York (2 Trucks)", "created_at": "Thu Mar 03 22:20:09 +0000 2016", "time": 1457043609.463834, "tid": 705518148305428480, "nei_num": "058"}}, {"geometry": {"type": "Point", "coordinates": [-79.3344912, 43.7028794]}, "type": "Feature", "id": 705520651608657920, "properties": {"loc": [-79.3344912, 43.7028794], "screen_name": "tofire", "text": "UD: Rescue (Elevator) - Thorncliffe Park Dr b/w West Don River Trail / Overlea Boulevard, East York (3 Trucks)", "created_at": "Thu Mar 03 22:30:05 +0000 2016", "time": 1457044206.345508, "tid": 705520651608657920, "nei_num": "058"}}, {"geometry": {"type": "Point", "coordinates": [-79.3344912, 43.7028794]}, "type": "Feature", "id": 705520652875382784, "properties": {"loc": [-79.3344912, 43.7028794], "screen_name": "tofireS", "text": "UD: Rescue (Elevator) - Thorncliffe Park Dr b/w West Don River Trail / Overlea Boulevard, East York (3 Trucks)", "created_at": "Thu Mar 03 22:30:06 +0000 2016", "time": 1457044206.597585, "tid": 705520652875382784, "nei_num": "058"}}, {"geometry": {"type": "Point", "coordinates": [-79.3344912, 43.7028794]}, "type": "Feature", "id": 705544559787446273, "properties": {"loc": [-79.3344912, 43.7028794], "screen_name": "tofire", "text": "Rescue (Elevator) - Thorncliffe Park Dr b/w West Don River Trail / West Don River Trail, East York (2 Trucks)", "created_at": "Fri Mar 04 00:05:06 +0000 2016", "time": 1457049906.556058, "tid": 705544559787446273, "nei_num": "058"}}, {"geometry": {"type": "Point", "coordinates": [-79.3344912, 43.7028794]}, "type": "Feature", "id": 705544561062502402, "properties": {"loc": [-79.3344912, 43.7028794], "screen_name": "tofireS", "text": "Rescue (Elevator) - Thorncliffe Park Dr b/w West Don River Trail / West Don River Trail, East York (2 Trucks)", "created_at": "Fri Mar 04 00:05:06 +0000 2016", "time": 1457049906.809188, "tid": 705544561062502402, "nei_num": "058"}}, {"geometry": {"type": "Point", "coordinates": [-79.3344912, 43.7028794]}, "type": "Feature", "id": 705547325142339588, "properties": {"loc": [-79.3344912, 43.7028794], "screen_name": "tofireS", "text": "UD: Rescue (Elevator) - Thorncliffe Park Dr b/w West Don River Trail / West Don River Trail, East York (3 Trucks)", "created_at": "Fri Mar 04 00:16:05 +0000 2016", "time": 1457050565.754783, "tid": 705547325142339588, "nei_num": "058"}}, {"geometry": {"type": "Point", "coordinates": [-79.3344912, 43.7028794]}, "type": "Feature", "id": 705547324005740544, "properties": {"loc": [-79.3344912, 43.7028794], "screen_name": "tofire", "text": "UD: Rescue (Elevator) - Thorncliffe Park Dr b/w West Don River Trail / West Don River Trail, East York (3 Trucks)", "created_at": "Fri Mar 04 00:16:05 +0000 2016", "time": 1457050565.582759, "tid": 705547324005740544, "nei_num": "058"}}, {"geometry": {"type": "Point", "coordinates": [-79.34235784, 43.6937389]}, "type": "Feature", "id": 705552627023650818, "properties": {"loc": [-79.34235784, 43.6937389], "screen_name": "Bobgundu", "text": "Shot and edited by me on Red Dragon. #reddragon #fashion #spring #xenonff #shotwithschneider\u2026 https://t.co/ZRdyvCjhof", "created_at": "Fri Mar 04 00:37:09 +0000 2016", "time": 1457051829.950258, "tid": 705552627023650818, "nei_num": "058"}}, {"geometry": {"type": "Point", "coordinates": [-79.3344912, 43.7028794]}, "type": "Feature", "id": 705871717814706176, "properties": {"loc": [-79.3344912, 43.7028794], "screen_name": "tofire", "text": "Alarm Highrise Residential - Thorncliffe Park Dr b/w West Don River Trail / Overlea Boulevard, East York (2 Trucks)", "created_at": "Fri Mar 04 21:45:06 +0000 2016", "time": 1457127907.203045, "tid": 705871717814706176, "nei_num": "058"}}, {"geometry": {"type": "Point", "coordinates": [-79.3344912, 43.7028794]}, "type": "Feature", "id": 705871719060389888, "properties": {"loc": [-79.3344912, 43.7028794], "screen_name": "tofireS", "text": "Alarm Highrise Residential - Thorncliffe Park Dr b/w West Don River Trail / Overlea Boulevard, East York (2 Trucks)", "created_at": "Fri Mar 04 21:45:06 +0000 2016", "time": 1457127907.550436, "tid": 705871719060389888, "nei_num": "058"}}, {"geometry": {"type": "Point", "coordinates": [-79.3344912, 43.7028794]}, "type": "Feature", "id": 705874225102528514, "properties": {"loc": [-79.3344912, 43.7028794], "screen_name": "tofire", "text": "UD: Alarm Highrise Residential - Thorncliffe Park Dr b/w West Don River Trail / Overlea Boulevard, East York (6 Trucks)", "created_at": "Fri Mar 04 21:55:04 +0000 2016", "time": 1457128504.982284, "tid": 705874225102528514, "nei_num": "058"}}, {"geometry": {"type": "Point", "coordinates": [-79.3344912, 43.7028794]}, "type": "Feature", "id": 705874226331459587, "properties": {"loc": [-79.3344912, 43.7028794], "screen_name": "tofireS", "text": "UD: Alarm Highrise Residential - Thorncliffe Park Dr b/w West Don River Trail / Overlea Boulevard, East York (6 Trucks)", "created_at": "Fri Mar 04 21:55:04 +0000 2016", "time": 1457128505.275723, "tid": 705874226331459587, "nei_num": "058"}}, {"geometry": {"type": "Point", "coordinates": [-79.329171, 43.6960615]}, "type": "Feature", "id": 705880575278600192, "properties": {"loc": [-79.329171, 43.6960615], "screen_name": "tmj_gta_hrta", "text": "#Hospitality #Job in Barista (CA) at Starbucks https://t.co/R5s0Mnnk6k #Veterans #Jobs #Hiring #CareerArc", "created_at": "Fri Mar 04 22:20:18 +0000 2016", "time": 1457130018.99061, "tid": 705880575278600192, "nei_num": "058"}}, {"geometry": {"type": "Point", "coordinates": [-79.3491814, 43.6903736]}, "type": "Feature", "id": 705924567366242304, "properties": {"loc": [-79.3491814, 43.6903736], "screen_name": "tofire", "text": "Fire (Grass/rubbish) - Gamble Avenue b/w Pape Avenue / Todmorden Lane, East York (2 Trucks)", "created_at": "Sat Mar 05 01:15:06 +0000 2016", "time": 1457140507.512091, "tid": 705924567366242304, "nei_num": "058"}}, {"geometry": {"type": "Point", "coordinates": [-79.3491814, 43.6903736]}, "type": "Feature", "id": 705924568347709442, "properties": {"loc": [-79.3491814, 43.6903736], "screen_name": "tofireS", "text": "Fire (Grass/rubbish) - Gamble Avenue b/w Pape Avenue / Todmorden Lane, East York (2 Trucks)", "created_at": "Sat Mar 05 01:15:07 +0000 2016", "time": 1457140507.743535, "tid": 705924568347709442, "nei_num": "058"}}, {"geometry": {"type": "Point", "coordinates": [-79.3491814, 43.6903736]}, "type": "Feature", "id": 705924569325019136, "properties": {"loc": [-79.3491814, 43.6903736], "screen_name": "tofiref", "text": "Fire (Grass/rubbish) - Gamble Avenue b/w Pape Avenue / Todmorden Lane, East York (2 Trucks)", "created_at": "Sat Mar 05 01:15:07 +0000 2016", "time": 1457140507.945946, "tid": 705924569325019136, "nei_num": "058"}}, {"geometry": {"type": "Point", "coordinates": [-79.3428116, 43.6932907]}, "type": "Feature", "id": 706156755424813056, "properties": {"loc": [-79.3428116, 43.6932907], "screen_name": "Kyopo_Kitchen", "text": "Today!! Come on out #donlands We are at Fresh from the Farm for some east end spicy fun showing\u2026 https://t.co/d3D9Fu6wFR", "created_at": "Sat Mar 05 16:37:44 +0000 2016", "time": 1457195865.6558, "tid": 706156755424813056, "nei_num": "058"}}, {"geometry": {"type": "Point", "coordinates": [-79.3449097, 43.702961]}, "type": "Feature", "id": 706162274424233987, "properties": {"loc": [-79.3449097, 43.702961], "screen_name": "FaniK1975", "text": "March 5th.  First Saturday of the Souls. Miss you Dad. \ud83d\ude22 @ St\u2026 https://t.co/2qrisaBtKs", "created_at": "Sat Mar 05 16:59:40 +0000 2016", "time": 1457197181.477474, "tid": 706162274424233987, "nei_num": "058"}}, {"geometry": {"type": "Point", "coordinates": [-79.326552, 43.6905949]}, "type": "Feature", "id": 706180493574803457, "properties": {"loc": [-79.326552, 43.6905949], "screen_name": "tpscalls", "text": "Personal Injury Collision | Coxwell Ave &amp; Mortimer Ave [54 Div.] 03/05 13:06 https://t.co/XDBxIrDM0k #Toronto", "created_at": "Sat Mar 05 18:12:04 +0000 2016", "time": 1457201525.177863, "tid": 706180493574803457, "nei_num": "058"}}, {"geometry": {"type": "Point", "coordinates": [-79.3278, 43.6948]}, "type": "Feature", "id": 749977194894688256, "properties": {"loc": [-79.3278, 43.6948], "screen_name": "DJQUIFYD", "text": "What my Grade 12 year will be remembered by...and my locker. \ud83d\udd25\ud83d\udd25\ud83d\udc4c\ud83d\udc4c @\u2026 https://t.co/KgzqfBXW2k", "created_at": "Mon Jul 04 14:44:31 +0000 2016", "time": 1467643465.216732, "tid": 749977194894688256, "nei_num": "058"}}, {"geometry": {"type": "Point", "coordinates": [-79.3416681, 43.6911367]}, "type": "Feature", "id": 750020363199930368, "properties": {"loc": [-79.3416681, 43.6911367], "screen_name": "tpscalls", "text": "Personal Injury Collision | Cosburn Ave &amp; Donlands Ave [HP] 07/04 13:31 #Old_East_York #Toronto", "created_at": "Mon Jul 04 17:36:03 +0000 2016", "time": 1467653757.184678, "tid": 750020363199930368, "nei_num": "058"}}, {"geometry": {"type": "Point", "coordinates": [-79.3416681, 43.6911367]}, "type": "Feature", "id": 750026654295130112, "properties": {"loc": [-79.3416681, 43.6911367], "screen_name": "tpscalls", "text": "Personal Injury Collision | Cosburn Ave &amp; Donlands Ave [54 Div.] 07/04 13:54 #Old_East_York #Toronto", "created_at": "Mon Jul 04 18:01:03 +0000 2016", "time": 1467655257.104064, "tid": 750026654295130112, "nei_num": "058"}}, {"geometry": {"type": "Point", "coordinates": [-79.3292503, 43.695996]}, "type": "Feature", "id": 750032897403334656, "properties": {"loc": [-79.3292503, 43.695996], "screen_name": "tmj_gta_hrta", "text": "Can you recommend anyone for this #job? Barista (CA) - https://t.co/R5s0Mnnk6k #Hospitality #Veterans #Hiring #CareerArc", "created_at": "Mon Jul 04 18:25:52 +0000 2016", "time": 1467656745.613608, "tid": 750032897403334656, "nei_num": "058"}}, {"geometry": {"type": "Point", "coordinates": [-79.3283, 43.6912]}, "type": "Feature", "id": 750053633920819200, "properties": {"loc": [-79.3283, 43.6912], "screen_name": "denisepinto", "text": "(TLDR: Get outside and enjoy your local park! Love, John Tory.) @ East York Civic Centre https://t.co/VuLGZX6qzp", "created_at": "Mon Jul 04 19:48:16 +0000 2016", "time": 1467661689.57828, "tid": 750053633920819200, "nei_num": "058"}}, {"geometry": {"type": "Point", "coordinates": [-79.32941, 43.69688]}, "type": "Feature", "id": 750060709606748160, "properties": {"loc": [-79.32941, 43.69688], "screen_name": "VJandavs", "text": "Back on track after taking some time off to spend with family and friends. Rest and recovery is\u2026 https://t.co/PKdY8iCvhV", "created_at": "Mon Jul 04 20:16:23 +0000 2016", "time": 1467663376.518352, "tid": 750060709606748160, "nei_num": "058"}}, {"geometry": {"type": "Point", "coordinates": [-79.3278, 43.6913]}, "type": "Feature", "id": 750163617262149632, "properties": {"loc": [-79.3278, 43.6913], "screen_name": "curedgroves", "text": "Say it Maam. #4thofjuly #independenceday @ East York https://t.co/l3xhXPYhkg", "created_at": "Tue Jul 05 03:05:18 +0000 2016", "time": 1467687911.607188, "tid": 750163617262149632, "nei_num": "058"}}, {"geometry": {"type": "Point", "coordinates": [-79.3359031, 43.7016597]}, "type": "Feature", "id": 750309516084973568, "properties": {"loc": [-79.3359031, 43.7016597], "screen_name": "tpscalls", "text": "Property Damage Collision | Don Valley Parkway S &amp; Don Mills Rd [HP] 07/05 08:41 #Old_East_York #Toronto", "created_at": "Tue Jul 05 12:45:03 +0000 2016", "time": 1467722696.468217, "tid": 750309516084973568, "nei_num": "058"}}, {"geometry": {"type": "Point", "coordinates": [-79.3283, 43.6912]}, "type": "Feature", "id": 750388541419425792, "properties": {"loc": [-79.3283, 43.6912], "screen_name": "NewzFromTheSix", "text": "Esther and I were not made for the challenges of poverty. Lying in a park to escape the heat\u2026 https://t.co/mrDVJF6zv4", "created_at": "Tue Jul 05 17:59:04 +0000 2016", "time": 1467741537.537259, "tid": 750388541419425792, "nei_num": "058"}}, {"geometry": {"type": "Point", "coordinates": [-79.3294984, 43.6977108]}, "type": "Feature", "id": 751634502988988418, "properties": {"loc": [-79.3294984, 43.6977108], "screen_name": "tpscalls", "text": "Dispute | Coxwell Ave &amp; O\\'Connor Dr [54 Div.] 07/09 00:25 #Old_East_York #Toronto", "created_at": "Sat Jul 09 04:30:04 +0000 2016", "time": 1468038597.085048, "tid": 751634502988988418, "nei_num": "058"}}, {"geometry": {"type": "Point", "coordinates": [-79.3359031, 43.7016597]}, "type": "Feature", "id": 751693635754795008, "properties": {"loc": [-79.3359031, 43.7016597], "screen_name": "tpscalls", "text": "Property Damage Collision | Don Valley Parkway N &amp; Don Mills Rd [HP] 07/09 04:18 #Old_East_York #Toronto", "created_at": "Sat Jul 09 08:25:03 +0000 2016", "time": 1468052695.325834, "tid": 751693635754795008, "nei_num": "058"}}, {"geometry": {"type": "Point", "coordinates": [-79.3491814, 43.6903736]}, "type": "Feature", "id": 751790782001123329, "properties": {"loc": [-79.3491814, 43.6903736], "screen_name": "tpscalls", "text": "Found Property | Cosburn Ave &amp; Gamble Ave [54 Div.] 07/09 10:46 #Old_East_York #Toronto", "created_at": "Sat Jul 09 14:51:04 +0000 2016", "time": 1468075856.824899, "tid": 751790782001123329, "nei_num": "058"}}, {"geometry": {"type": "Point", "coordinates": [-79.3197964, 43.6925211]}, "type": "Feature", "id": 751797573812383744, "properties": {"loc": [-79.3197964, 43.6925211], "screen_name": "tpscalls", "text": "Found Property | Ln N Mortimer E Binswood &amp; Dunkirk Rd [54 Div.] 07/09 11:13 #Woodbine_Heights #Toronto", "created_at": "Sat Jul 09 15:18:03 +0000 2016", "time": 1468077476.030012, "tid": 751797573812383744, "nei_num": "058"}}, {"geometry": {"type": "Point", "coordinates": [-79.3426696, 43.690607]}, "type": "Feature", "id": 751811162543689728, "properties": {"loc": [-79.3426696, 43.690607], "screen_name": "tpscalls", "text": "Noise Complaint | Gowan Ave &amp; Cosburn Ave [54 Div.] 07/09 12:07 #Old_East_York #Toronto", "created_at": "Sat Jul 09 16:12:03 +0000 2016", "time": 1468080715.872121, "tid": 751811162543689728, "nei_num": "058"}}, {"geometry": {"type": "Point", "coordinates": [-79.3344912, 43.7028794]}, "type": "Feature", "id": 751858476155080704, "properties": {"loc": [-79.3344912, 43.7028794], "screen_name": "tofire", "text": "Alarm Highrise Residential - Thorncliffe Park Dr b/w West Don River Trail / Overlea Boulevard, East York (6 Trucks)", "created_at": "Sat Jul 09 19:20:04 +0000 2016", "time": 1468091996.236721, "tid": 751858476155080704, "nei_num": "058"}}, {"geometry": {"type": "Point", "coordinates": [-79.3344912, 43.7028794]}, "type": "Feature", "id": 751858476989747204, "properties": {"loc": [-79.3344912, 43.7028794], "screen_name": "tofireS", "text": "Alarm Highrise Residential - Thorncliffe Park Dr b/w West Don River Trail / Overlea Boulevard, East York (6 Trucks)", "created_at": "Sat Jul 09 19:20:04 +0000 2016", "time": 1468091996.477696, "tid": 751858476989747204, "nei_num": "058"}}, {"geometry": {"type": "Point", "coordinates": [-79.339626, 43.6955392]}, "type": "Feature", "id": 751860991651119104, "properties": {"loc": [-79.339626, 43.6955392], "screen_name": "tpscalls", "text": "Fail To Remain Personal Injury Collision | O\\'Connor Dr &amp; Don Mills Rd [HP] 07/09 15:26 #Old_East_York #Toronto", "created_at": "Sat Jul 09 19:30:03 +0000 2016", "time": 1468092595.971374, "tid": 751860991651119104, "nei_num": "058"}}, {"geometry": {"type": "Point", "coordinates": [-79.3416638, 43.6912006]}, "type": "Feature", "id": 751865036012871680, "properties": {"loc": [-79.3416638, 43.6912006], "screen_name": "tmj_gta_jobs", "text": "Want to work in #EastYork, ON? View our latest opening: https://t.co/DQ8CKpiLSG #Job #Veterans #Jobs #Hiring #CareerArc", "created_at": "Sat Jul 09 19:46:08 +0000 2016", "time": 1468093560.284835, "tid": 751865036012871680, "nei_num": "058"}}, {"geometry": {"type": "Point", "coordinates": [-79.3292504, 43.695996]}, "type": "Feature", "id": 751883265116561409, "properties": {"loc": [-79.3292504, 43.695996], "screen_name": "tmj_gta_hrta", "text": "We're #hiring! Read about our latest #job opening here: Shift Supervisor (CA) - https://t.co/8uWKCWo96o #Hospitality #Veterans #CareerArc", "created_at": "Sat Jul 09 20:58:34 +0000 2016", "time": 1468097906.477422, "tid": 751883265116561409, "nei_num": "058"}}, {"geometry": {"type": "Point", "coordinates": [-79.339626, 43.6955392]}, "type": "Feature", "id": 751957627911938049, "properties": {"loc": [-79.339626, 43.6955392], "screen_name": "tpscalls", "text": "Hazard | Don Mills Rd &amp; O\\'Connor Dr [54 Div.] 07/09 21:48 #Old_East_York #Toronto", "created_at": "Sun Jul 10 01:54:03 +0000 2016", "time": 1468115635.846472, "tid": 751957627911938049, "nei_num": "058"}}, {"geometry": {"type": "Point", "coordinates": [-79.3359031, 43.7016597]}, "type": "Feature", "id": 751973484243320832, "properties": {"loc": [-79.3359031, 43.7016597], "screen_name": "tpscalls", "text": "Impaired Driver | Don Valley Parkway S &amp; Don Mills Rd [HP] 07/09 22:53 #Old_East_York #Toronto", "created_at": "Sun Jul 10 02:57:04 +0000 2016", "time": 1468119416.238627, "tid": 751973484243320832, "nei_num": "058"}}, {"geometry": {"type": "Point", "coordinates": [-79.3298562, 43.6957824]}, "type": "Feature", "id": 752113903895707648, "properties": {"loc": [-79.3298562, 43.6957824], "screen_name": "tpscalls", "text": "Unknown Trouble | Plains Rd &amp; Ln S O Connor W Coxwell [54 Div.] 07/10 08:11 #Old_East_York #Toronto", "created_at": "Sun Jul 10 12:15:02 +0000 2016", "time": 1468152894.830617, "tid": 752113903895707648, "nei_num": "058"}}, {"geometry": {"type": "Point", "coordinates": [-79.3416638, 43.6912006]}, "type": "Feature", "id": 752123045058187264, "properties": {"loc": [-79.3416638, 43.6912006], "screen_name": "tmj_gta_jobs", "text": "See our latest #EastYork, ON #job and click to apply: barista - https://t.co/yEJCcDBPuL #Veterans #Hiring #CareerArc", "created_at": "Sun Jul 10 12:51:22 +0000 2016", "time": 1468155074.325397, "tid": 752123045058187264, "nei_num": "058"}}, {"geometry": {"type": "Point", "coordinates": [-79.3449097, 43.702961]}, "type": "Feature", "id": 752170683241730048, "properties": {"loc": [-79.3449097, 43.702961], "screen_name": "DeeDeeNewell", "text": "With my God-daughter &amp; family at Church today! @ St Demetrios Church https://t.co/JaouR7bjmy", "created_at": "Sun Jul 10 16:00:40 +0000 2016", "time": 1468166432.106032, "tid": 752170683241730048, "nei_num": "058"}}, {"geometry": {"type": "Point", "coordinates": [-79.3409799, 43.70300016]}, "type": "Feature", "id": 752215953765568512, "properties": {"loc": [-79.3409799, 43.70300016], "screen_name": "lukebilyk1", "text": "When lanedorsey tells you to stop and strike a pose... You stop and strike a pose! @ Los Angles,\u2026 https://t.co/xoukGSRUvE", "created_at": "Sun Jul 10 19:00:33 +0000 2016", "time": 1468177225.457675, "tid": 752215953765568512, "nei_num": "058"}}, {"geometry": {"type": "Point", "coordinates": [-79.3290899, 43.69608]}, "type": "Feature", "id": 752250492147765248, "properties": {"loc": [-79.3290899, 43.69608], "screen_name": "NewzFromTheSix", "text": "#Dinner #oreo #rumandraisin #cinnamon #icecream @ Lickadee Split Ice Cream Shoppe https://t.co/5AtvcOKvIG", "created_at": "Sun Jul 10 21:17:48 +0000 2016", "time": 1468185459.957754, "tid": 752250492147765248, "nei_num": "058"}}, {"geometry": {"type": "Point", "coordinates": [-79.3287748, 43.6959468]}, "type": "Feature", "id": 752288305690058752, "properties": {"loc": [-79.3287748, 43.6959468], "screen_name": "tpscalls", "text": "Dispute | Plains Rd &amp; Ln S O Connor W Coxwell [54 Div.] 07/10 19:43 #Old_East_York #Toronto", "created_at": "Sun Jul 10 23:48:03 +0000 2016", "time": 1468194475.371424, "tid": 752288305690058752, "nei_num": "058"}}, {"geometry": {"type": "Point", "coordinates": [-79.3491961, 43.6971729]}, "type": "Feature", "id": 752370604465090560, "properties": {"loc": [-79.3491961, 43.6971729], "screen_name": "tpscalls", "text": "Noise Complaint | Pape Ave &amp; Donlands Ave [54 Div.] 07/11 01:10 #Old_East_York #Toronto", "created_at": "Mon Jul 11 05:15:05 +0000 2016", "time": 1468214096.958574, "tid": 752370604465090560, "nei_num": "058"}}, {"geometry": {"type": "Point", "coordinates": [-79.34239, 43.69386]}, "type": "Feature", "id": 752509610615984129, "properties": {"loc": [-79.34239, 43.69386], "screen_name": "NicoleRaeDorsey", "text": "Dreamin bout space \ud83c\udf15 #arloalone @ Pie In The Sky Studios https://t.co/NuETmv9HV3", "created_at": "Mon Jul 11 14:27:26 +0000 2016", "time": 1468247238.465863, "tid": 752509610615984129, "nei_num": "058"}}, {"geometry": {"type": "Point", "coordinates": [-79.3292504, 43.695996]}, "type": "Feature", "id": 752511505246019584, "properties": {"loc": [-79.3292504, 43.695996], "screen_name": "tmj_gta_hrta", "text": "We're #hiring! Click to apply: Barista (CA) - https://t.co/R5s0Mnnk6k #Job #Hospitality #Veterans #Jobs #CareerArc", "created_at": "Mon Jul 11 14:34:58 +0000 2016", "time": 1468247690.167034, "tid": 752511505246019584, "nei_num": "058"}}, {"geometry": {"type": "Point", "coordinates": [-79.3416638, 43.6912006]}, "type": "Feature", "id": 752511676956553217, "properties": {"loc": [-79.3416638, 43.6912006], "screen_name": "tmj_gta_jobs", "text": "See our latest #EastYork, ON #job and click to apply: barista - https://t.co/xDyU3VWauG #Veterans #Hiring #CareerArc", "created_at": "Mon Jul 11 14:35:39 +0000 2016", "time": 1468247731.076799, "tid": 752511676956553217, "nei_num": "058"}}, {"geometry": {"type": "Point", "coordinates": [-79.3416638, 43.6912006]}, "type": "Feature", "id": 752565815602343936, "properties": {"loc": [-79.3416638, 43.6912006], "screen_name": "tmj_gta_jobs", "text": "See our latest #EastYork, ON #job and click to apply: shift supervisor - https://t.co/eGZCmHv5yR #Veterans #Hiring #CareerArc", "created_at": "Mon Jul 11 18:10:47 +0000 2016", "time": 1468260638.751278, "tid": 752565815602343936, "nei_num": "058"}}, {"geometry": {"type": "Point", "coordinates": [-79.3278, 43.6913]}, "type": "Feature", "id": 752613526250807296, "properties": {"loc": [-79.3278, 43.6913], "screen_name": "curedgroves", "text": "Bourbon Roasted Cherries. #cherries #ontario #ontariosfinest @ East\u2026 https://t.co/2LAG3NxY8w", "created_at": "Mon Jul 11 21:20:22 +0000 2016", "time": 1468272013.86753, "tid": 752613526250807296, "nei_num": "058"}}, {"geometry": {"type": "Point", "coordinates": [-79.3283192, 43.6921308]}, "type": "Feature", "id": 752656242238160896, "properties": {"loc": [-79.3283192, 43.6921308], "screen_name": "tofiref", "text": "Fire (Residential) - Lankin Boulevard b/w Memorial Park Avenue / Cosburn Avenue, East York (7 Trucks)", "created_at": "Tue Jul 12 00:10:06 +0000 2016", "time": 1468282198.073027, "tid": 752656242238160896, "nei_num": "058"}}, {"geometry": {"type": "Point", "coordinates": [-79.3283192, 43.6921308]}, "type": "Feature", "id": 752656240258453504, "properties": {"loc": [-79.3283192, 43.6921308], "screen_name": "tofire", "text": "Fire (Residential) - Lankin Boulevard b/w Memorial Park Avenue / Cosburn Avenue, East York (7 Trucks)", "created_at": "Tue Jul 12 00:10:06 +0000 2016", "time": 1468282197.678317, "tid": 752656240258453504, "nei_num": "058"}}, {"geometry": {"type": "Point", "coordinates": [-79.3283192, 43.6921308]}, "type": "Feature", "id": 752656241260896257, "properties": {"loc": [-79.3283192, 43.6921308], "screen_name": "tofireS", "text": "Fire (Residential) - Lankin Boulevard b/w Memorial Park Avenue / Cosburn Avenue, East York (7 Trucks)", "created_at": "Tue Jul 12 00:10:06 +0000 2016", "time": 1468282197.884462, "tid": 752656241260896257, "nei_num": "058"}}, {"geometry": {"type": "Point", "coordinates": [-79.3327025, 43.6931217]}, "type": "Feature", "id": 752658242153635841, "properties": {"loc": [-79.3327025, 43.6931217], "screen_name": "tpscalls", "text": "Fire | Memorial Park Ave &amp; Cosburn Ave [54 Div.] 07/11 20:14 #Old_East_York #Toronto", "created_at": "Tue Jul 12 00:18:03 +0000 2016", "time": 1468282674.90709, "tid": 752658242153635841, "nei_num": "058"}}, {"geometry": {"type": "Point", "coordinates": [-79.3278, 43.6913]}, "type": "Feature", "id": 752659200350810112, "properties": {"loc": [-79.3278, 43.6913], "screen_name": "lorettalouise", "text": "Howcome everyone has their A/C on? It's *really* nice outside. @ East York https://t.co/yDk4OuLDcc", "created_at": "Tue Jul 12 00:21:51 +0000 2016", "time": 1468282903.400185, "tid": 752659200350810112, "nei_num": "058"}}, {"geometry": {"type": "Point", "coordinates": [-79.3278, 43.6913]}, "type": "Feature", "id": 752663786948005888, "properties": {"loc": [-79.3278, 43.6913], "screen_name": "lorettalouise", "text": "Just to recap: blankie time! @ East York https://t.co/QLgi7qBKeN", "created_at": "Tue Jul 12 00:40:05 +0000 2016", "time": 1468283996.977308, "tid": 752663786948005888, "nei_num": "058"}}, {"geometry": {"type": "Point", "coordinates": [-79.3406558, 43.6914087]}, "type": "Feature", "id": 752721662152417280, "properties": {"loc": [-79.3406558, 43.6914087], "screen_name": "tpscalls", "text": "Noise Complaint | Lesmount Ave &amp; Cosburn Ave [54 Div.] 07/12 00:24 #Old_East_York #Toronto", "created_at": "Tue Jul 12 04:30:03 +0000 2016", "time": 1468297795.377847, "tid": 752721662152417280, "nei_num": "058"}}, {"geometry": {"type": "Point", "coordinates": [-79.3416638, 43.6912006]}, "type": "Feature", "id": 752898816219582464, "properties": {"loc": [-79.3416638, 43.6912006], "screen_name": "tmj_gta_jobs", "text": "Can you recommend anyone for this #job? shift supervisor - https://t.co/iwYn65CcJv #EastYork, ON #Veterans #Hiring #CareerArc", "created_at": "Tue Jul 12 16:14:00 +0000 2016", "time": 1468340032.047464, "tid": 752898816219582464, "nei_num": "058"}}, {"geometry": {"type": "Point", "coordinates": [-79.3283, 43.6912]}, "type": "Feature", "id": 752902588530511877, "properties": {"loc": [-79.3283, 43.6912], "screen_name": "aronharris", "text": "Today at the farmers market, @catmazhar asked me if I took a photo of the zucchini flowers.\u2026 https://t.co/DR0ovLmuQC", "created_at": "Tue Jul 12 16:29:00 +0000 2016", "time": 1468340931.429749, "tid": 752902588530511877, "nei_num": "058"}}, {"geometry": {"type": "Point", "coordinates": [-79.3426696, 43.690607]}, "type": "Feature", "id": 752907387409952768, "properties": {"loc": [-79.3426696, 43.690607], "screen_name": "tpscalls", "text": "Personal Injury Collision | Gowan Ave &amp; Cosburn Ave [54 Div.] 07/12 12:42 #Old_East_York #Toronto", "created_at": "Tue Jul 12 16:48:04 +0000 2016", "time": 1468342075.596071, "tid": 752907387409952768, "nei_num": "058"}}, {"geometry": {"type": "Point", "coordinates": [-79.3426696, 43.690607]}, "type": "Feature", "id": 752908893341220868, "properties": {"loc": [-79.3426696, 43.690607], "screen_name": "tpscalls", "text": "Personal Injury Collision | Gowan Ave &amp; Cosburn Ave [HP] 07/12 12:48 #Old_East_York #Toronto", "created_at": "Tue Jul 12 16:54:03 +0000 2016", "time": 1468342434.642404, "tid": 752908893341220868, "nei_num": "058"}}, {"geometry": {"type": "Point", "coordinates": [-79.3489955, 43.6898825]}, "type": "Feature", "id": 752920974887096320, "properties": {"loc": [-79.3489955, 43.6898825], "screen_name": "tpscalls", "text": "Missing Vulnerable Person | Broadview Ave &amp; Ellerbeck St [55 Div.] 07/12 13:36 #Old_East_York #Toronto", "created_at": "Tue Jul 12 17:42:03 +0000 2016", "time": 1468345315.091675, "tid": 752920974887096320, "nei_num": "058"}}, {"geometry": {"type": "Point", "coordinates": [-79.3278, 43.6913]}, "type": "Feature", "id": 752929349410574336, "properties": {"loc": [-79.3278, 43.6913], "screen_name": "curedgroves", "text": "Bourbon Roasted Cherry Ice Cream. #cherries #ontario #ontariosfinest\u2026 https://t.co/6ac9A4alJX", "created_at": "Tue Jul 12 18:15:20 +0000 2016", "time": 1468347311.697242, "tid": 752929349410574336, "nei_num": "058"}}, {"geometry": {"type": "Point", "coordinates": [-79.34239, 43.69386]}, "type": "Feature", "id": 752933083318321154, "properties": {"loc": [-79.34239, 43.69386], "screen_name": "NicoleRaeDorsey", "text": "\u2728 Wrapped and truly blessed \ud83d\udc7c \u2728 #arloalone @ Pie In The Sky Studios https://t.co/v1RPXW1jUT", "created_at": "Tue Jul 12 18:30:10 +0000 2016", "time": 1468348201.96546, "tid": 752933083318321154, "nei_num": "058"}}, {"geometry": {"type": "Point", "coordinates": [-79.3193794, 43.6979455]}, "type": "Feature", "id": 752940610718408706, "properties": {"loc": [-79.3193794, 43.6979455], "screen_name": "tpscalls", "text": "Dispute | Woodmount Ave &amp; Rednor Rd [54 Div.] 07/12 14:54 #Old_East_York #Toronto", "created_at": "Tue Jul 12 19:00:05 +0000 2016", "time": 1468349996.667899, "tid": 752940610718408706, "nei_num": "058"}}, {"geometry": {"type": "Point", "coordinates": [-79.3474863, 43.6984421]}, "type": "Feature", "id": 752984392860069888, "properties": {"loc": [-79.3474863, 43.6984421], "screen_name": "tpscalls", "text": "See Ambulance | Wynford Dr &amp; East Don River Trl [33 Div.] 07/12 17:50 #Toronto", "created_at": "Tue Jul 12 21:54:03 +0000 2016", "time": 1468360435.12992, "tid": 752984392860069888, "nei_num": "058"}}, {"geometry": {"type": "Point", "coordinates": [-79.3457454, 43.6910485]}, "type": "Feature", "id": 753086318025011201, "properties": {"loc": [-79.3457454, 43.6910485], "screen_name": "tpscalls", "text": "Disorderlies | Pape Ave &amp; Todmorden Lane [54 Div.] 07/13 00:35 #Old_East_York #Toronto", "created_at": "Wed Jul 13 04:39:04 +0000 2016", "time": 1468384735.802946, "tid": 753086318025011201, "nei_num": "058"}}, {"geometry": {"type": "Point", "coordinates": [-79.34310399, 43.69779294]}, "type": "Feature", "id": 753284798492340225, "properties": {"loc": [-79.34310399, 43.69779294], "screen_name": "allanbee75", "text": "I believe a pair of them have taken up in nearby valley trees. I just missed two great photo ops\u2026 https://t.co/tOsJYQvkqO", "created_at": "Wed Jul 13 17:47:45 +0000 2016", "time": 1468432057.13198, "tid": 753284798492340225, "nei_num": "058"}}, {"geometry": {"type": "Point", "coordinates": [-79.3215863, 43.6939687]}, "type": "Feature", "id": 753300487072522240, "properties": {"loc": [-79.3215863, 43.6939687], "screen_name": "tofire", "text": "Medical (Check Call) - Holborne Avenue b/w Glebemount Avenue / Woodmount Avenue, East York (2 Trucks)", "created_at": "Wed Jul 13 18:50:06 +0000 2016", "time": 1468435797.553404, "tid": 753300487072522240, "nei_num": "058"}}, {"geometry": {"type": "Point", "coordinates": [-79.3215863, 43.6939687]}, "type": "Feature", "id": 753300487978483713, "properties": {"loc": [-79.3215863, 43.6939687], "screen_name": "tofireE", "text": "Medical (Check Call) - Holborne Avenue b/w Glebemount Avenue / Woodmount Avenue, East York (2 Trucks)", "created_at": "Wed Jul 13 18:50:06 +0000 2016", "time": 1468435797.764511, "tid": 753300487978483713, "nei_num": "058"}}, {"geometry": {"type": "Point", "coordinates": [-79.3210196, 43.6922555]}, "type": "Feature", "id": 753313562190311424, "properties": {"loc": [-79.3210196, 43.6922555], "screen_name": "tpscalls", "text": "Assault | Glebemount Ave &amp; Dunkirk Rd [54 Div.] 07/13 15:38 #Old_East_York #Toronto", "created_at": "Wed Jul 13 19:42:03 +0000 2016", "time": 1468438914.917885, "tid": 753313562190311424, "nei_num": "058"}}, {"geometry": {"type": "Point", "coordinates": [-79.3416638, 43.6912006]}, "type": "Feature", "id": 753401148606820352, "properties": {"loc": [-79.3416638, 43.6912006], "screen_name": "rentboard", "text": "East York Apartments for rent on RentBoard.ca https://t.co/fYZIdFP98K", "created_at": "Thu Jul 14 01:30:06 +0000 2016", "time": 1468459797.123082, "tid": 753401148606820352, "nei_num": "058"}}, {"geometry": {"type": "Point", "coordinates": [-79.3495432, 43.6913372]}, "type": "Feature", "id": 753408690204635136, "properties": {"loc": [-79.3495432, 43.6913372], "screen_name": "tpscalls", "text": "Personal Injury Collision | Gamble Ave &amp; Torrens Ave [54 Div.] 07/13 21:56 #Old_East_York #Toronto", "created_at": "Thu Jul 14 02:00:04 +0000 2016", "time": 1468461595.116333, "tid": 753408690204635136, "nei_num": "058"}}, {"geometry": {"type": "Point", "coordinates": [-79.3495432, 43.6913372]}, "type": "Feature", "id": 753413219696402432, "properties": {"loc": [-79.3495432, 43.6913372], "screen_name": "tpscalls", "text": "Personal Injury Collision | Gamble Ave &amp; Torrens Ave [HP] 07/13 22:13 #Old_East_York #Toronto", "created_at": "Thu Jul 14 02:18:03 +0000 2016", "time": 1468462675.006945, "tid": 753413219696402432, "nei_num": "058"}}, {"geometry": {"type": "Point", "coordinates": [-79.3416681, 43.6911367]}, "type": "Feature", "id": 753550871435284480, "properties": {"loc": [-79.3416681, 43.6911367], "screen_name": "tpscalls", "text": "Hazard | Cosburn Ave &amp; Donlands Ave [54 Div.] 07/14 07:19 #Pape_Village #Toronto", "created_at": "Thu Jul 14 11:25:02 +0000 2016", "time": 1468495493.690366, "tid": 753550871435284480, "nei_num": "058"}}, {"geometry": {"type": "Point", "coordinates": [-79.3318744, 43.696454]}, "type": "Feature", "id": 753622344132943872, "properties": {"loc": [-79.3318744, 43.696454], "screen_name": "tpscalls", "text": "See Ambulance | Plains Rd &amp; Judith Dr [54 Div.] 07/14 12:05 #Old_East_York #Toronto", "created_at": "Thu Jul 14 16:09:03 +0000 2016", "time": 1468512534.073121, "tid": 753622344132943872, "nei_num": "058"}}, {"geometry": {"type": "Point", "coordinates": [-79.3416638, 43.6912006]}, "type": "Feature", "id": 753635448648376320, "properties": {"loc": [-79.3416638, 43.6912006], "screen_name": "tmj_gta_jobs", "text": "Join the Starbucks team! See our latest #job opening here: https://t.co/fc0YGUvpO4 #EastYork, ON #Veterans #Hiring #CareerArc", "created_at": "Thu Jul 14 17:01:07 +0000 2016", "time": 1468515668.049666, "tid": 753635448648376320, "nei_num": "058"}}, {"geometry": {"type": "Point", "coordinates": [-79.3344912, 43.7028794]}, "type": "Feature", "id": 753644245051961344, "properties": {"loc": [-79.3344912, 43.7028794], "screen_name": "tofire", "text": "Medical (Other) - Thorncliffe Park Dr b/w West Don River Trail / West Don River Trail, East York (2 Trucks)", "created_at": "Thu Jul 14 17:36:04 +0000 2016", "time": 1468517755.632184, "tid": 753644245051961344, "nei_num": "058"}}, {"geometry": {"type": "Point", "coordinates": [-79.3344912, 43.7028794]}, "type": "Feature", "id": 753644246025003009, "properties": {"loc": [-79.3344912, 43.7028794], "screen_name": "tofireS", "text": "Medical (Other) - Thorncliffe Park Dr b/w West Don River Trail / West Don River Trail, East York (2 Trucks)", "created_at": "Thu Jul 14 17:36:04 +0000 2016", "time": 1468517755.789869, "tid": 753644246025003009, "nei_num": "058"}}, {"geometry": {"type": "Point", "coordinates": [-79.3344912, 43.7028794]}, "type": "Feature", "id": 753645247759060992, "properties": {"loc": [-79.3344912, 43.7028794], "screen_name": "tofire", "text": "UD: Medical (Child/infant) - Thorncliffe Park Dr b/w West Don River Trail / West Don River Trail, East York (2 Trucks)", "created_at": "Thu Jul 14 17:40:03 +0000 2016", "time": 1468517994.708299, "tid": 753645247759060992, "nei_num": "058"}}, {"geometry": {"type": "Point", "coordinates": [-79.3344912, 43.7028794]}, "type": "Feature", "id": 753645248778305536, "properties": {"loc": [-79.3344912, 43.7028794], "screen_name": "tofireS", "text": "UD: Medical (Child/infant) - Thorncliffe Park Dr b/w West Don River Trail / West Don River Trail, East York (2 Trucks)", "created_at": "Thu Jul 14 17:40:04 +0000 2016", "time": 1468517995.037106, "tid": 753645248778305536, "nei_num": "058"}}, {"geometry": {"type": "Point", "coordinates": [-79.3213815, 43.694779]}, "type": "Feature", "id": 753653049952968704, "properties": {"loc": [-79.3213815, 43.694779], "screen_name": "tofire", "text": "Alarm Residential - Virginia Avenue b/w Glebemount Avenue / Woodmount Avenue, East York (6 Trucks)", "created_at": "Thu Jul 14 18:11:03 +0000 2016", "time": 1468519854.93707, "tid": 753653049952968704, "nei_num": "058"}}, {"geometry": {"type": "Point", "coordinates": [-79.3213815, 43.694779]}, "type": "Feature", "id": 753653050812891136, "properties": {"loc": [-79.3213815, 43.694779], "screen_name": "tofireE", "text": "Alarm Residential - Virginia Avenue b/w Glebemount Avenue / Woodmount Avenue, East York (6 Trucks)", "created_at": "Thu Jul 14 18:11:04 +0000 2016", "time": 1468519855.210822, "tid": 753653050812891136, "nei_num": "058"}}, {"geometry": {"type": "Point", "coordinates": [-79.3215863, 43.6939687]}, "type": "Feature", "id": 753655564522094592, "properties": {"loc": [-79.3215863, 43.6939687], "screen_name": "tofire", "text": "UD: Alarm Residential - Holborne Avenue b/w Glebemount Avenue / Woodmount Avenue, East York (6 Trucks)", "created_at": "Thu Jul 14 18:21:03 +0000 2016", "time": 1468520454.373553, "tid": 753655564522094592, "nei_num": "058"}}, {"geometry": {"type": "Point", "coordinates": [-79.3215863, 43.6939687]}, "type": "Feature", "id": 753655565570760704, "properties": {"loc": [-79.3215863, 43.6939687], "screen_name": "tofireE", "text": "UD: Alarm Residential - Holborne Avenue b/w Glebemount Avenue / Woodmount Avenue, East York (6 Trucks)", "created_at": "Thu Jul 14 18:21:03 +0000 2016", "time": 1468520454.598615, "tid": 753655565570760704, "nei_num": "058"}}, {"geometry": {"type": "Point", "coordinates": [-79.32985604, 43.69741728]}, "type": "Feature", "id": 753690379443142656, "properties": {"loc": [-79.32985604, 43.69741728], "screen_name": "BarryTheBazman", "text": "I'm at Shell in East York, Ontario https://t.co/fEHxl3CF1N", "created_at": "Thu Jul 14 20:39:24 +0000 2016", "time": 1468528754.959152, "tid": 753690379443142656, "nei_num": "058"}}, {"geometry": {"type": "Point", "coordinates": [-79.3474863, 43.6984421]}, "type": "Feature", "id": 753713196767277056, "properties": {"loc": [-79.3474863, 43.6984421], "screen_name": "tofire", "text": "Medical (Vsa) - Don Mills Road b/w West Don River Trail / Overlea Boulevard, East York (2 Trucks)", "created_at": "Thu Jul 14 22:10:04 +0000 2016", "time": 1468534194.911208, "tid": 753713196767277056, "nei_num": "058"}}, {"geometry": {"type": "Point", "coordinates": [-79.3474863, 43.6984421]}, "type": "Feature", "id": 753713197748813824, "properties": {"loc": [-79.3474863, 43.6984421], "screen_name": "tofireS", "text": "Medical (Vsa) - Don Mills Road b/w West Don River Trail / Overlea Boulevard, East York (2 Trucks)", "created_at": "Thu Jul 14 22:10:04 +0000 2016", "time": 1468534195.140218, "tid": 753713197748813824, "nei_num": "058"}}, {"geometry": {"type": "Point", "coordinates": [-79.3416638, 43.6912006]}, "type": "Feature", "id": 753942665033490432, "properties": {"loc": [-79.3416638, 43.6912006], "screen_name": "tmj_gta_jobs", "text": "See our latest #EastYork, ON #job and click to apply: shift supervisor - https://t.co/T6hqR2Z86n #Veterans #Hiring #CareerArc", "created_at": "Fri Jul 15 13:21:53 +0000 2016", "time": 1468588904.29031, "tid": 753942665033490432, "nei_num": "058"}}, {"geometry": {"type": "Point", "coordinates": [-79.3416638, 43.6912006]}, "type": "Feature", "id": 753958075430637570, "properties": {"loc": [-79.3416638, 43.6912006], "screen_name": "tmj_gta_jobs", "text": "Can you recommend anyone for this #job? barista - https://t.co/9MsMohVSeh #EastYork, ON #Veterans #Hiring #CareerArc", "created_at": "Fri Jul 15 14:23:07 +0000 2016", "time": 1468592578.628162, "tid": 753958075430637570, "nei_num": "058"}}, {"geometry": {"type": "Point", "coordinates": [-79.34239, 43.69386]}, "type": "Feature", "id": 753969494675034112, "properties": {"loc": [-79.34239, 43.69386], "screen_name": "mnbaq", "text": "Aujourd'hui, une \u00e9quipe du #mnbaq est en tournage \u00e0 Toronto. \u00c0 suivre... \ud83d\ude09 #studio #entrevues @\u2026 https://t.co/XTvbDPu28I", "created_at": "Fri Jul 15 15:08:30 +0000 2016", "time": 1468595301.060724, "tid": 753969494675034112, "nei_num": "058"}}, {"geometry": {"type": "Point", "coordinates": [-79.3457454, 43.6910485]}, "type": "Feature", "id": 753993037731233796, "properties": {"loc": [-79.3457454, 43.6910485], "screen_name": "tpscalls", "text": "Assault | Pape Ave &amp; Todmorden Lane [54 Div.] 07/15 12:36 #Old_East_York #Toronto", "created_at": "Fri Jul 15 16:42:03 +0000 2016", "time": 1468600914.0772, "tid": 753993037731233796, "nei_num": "058"}}, {"geometry": {"type": "Point", "coordinates": [-79.3420879, 43.7033155]}, "type": "Feature", "id": 754052638295986176, "properties": {"loc": [-79.3420879, 43.7033155], "screen_name": "Scanman73", "text": "Toronto 8 lap tires. #hondaindy #nps #nascar #kevinlacroix @ Honda Indy https://t.co/7bNkHC29e7", "created_at": "Fri Jul 15 20:38:53 +0000 2016", "time": 1468615123.90078, "tid": 754052638295986176, "nei_num": "058"}}, {"geometry": {"type": "Point", "coordinates": [-79.3292504, 43.695996]}, "type": "Feature", "id": 754068205824376832, "properties": {"loc": [-79.3292504, 43.695996], "screen_name": "tmj_gta_hrta", "text": "See our latest #job and click to apply: Shift Supervisor (CA) - https://t.co/8uWKCWo96o #Hospitality #Veterans #Hiring #CareerArc", "created_at": "Fri Jul 15 21:40:44 +0000 2016", "time": 1468618835.438482, "tid": 754068205824376832, "nei_num": "058"}}, {"geometry": {"type": "Point", "coordinates": [-79.3416638, 43.6912006]}, "type": "Feature", "id": 754125921230000128, "properties": {"loc": [-79.3416638, 43.6912006], "screen_name": "rentboard", "text": "East York Apartments for rent on RentBoard.ca https://t.co/fYZIdFP98K", "created_at": "Sat Jul 16 01:30:05 +0000 2016", "time": 1468632595.84518, "tid": 754125921230000128, "nei_num": "058"}}, {"geometry": {"type": "Point", "coordinates": [-79.3491814, 43.6903736]}, "type": "Feature", "id": 754159136036749312, "properties": {"loc": [-79.3491814, 43.6903736], "screen_name": "tpscalls", "text": "Dispute | Cosburn Ave &amp; Gamble Ave [54 Div.] 07/15 23:38 #Old_East_York #Toronto", "created_at": "Sat Jul 16 03:42:04 +0000 2016", "time": 1468640514.919882, "tid": 754159136036749312, "nei_num": "058"}}, {"geometry": {"type": "Point", "coordinates": [-79.3278, 43.6913]}, "type": "Feature", "id": 754296966788493312, "properties": {"loc": [-79.3278, 43.6913], "screen_name": "curedgroves", "text": "The solution to any American problem: The Six Million Dollar Abe.\u2026 https://t.co/5s7uS3mlvT", "created_at": "Sat Jul 16 12:49:45 +0000 2016", "time": 1468673376.168744, "tid": 754296966788493312, "nei_num": "058"}}, {"geometry": {"type": "Point", "coordinates": [-79.3416638, 43.6912006]}, "type": "Feature", "id": 754304990911406080, "properties": {"loc": [-79.3416638, 43.6912006], "screen_name": "tmj_gta_jobs", "text": "Want to work at Starbucks? We're #hiring in #EastYork, ON! Click for details: https://t.co/DQ8CKpiLSG #Job #Veterans #Jobs #CareerArc", "created_at": "Sat Jul 16 13:21:38 +0000 2016", "time": 1468675289.279608, "tid": 754304990911406080, "nei_num": "058"}}, {"geometry": {"type": "Point", "coordinates": [-79.3416638, 43.6912006]}, "type": "Feature", "id": 754352659490930688, "properties": {"loc": [-79.3416638, 43.6912006], "screen_name": "tmj_gta_jobs", "text": "Join the Starbucks team! See our latest #job opening here: https://t.co/yEJCcDBPuL #EastYork, ON #Veterans #Hiring #CareerArc", "created_at": "Sat Jul 16 16:31:03 +0000 2016", "time": 1468686654.398738, "tid": 754352659490930688, "nei_num": "058"}}, {"geometry": {"type": "Point", "coordinates": [-79.3411137, 43.6952311]}, "type": "Feature", "id": 754356932350205952, "properties": {"loc": [-79.3411137, 43.6952311], "screen_name": "tpscalls", "text": "Personal Injury Collision | Cadorna Ave &amp; O\\'Connor Dr [HP] 07/16 12:43 #Old_East_York #Toronto", "created_at": "Sat Jul 16 16:48:02 +0000 2016", "time": 1468687673.069036, "tid": 754356932350205952, "nei_num": "058"}}, {"geometry": {"type": "Point", "coordinates": [-79.3440932, 43.694421]}, "type": "Feature", "id": 754372544141135872, "properties": {"loc": [-79.3440932, 43.694421], "screen_name": "tofire", "text": "Fire (Residential) - Elmsdale Road b/w O'connor Dr / Lane North O Connor East Wolverton, East York (7 Trucks)", "created_at": "Sat Jul 16 17:50:04 +0000 2016", "time": 1468691395.216641, "tid": 754372544141135872, "nei_num": "058"}}, {"geometry": {"type": "Point", "coordinates": [-79.3440932, 43.694421]}, "type": "Feature", "id": 754372545898479616, "properties": {"loc": [-79.3440932, 43.694421], "screen_name": "tofiref", "text": "Fire (Residential) - Elmsdale Road b/w O'connor Dr / Lane North O Connor East Wolverton, East York (7 Trucks)", "created_at": "Sat Jul 16 17:50:05 +0000 2016", "time": 1468691395.63735, "tid": 754372545898479616, "nei_num": "058"}}, {"geometry": {"type": "Point", "coordinates": [-79.3440932, 43.694421]}, "type": "Feature", "id": 754372544984211456, "properties": {"loc": [-79.3440932, 43.694421], "screen_name": "tofireS", "text": "Fire (Residential) - Elmsdale Road b/w O'connor Dr / Lane North O Connor East Wolverton, East York (7 Trucks)", "created_at": "Sat Jul 16 17:50:04 +0000 2016", "time": 1468691395.388046, "tid": 754372544984211456, "nei_num": "058"}}, {"geometry": {"type": "Point", "coordinates": [-79.3440932, 43.694421]}, "type": "Feature", "id": 754373542934970368, "properties": {"loc": [-79.3440932, 43.694421], "screen_name": "tpscalls", "text": "Fire | O\\'Connor Dr &amp; Ln N O Connor E Elmsdale [54 Div.] 07/16 13:48 #Old_East_York #Toronto", "created_at": "Sat Jul 16 17:54:02 +0000 2016", "time": 1468691633.375442, "tid": 754373542934970368, "nei_num": "058"}}, {"geometry": {"type": "Point", "coordinates": [-79.3440932, 43.694421]}, "type": "Feature", "id": 754374048998682624, "properties": {"loc": [-79.3440932, 43.694421], "screen_name": "tofire", "text": "UD: [2 Alm] Fire (Residential) - Elmsdale Road b/w O'connor Dr / Lane North O Connor East Wolverton, East York (16 Trucks)", "created_at": "Sat Jul 16 17:56:03 +0000 2016", "time": 1468691753.993066, "tid": 754374048998682624, "nei_num": "058"}}, {"geometry": {"type": "Point", "coordinates": [-79.3440932, 43.694421]}, "type": "Feature", "id": 754374051439734784, "properties": {"loc": [-79.3440932, 43.694421], "screen_name": "tofireS", "text": "UD: [2 Alm] Fire (Residential) - Elmsdale Road b/w O'connor Dr / Lane North O Connor East Wolverton, East York (16 Trucks)", "created_at": "Sat Jul 16 17:56:04 +0000 2016", "time": 1468691754.589387, "tid": 754374051439734784, "nei_num": "058"}}, {"geometry": {"type": "Point", "coordinates": [-79.3440932, 43.694421]}, "type": "Feature", "id": 754374049833349120, "properties": {"loc": [-79.3440932, 43.694421], "screen_name": "tofire2", "text": "UD: [2 Alm] Fire (Residential) - Elmsdale Road b/w O'connor Dr / Lane North O Connor East Wolverton, East York (16 Trucks)", "created_at": "Sat Jul 16 17:56:03 +0000 2016", "time": 1468691754.189286, "tid": 754374049833349120, "nei_num": "058"}}, {"geometry": {"type": "Point", "coordinates": [-79.3440932, 43.694421]}, "type": "Feature", "id": 754374052249231360, "properties": {"loc": [-79.3440932, 43.694421], "screen_name": "tofiref", "text": "UD: [2 Alm] Fire (Residential) - Elmsdale Road b/w O'connor Dr / Lane North O Connor East Wolverton, East York (16 Trucks)", "created_at": "Sat Jul 16 17:56:04 +0000 2016", "time": 1468691754.845174, "tid": 754374052249231360, "nei_num": "058"}}, {"geometry": {"type": "Point", "coordinates": [-79.3440932, 43.694421]}, "type": "Feature", "id": 754375054729895936, "properties": {"loc": [-79.3440932, 43.694421], "screen_name": "tofire", "text": "UD: [2 Alm] Fire (Residential) - Elmsdale Road b/w O'connor Dr / Lane North O Connor East Wolverton, East York (19 Trucks)", "created_at": "Sat Jul 16 18:00:03 +0000 2016", "time": 1468691993.766593, "tid": 754375054729895936, "nei_num": "058"}}, {"geometry": {"type": "Point", "coordinates": [-79.3440932, 43.694421]}, "type": "Feature", "id": 754375055614873604, "properties": {"loc": [-79.3440932, 43.694421], "screen_name": "tofire2", "text": "UD: [2 Alm] Fire (Residential) - Elmsdale Road b/w O'connor Dr / Lane North O Connor East Wolverton, East York (19 Trucks)", "created_at": "Sat Jul 16 18:00:03 +0000 2016", "time": 1468691994.116169, "tid": 754375055614873604, "nei_num": "058"}}, {"geometry": {"type": "Point", "coordinates": [-79.3440932, 43.694421]}, "type": "Feature", "id": 754375057741414400, "properties": {"loc": [-79.3440932, 43.694421], "screen_name": "tofireS", "text": "UD: [2 Alm] Fire (Residential) - Elmsdale Road b/w O'connor Dr / Lane North O Connor East Wolverton, East York (19 Trucks)", "created_at": "Sat Jul 16 18:00:04 +0000 2016", "time": 1468691994.506262, "tid": 754375057741414400, "nei_num": "058"}}, {"geometry": {"type": "Point", "coordinates": [-79.3440932, 43.694421]}, "type": "Feature", "id": 754375058739658752, "properties": {"loc": [-79.3440932, 43.694421], "screen_name": "tofiref", "text": "UD: [2 Alm] Fire (Residential) - Elmsdale Road b/w O'connor Dr / Lane North O Connor East Wolverton, East York (19 Trucks)", "created_at": "Sat Jul 16 18:00:04 +0000 2016", "time": 1468691994.758697, "tid": 754375058739658752, "nei_num": "058"}}, {"geometry": {"type": "Point", "coordinates": [-79.32893408, 43.69600308]}, "type": "Feature", "id": 754386885292601344, "properties": {"loc": [-79.32893408, 43.69600308], "screen_name": "NewzFromTheSix", "text": "Fuckkkkk #PokemonGo @ Starbucks Canada https://t.co/YtaZC0CZAK", "created_at": "Sat Jul 16 18:47:03 +0000 2016", "time": 1468694814.380063, "tid": 754386885292601344, "nei_num": "058"}}, {"geometry": {"type": "Point", "coordinates": [-79.3327025, 43.6931217]}, "type": "Feature", "id": 754424130779447296, "properties": {"loc": [-79.3327025, 43.6931217], "screen_name": "tpscalls", "text": "See Ambulance | Memorial Park Ave &amp; Cosburn Ave [54 Div.] 07/16 17:11 #Old_East_York #Toronto", "created_at": "Sat Jul 16 21:15:03 +0000 2016", "time": 1468703694.384047, "tid": 754424130779447296, "nei_num": "058"}}, {"geometry": {"type": "Point", "coordinates": [-79.3466113, 43.703229]}, "type": "Feature", "id": 754455591016275968, "properties": {"loc": [-79.3466113, 43.703229], "screen_name": "tofireS", "text": "Medical (Unconscious) - Thorncliffe Park Dr b/w Milepost Pl / West Don River Trail, East York (2 Trucks)", "created_at": "Sat Jul 16 23:20:04 +0000 2016", "time": 1468711195.071572, "tid": 754455591016275968, "nei_num": "058"}}, {"geometry": {"type": "Point", "coordinates": [-79.3466113, 43.703229]}, "type": "Feature", "id": 754455590093615104, "properties": {"loc": [-79.3466113, 43.703229], "screen_name": "tofire", "text": "Medical (Unconscious) - Thorncliffe Park Dr b/w Milepost Pl / West Don River Trail, East York (2 Trucks)", "created_at": "Sat Jul 16 23:20:04 +0000 2016", "time": 1468711194.84242, "tid": 754455590093615104, "nei_num": "058"}}, {"geometry": {"type": "Point", "coordinates": [-79.3466113, 43.703229]}, "type": "Feature", "id": 754456854743449600, "properties": {"loc": [-79.3466113, 43.703229], "screen_name": "tofire", "text": "UD: Tems Transferred (Read Remarks) - Thorncliffe Park Dr b/w Milepost Pl / West Don River Trail, East York (2 Trucks)", "created_at": "Sat Jul 16 23:25:05 +0000 2016", "time": 1468711496.349903, "tid": 754456854743449600, "nei_num": "058"}}, {"geometry": {"type": "Point", "coordinates": [-79.3466113, 43.703229]}, "type": "Feature", "id": 754456855552856065, "properties": {"loc": [-79.3466113, 43.703229], "screen_name": "tofireS", "text": "UD: Tems Transferred (Read Remarks) - Thorncliffe Park Dr b/w Milepost Pl / West Don River Trail, East York (2 Trucks)", "created_at": "Sat Jul 16 23:25:06 +0000 2016", "time": 1468711496.59907, "tid": 754456855552856065, "nei_num": "058"}}, {"geometry": {"type": "Point", "coordinates": [-79.3420879, 43.7033155]}, "type": "Feature", "id": 754474601048973313, "properties": {"loc": [-79.3420879, 43.7033155], "screen_name": "Scanman73", "text": "Some Super Trucks action! Sorry, it's a little shaky. #supertrucks #hondaindy #racing @ Honda Indy https://t.co/2At03P2zSC", "created_at": "Sun Jul 17 00:35:37 +0000 2016", "time": 1468715727.442505, "tid": 754474601048973313, "nei_num": "058"}}, {"geometry": {"type": "Point", "coordinates": [-79.34824, 43.693609]}, "type": "Feature", "id": 754478242078265344, "properties": {"loc": [-79.34824, 43.693609], "screen_name": "tofire", "text": "Medical (Unconscious) - O'connor Dr b/w Rivercourt Boulevard / Chilton Road, East York (2 Trucks)", "created_at": "Sun Jul 17 00:50:05 +0000 2016", "time": 1468716595.454345, "tid": 754478242078265344, "nei_num": "058"}}, {"geometry": {"type": "Point", "coordinates": [-79.34824, 43.693609]}, "type": "Feature", "id": 754478242900353024, "properties": {"loc": [-79.34824, 43.693609], "screen_name": "tofireS", "text": "Medical (Unconscious) - O'connor Dr b/w Rivercourt Boulevard / Chilton Road, East York (2 Trucks)", "created_at": "Sun Jul 17 00:50:05 +0000 2016", "time": 1468716595.70696, "tid": 754478242900353024, "nei_num": "058"}}, {"geometry": {"type": "Point", "coordinates": [-79.3322682, 43.6963723]}, "type": "Feature", "id": 754494342249807872, "properties": {"loc": [-79.3322682, 43.6963723], "screen_name": "tpscalls", "text": "Disorderlies | Northridge Ave &amp; Milton Rd [54 Div.] 07/16 21:49 #Old_East_York #Toronto", "created_at": "Sun Jul 17 01:54:03 +0000 2016", "time": 1468720434.095641, "tid": 754494342249807872, "nei_num": "058"}}, {"geometry": {"type": "Point", "coordinates": [-79.32466703, 43.69790577]}, "type": "Feature", "id": 754495669650485250, "properties": {"loc": [-79.32466703, 43.69790577], "screen_name": "juliesmithso", "text": "My view of our beautiful city tonight #TORONTO #Timeforfriends @ Toronto East https://t.co/5tO7nQ9gO0", "created_at": "Sun Jul 17 01:59:20 +0000 2016", "time": 1468720750.591197, "tid": 754495669650485250, "nei_num": "058"}}, {"geometry": {"type": "Point", "coordinates": [-79.32893408, 43.69600308]}, "type": "Feature", "id": 754545740433592320, "properties": {"loc": [-79.32893408, 43.69600308], "screen_name": "NewzFromTheSix", "text": "Should I stay or should I go now?!?! #Pokestop #PokemonGo #Lure #PokestopLure #EastYork #topoli\u2026 https://t.co/caXYjpXmEq", "created_at": "Sun Jul 17 05:18:17 +0000 2016", "time": 1468732688.29529, "tid": 754545740433592320, "nei_num": "058"}}, {"geometry": {"type": "Point", "coordinates": [-79.3283, 43.6912]}, "type": "Feature", "id": 754662958014181376, "properties": {"loc": [-79.3283, 43.6912], "screen_name": "aronharris", "text": "Farmers wake up early\u2026 https://t.co/VCjPtwchgF", "created_at": "Sun Jul 17 13:04:04 +0000 2016", "time": 1468760635.180803, "tid": 754662958014181376, "nei_num": "058"}}, {"geometry": {"type": "Point", "coordinates": [-79.3292504, 43.695996]}, "type": "Feature", "id": 754696491248123906, "properties": {"loc": [-79.3292504, 43.695996], "screen_name": "tmj_gta_hrta", "text": "This #job might be a great fit for you: Barista (CA) - https://t.co/R5s0Mnnk6k #Hospitality #Veterans #Hiring #CareerArc", "created_at": "Sun Jul 17 15:17:19 +0000 2016", "time": 1468768629.987151, "tid": 754696491248123906, "nei_num": "058"}}, {"geometry": {"type": "Point", "coordinates": [-79.3355668, 43.6914965]}, "type": "Feature", "id": 754699695784591360, "properties": {"loc": [-79.3355668, 43.6914965], "screen_name": "tpscalls", "text": "Fight | Dieppe Rd &amp; Cosburn Ave [54 Div.] 07/17 11:26 #455 #Toronto", "created_at": "Sun Jul 17 15:30:03 +0000 2016", "time": 1468769394.011494, "tid": 754699695784591360, "nei_num": "058"}}, {"geometry": {"type": "Point", "coordinates": [-79.3278, 43.6913]}, "type": "Feature", "id": 754730223506067456, "properties": {"loc": [-79.3278, 43.6913], "screen_name": "curedgroves", "text": "After months of knee recuperation I'm getting back on Big Red.\u2026 https://t.co/hkO0ndURlD", "created_at": "Sun Jul 17 17:31:22 +0000 2016", "time": 1468776672.356962, "tid": 754730223506067456, "nei_num": "058"}}, {"geometry": {"type": "Point", "coordinates": [-79.3416638, 43.6912006]}, "type": "Feature", "id": 754743163923734528, "properties": {"loc": [-79.3416638, 43.6912006], "screen_name": "tmj_gta_jobs", "text": "Can you recommend anyone for this #job? https://t.co/xDyU3VWauG #EastYork, ON #Veterans #Hiring #CareerArc", "created_at": "Sun Jul 17 18:22:47 +0000 2016", "time": 1468779757.612952, "tid": 754743163923734528, "nei_num": "058"}}, {"geometry": {"type": "Point", "coordinates": [-79.3283, 43.6912]}, "type": "Feature", "id": 754744941671100416, "properties": {"loc": [-79.3283, 43.6912], "screen_name": "NewzFromTheSix", "text": "Anyone playing #PokemonGo will know why this is cruelty!!!\ud83d\ude2d @ East York Civic Centre https://t.co/fdX3q5Lj0i", "created_at": "Sun Jul 17 18:29:51 +0000 2016", "time": 1468780181.491037, "tid": 754744941671100416, "nei_num": "058"}}, {"geometry": {"type": "Point", "coordinates": [-79.3362075, 43.6904201]}, "type": "Feature", "id": 754756578880983040, "properties": {"loc": [-79.3362075, 43.6904201], "screen_name": "tofire", "text": "Vehicle (Personal Injury) - Greenwood Avenue @ Memorial Park Avenue, East York (2 Trucks)", "created_at": "Sun Jul 17 19:16:05 +0000 2016", "time": 1468782955.990974, "tid": 754756578880983040, "nei_num": "058"}}, {"geometry": {"type": "Point", "coordinates": [-79.3362075, 43.6904201]}, "type": "Feature", "id": 754756579715612672, "properties": {"loc": [-79.3362075, 43.6904201], "screen_name": "tofireS", "text": "Vehicle (Personal Injury) - Greenwood Avenue @ Memorial Park Avenue, East York (2 Trucks)", "created_at": "Sun Jul 17 19:16:05 +0000 2016", "time": 1468782956.439374, "tid": 754756579715612672, "nei_num": "058"}}, {"geometry": {"type": "Point", "coordinates": [-79.3362075, 43.6904201]}, "type": "Feature", "id": 754757073343315969, "properties": {"loc": [-79.3362075, 43.6904201], "screen_name": "tpscalls", "text": "Personal Injury Collision | Greenwood Ave &amp; Memorial Park Ave [HP] 07/17 15:14 #Old_East_York #Toronto", "created_at": "Sun Jul 17 19:18:03 +0000 2016", "time": 1468783073.85572, "tid": 754757073343315969, "nei_num": "058"}}, {"geometry": {"type": "Point", "coordinates": [-79.3416638, 43.6912006]}, "type": "Feature", "id": 754795362527817728, "properties": {"loc": [-79.3416638, 43.6912006], "screen_name": "tmj_gta_jobs", "text": "Can you recommend anyone for this #job? https://t.co/eGZCmHv5yR #EastYork, ON #Veterans #Hiring #CareerArc", "created_at": "Sun Jul 17 21:50:12 +0000 2016", "time": 1468792202.72081, "tid": 754795362527817728, "nei_num": "058"}}, {"geometry": {"type": "Point", "coordinates": [-79.3426696, 43.690607]}, "type": "Feature", "id": 754800107372044288, "properties": {"loc": [-79.3426696, 43.690607], "screen_name": "tpscalls", "text": "Escape Custody | Gowan Ave &amp; Cosburn Ave [54 Div.] 07/17 18:03 #Old_East_York #Toronto", "created_at": "Sun Jul 17 22:09:03 +0000 2016", "time": 1468793334.155718, "tid": 754800107372044288, "nei_num": "058"}}, {"geometry": {"type": "Point", "coordinates": [-79.3236783, 43.6942698]}, "type": "Feature", "id": 754806912986783744, "properties": {"loc": [-79.3236783, 43.6942698], "screen_name": "tofireE", "text": "Medical (Trouble Breathing) - Virginia Avenue b/w Binswood Avenue / Glebemount Avenue, East York (2 Trucks)", "created_at": "Sun Jul 17 22:36:06 +0000 2016", "time": 1468794956.519644, "tid": 754806912986783744, "nei_num": "058"}}, {"geometry": {"type": "Point", "coordinates": [-79.3236783, 43.6942698]}, "type": "Feature", "id": 754806911980142592, "properties": {"loc": [-79.3236783, 43.6942698], "screen_name": "tofire", "text": "Medical (Trouble Breathing) - Virginia Avenue b/w Binswood Avenue / Glebemount Avenue, East York (2 Trucks)", "created_at": "Sun Jul 17 22:36:06 +0000 2016", "time": 1468794956.284633, "tid": 754806911980142592, "nei_num": "058"}}, {"geometry": {"type": "Point", "coordinates": [-79.3344912, 43.7028794]}, "type": "Feature", "id": 754826784940711937, "properties": {"loc": [-79.3344912, 43.7028794], "screen_name": "tofire", "text": "Fire (Grass/rubbish) - Thorncliffe Park Dr b/w West Don River Trail / Overlea Boulevard, East York (2 Trucks)", "created_at": "Sun Jul 17 23:55:04 +0000 2016", "time": 1468799694.347156, "tid": 754826784940711937, "nei_num": "058"}}, {"geometry": {"type": "Point", "coordinates": [-79.3344912, 43.7028794]}, "type": "Feature", "id": 754826785888624640, "properties": {"loc": [-79.3344912, 43.7028794], "screen_name": "tofireS", "text": "Fire (Grass/rubbish) - Thorncliffe Park Dr b/w West Don River Trail / Overlea Boulevard, East York (2 Trucks)", "created_at": "Sun Jul 17 23:55:04 +0000 2016", "time": 1468799694.632204, "tid": 754826785888624640, "nei_num": "058"}}, {"geometry": {"type": "Point", "coordinates": [-79.3344912, 43.7028794]}, "type": "Feature", "id": 754826786702327808, "properties": {"loc": [-79.3344912, 43.7028794], "screen_name": "tofiref", "text": "Fire (Grass/rubbish) - Thorncliffe Park Dr b/w West Don River Trail / Overlea Boulevard, East York (2 Trucks)", "created_at": "Sun Jul 17 23:55:04 +0000 2016", "time": 1468799694.805891, "tid": 754826786702327808, "nei_num": "058"}}, {"geometry": {"type": "Point", "coordinates": [-79.3362075, 43.6904201]}, "type": "Feature", "id": 754849186252726272, "properties": {"loc": [-79.3362075, 43.6904201], "screen_name": "tpscalls", "text": "Personal Injury Collision | Greenwood Ave &amp; Memorial Park Ave [HP] 07/17 21:19 #Old_East_York #Toronto", "created_at": "Mon Jul 18 01:24:05 +0000 2016", "time": 1468805035.242924, "tid": 754849186252726272, "nei_num": "058"}}, {"geometry": {"type": "Point", "coordinates": [-79.32893408, 43.69600308]}, "type": "Feature", "id": 754897050253209601, "properties": {"loc": [-79.32893408, 43.69600308], "screen_name": "NewzFromTheSix", "text": "This game is gonna get me hit by a car. #pokemongocanada @ Starbucks Canada https://t.co/ni31d7O2Jg", "created_at": "Mon Jul 18 04:34:16 +0000 2016", "time": 1468816447.00164, "tid": 754897050253209601, "nei_num": "058"}}, {"geometry": {"type": "Point", "coordinates": [-79.3287748, 43.6959468]}, "type": "Feature", "id": 755002693249269760, "properties": {"loc": [-79.3287748, 43.6959468], "screen_name": "tpscalls", "text": "Break &amp; Enter | Plains Rd &amp; Ln S O Connor W Coxwell [54 Div.] 07/18 07:27 #Old_East_York #Toronto", "created_at": "Mon Jul 18 11:34:03 +0000 2016", "time": 1468841634.022609, "tid": 755002693249269760, "nei_num": "058"}}, {"geometry": {"type": "Point", "coordinates": [-79.3416638, 43.6912006]}, "type": "Feature", "id": 755132649899827200, "properties": {"loc": [-79.3416638, 43.6912006], "screen_name": "tmj_gta_jobs", "text": "Want to work in #EastYork, ON? View our latest opening: https://t.co/iwYn65CcJv #Job #Veterans #Jobs #Hiring #CareerArc", "created_at": "Mon Jul 18 20:10:28 +0000 2016", "time": 1468872618.01777, "tid": 755132649899827200, "nei_num": "058"}}, {"geometry": {"type": "Point", "coordinates": [-79.3420879, 43.7033155]}, "type": "Feature", "id": 755165859673436160, "properties": {"loc": [-79.3420879, 43.7033155], "screen_name": "DieselDW89", "text": "Discovered this sport and fell in love. Where can I sign up? #hondaindy #trucks #jumps\u2026 https://t.co/G2EmCJJCzT", "created_at": "Mon Jul 18 22:22:25 +0000 2016", "time": 1468880535.821646, "tid": 755165859673436160, "nei_num": "058"}}, {"geometry": {"type": "Point", "coordinates": [-79.3420879, 43.7033155]}, "type": "Feature", "id": 755167401830912000, "properties": {"loc": [-79.3420879, 43.7033155], "screen_name": "DieselDW89", "text": "Boys were flying out there. Hell of a good day with the wife at the track @teaghann. #racing\u2026 https://t.co/uZicL1tmiI", "created_at": "Mon Jul 18 22:28:33 +0000 2016", "time": 1468880903.555724, "tid": 755167401830912000, "nei_num": "058"}}, {"geometry": {"type": "Point", "coordinates": [-79.345192, 43.697602]}, "type": "Feature", "id": 755189676215005184, "properties": {"loc": [-79.345192, 43.697602], "screen_name": "tpscalls", "text": "Hazard | Leaside Bdge &amp; Don Valley Parkway N [54 Div.] 07/18 19:52 #Toronto", "created_at": "Mon Jul 18 23:57:04 +0000 2016", "time": 1468886214.194734, "tid": 755189676215005184, "nei_num": "058"}}, {"geometry": {"type": "Point", "coordinates": [-79.345192, 43.697602]}, "type": "Feature", "id": 755190429033914369, "properties": {"loc": [-79.345192, 43.697602], "screen_name": "tpscalls", "text": "Hazard | Leaside Bdge &amp; Don Valley Parkway N [HP] 07/18 19:56 #Toronto", "created_at": "Tue Jul 19 00:00:03 +0000 2016", "time": 1468886393.550846, "tid": 755190429033914369, "nei_num": "058"}}, {"geometry": {"type": "Point", "coordinates": [-79.339626, 43.6955392]}, "type": "Feature", "id": 755244037997727744, "properties": {"loc": [-79.339626, 43.6955392], "screen_name": "tpscalls", "text": "Hazard | Don Mills Rd &amp; O\\'Connor Dr [54 Div.] 07/18 23:29 #Old_East_York #Toronto", "created_at": "Tue Jul 19 03:33:05 +0000 2016", "time": 1468899174.896734, "tid": 755244037997727744, "nei_num": "058"}}, {"geometry": {"type": "Point", "coordinates": [-79.3491814, 43.6903736]}, "type": "Feature", "id": 755509785043275780, "properties": {"loc": [-79.3491814, 43.6903736], "screen_name": "tpscalls", "text": "Arrest | Pape Ave &amp; Gamble Ave [54 Div.] 07/19 17:03 #Old_East_York #Toronto", "created_at": "Tue Jul 19 21:09:04 +0000 2016", "time": 1468962533.789011, "tid": 755509785043275780, "nei_num": "058"}}, {"geometry": {"type": "Point", "coordinates": [-79.3303846, 43.695673]}, "type": "Feature", "id": 755522620439814144, "properties": {"loc": [-79.3303846, 43.695673], "screen_name": "tpscalls", "text": "Holding Lost Elderly | Cosburn Ave &amp; Plains Rd [54 Div.] 07/19 17:56 #Old_East_York #Toronto", "created_at": "Tue Jul 19 22:00:04 +0000 2016", "time": 1468965593.981173, "tid": 755522620439814144, "nei_num": "058"}}, {"geometry": {"type": "Point", "coordinates": [-79.3416638, 43.6912006]}, "type": "Feature", "id": 755575485531250688, "properties": {"loc": [-79.3416638, 43.6912006], "screen_name": "rentboard", "text": "East York Apartments for rent on RentBoard.ca https://t.co/fYZIdFP98K", "created_at": "Wed Jul 20 01:30:08 +0000 2016", "time": 1468978198.011351, "tid": 755575485531250688, "nei_num": "058"}}, {"geometry": {"type": "Point", "coordinates": [-79.3474863, 43.6984421]}, "type": "Feature", "id": 755597612561141760, "properties": {"loc": [-79.3474863, 43.6984421], "screen_name": "tpscalls", "text": "Fire | Wynford Dr &amp; East Don River Trl [33 Div.] 07/19 22:53 #Toronto", "created_at": "Wed Jul 20 02:58:03 +0000 2016", "time": 1468983473.449052, "tid": 755597612561141760, "nei_num": "058"}}, {"geometry": {"type": "Point", "coordinates": [-79.3420879, 43.7033155]}, "type": "Feature", "id": 755749518457446404, "properties": {"loc": [-79.3420879, 43.7033155], "screen_name": "TheJStrazz", "text": "There's always that one car........... \ud83c\udfce\ud83d\udca8\ud83d\udca8\ud83d\udca8\ud83d\udca8 #cars #car #ride #drive #Toronto  #driver\u2026 https://t.co/RsPaHu0fnC", "created_at": "Wed Jul 20 13:01:41 +0000 2016", "time": 1469019690.670421, "tid": 755749518457446404, "nei_num": "058"}}, {"geometry": {"type": "Point", "coordinates": [-79.3416638, 43.6912006]}, "type": "Feature", "id": 755853292815605761, "properties": {"loc": [-79.3416638, 43.6912006], "screen_name": "tmj_gta_jobs", "text": "We're #hiring! Read about our latest #job opening here: barista - https://t.co/fc0YGUvpO4 #EastYork, ON #Veterans #CareerArc", "created_at": "Wed Jul 20 19:54:02 +0000 2016", "time": 1469044432.303686, "tid": 755853292815605761, "nei_num": "058"}}, {"geometry": {"type": "Point", "coordinates": [-79.339626, 43.6955392]}, "type": "Feature", "id": 755877705510420480, "properties": {"loc": [-79.339626, 43.6955392], "screen_name": "tpscalls", "text": "Traffic Obstruct | Don Mills Rd &amp; O\\'Connor Dr [54 Div.] 07/20 17:26 #Old_East_York #Toronto", "created_at": "Wed Jul 20 21:31:03 +0000 2016", "time": 1469050252.63774, "tid": 755877705510420480, "nei_num": "058"}}, {"geometry": {"type": "Point", "coordinates": [-79.3278, 43.6913]}, "type": "Feature", "id": 755882130593505281, "properties": {"loc": [-79.3278, 43.6913], "screen_name": "curedgroves", "text": "This is kickin' ass right now on my turntable. #vinyl\u2026 https://t.co/gdW0P9O4AW", "created_at": "Wed Jul 20 21:48:38 +0000 2016", "time": 1469051307.647611, "tid": 755882130593505281, "nei_num": "058"}}, {"geometry": {"type": "Point", "coordinates": [-79.3489955, 43.6898825]}, "type": "Feature", "id": 756120807382867969, "properties": {"loc": [-79.3489955, 43.6898825], "screen_name": "tpscalls", "text": "Robbery | Broadview Ave &amp; Ellerbeck St [55 Div.] 07/21 09:32 #Old_East_York #Toronto", "created_at": "Thu Jul 21 13:37:03 +0000 2016", "time": 1469108212.478811, "tid": 756120807382867969, "nei_num": "058"}}, {"geometry": {"type": "Point", "coordinates": [-79.34239, 43.69386]}, "type": "Feature", "id": 756124498626248708, "properties": {"loc": [-79.34239, 43.69386], "screen_name": "GavEllis_IOW", "text": "We've gone #TimHortons bonkers today, yes that is a #BoxOfCoffee #Canada #gavpictureaday #day199\u2026 https://t.co/bDd8hlXTS6", "created_at": "Thu Jul 21 13:51:43 +0000 2016", "time": 1469109092.537768, "tid": 756124498626248708, "nei_num": "058"}}, {"geometry": {"type": "Point", "coordinates": [-79.3416638, 43.6912006]}, "type": "Feature", "id": 756154853005549568, "properties": {"loc": [-79.3416638, 43.6912006], "screen_name": "tmj_gta_jobs", "text": "We're #hiring! Click to apply: shift supervisor - https://t.co/T6hqR2Z86n #Job #EastYork, ON #Veterans #Jobs #CareerArc", "created_at": "Thu Jul 21 15:52:20 +0000 2016", "time": 1469116329.770962, "tid": 756154853005549568, "nei_num": "058"}}, {"geometry": {"type": "Point", "coordinates": [-79.3278, 43.6913]}, "type": "Feature", "id": 756160316854206464, "properties": {"loc": [-79.3278, 43.6913], "screen_name": "curedgroves", "text": "\"There are only two kinds of music - good and bad.\" Duke Ellington.\u2026 https://t.co/hgrouWYnh6", "created_at": "Thu Jul 21 16:14:02 +0000 2016", "time": 1469117632.344409, "tid": 756160316854206464, "nei_num": "058"}}, {"geometry": {"type": "Point", "coordinates": [-79.3285, 43.69626]}, "type": "Feature", "id": 756166016854548480, "properties": {"loc": [-79.3285, 43.69626], "screen_name": "MarkNassis", "text": "Back in the old hood and I finally get to try @knucklsandwich! #eastendtilidie #sandwich\u2026 https://t.co/gBdMQe0y7k", "created_at": "Thu Jul 21 16:36:41 +0000 2016", "time": 1469118991.441856, "tid": 756166016854548480, "nei_num": "058"}}, {"geometry": {"type": "Point", "coordinates": [-79.3278, 43.6913]}, "type": "Feature", "id": 756167585218105344, "properties": {"loc": [-79.3278, 43.6913], "screen_name": "curedgroves", "text": "Thursday Selects. #vinyl #bowieforever\u26a1\ufe0f @ East York https://t.co/27mJJsq8hE", "created_at": "Thu Jul 21 16:42:55 +0000 2016", "time": 1469119365.159464, "tid": 756167585218105344, "nei_num": "058"}}, {"geometry": {"type": "Point", "coordinates": [-79.3416638, 43.6912006]}, "type": "Feature", "id": 756170036000137217, "properties": {"loc": [-79.3416638, 43.6912006], "screen_name": "tmj_gta_jobs", "text": "Interested in a #job near #EastYork, ON? This could be a great fit: https://t.co/9MsMohVSeh #Veterans #Hiring #CareerArc", "created_at": "Thu Jul 21 16:52:40 +0000 2016", "time": 1469119949.568969, "tid": 756170036000137217, "nei_num": "058"}}, {"geometry": {"type": "Point", "coordinates": [-79.32491, 43.68982]}, "type": "Feature", "id": 756185188649037824, "properties": {"loc": [-79.32491, 43.68982], "screen_name": "SheldonDairy", "text": "As a farmer gets older, his knees just don't stay the same especially from all the years of\u2026 https://t.co/OvtvOLyOaX", "created_at": "Thu Jul 21 17:52:52 +0000 2016", "time": 1469123562.185641, "tid": 756185188649037824, "nei_num": "058"}}, {"geometry": {"type": "Point", "coordinates": [-79.3468445, 43.6928986]}, "type": "Feature", "id": 756202354467274752, "properties": {"loc": [-79.3468445, 43.6928986], "screen_name": "tofire", "text": "Medical (Chest Pains) - Woodville Avenue b/w Chilton Road / Warland Avenue, East York (2 Trucks)", "created_at": "Thu Jul 21 19:01:05 +0000 2016", "time": 1469127654.741094, "tid": 756202354467274752, "nei_num": "058"}}, {"geometry": {"type": "Point", "coordinates": [-79.3468445, 43.6928986]}, "type": "Feature", "id": 756202355343953920, "properties": {"loc": [-79.3468445, 43.6928986], "screen_name": "tofireS", "text": "Medical (Chest Pains) - Woodville Avenue b/w Chilton Road / Warland Avenue, East York (2 Trucks)", "created_at": "Thu Jul 21 19:01:05 +0000 2016", "time": 1469127654.955682, "tid": 756202355343953920, "nei_num": "058"}}, {"geometry": {"type": "Point", "coordinates": [-79.3466113, 43.703229]}, "type": "Feature", "id": 756241105197424640, "properties": {"loc": [-79.3466113, 43.703229], "screen_name": "tofireS", "text": "Medical (Other) - Thorncliffe Park Dr b/w Milepost Pl / West Don River Trail, East York (2 Trucks)", "created_at": "Thu Jul 21 21:35:04 +0000 2016", "time": 1469136893.639198, "tid": 756241105197424640, "nei_num": "058"}}, {"geometry": {"type": "Point", "coordinates": [-79.3466113, 43.703229]}, "type": "Feature", "id": 756241104299753472, "properties": {"loc": [-79.3466113, 43.703229], "screen_name": "tofire", "text": "Medical (Other) - Thorncliffe Park Dr b/w Milepost Pl / West Don River Trail, East York (2 Trucks)", "created_at": "Thu Jul 21 21:35:04 +0000 2016", "time": 1469136893.474249, "tid": 756241104299753472, "nei_num": "058"}}, {"geometry": {"type": "Point", "coordinates": [-79.3491814, 43.6903736]}, "type": "Feature", "id": 756243116559130625, "properties": {"loc": [-79.3491814, 43.6903736], "screen_name": "tpscalls", "text": "Assault Just Occurred | Pape Ave &amp; Gamble Ave [54 Div.] 07/21 17:37 #Broadview_North #Toronto", "created_at": "Thu Jul 21 21:43:03 +0000 2016", "time": 1469137373.152848, "tid": 756243116559130625, "nei_num": "058"}}, {"geometry": {"type": "Point", "coordinates": [-79.3389506, 43.6898362]}, "type": "Feature", "id": 756265266514919424, "properties": {"loc": [-79.3389506, 43.6898362], "screen_name": "tofireS", "text": "Alarm Residential - Cadorna Avenue b/w Memorial Park Avenue / Cosburn Avenue, East York (6 Trucks)", "created_at": "Thu Jul 21 23:11:04 +0000 2016", "time": 1469142654.147827, "tid": 756265266514919424, "nei_num": "058"}}, {"geometry": {"type": "Point", "coordinates": [-79.3389506, 43.6898362]}, "type": "Feature", "id": 756265265508261888, "properties": {"loc": [-79.3389506, 43.6898362], "screen_name": "tofire", "text": "Alarm Residential - Cadorna Avenue b/w Memorial Park Avenue / Cosburn Avenue, East York (6 Trucks)", "created_at": "Thu Jul 21 23:11:04 +0000 2016", "time": 1469142653.896704, "tid": 756265265508261888, "nei_num": "058"}}, {"geometry": {"type": "Point", "coordinates": [-79.32466703, 43.69790577]}, "type": "Feature", "id": 756327253269553152, "properties": {"loc": [-79.32466703, 43.69790577], "screen_name": "gm4rin4", "text": "Filtro pra que... @ Toronto East https://t.co/j3kQCVmfxl", "created_at": "Fri Jul 22 03:17:23 +0000 2016", "time": 1469157432.94635, "tid": 756327253269553152, "nei_num": "058"}}, {"geometry": {"type": "Point", "coordinates": [-79.3292504, 43.695996]}, "type": "Feature", "id": 756470117387542528, "properties": {"loc": [-79.3292504, 43.695996], "screen_name": "tmj_gta_hrta", "text": "Join the Starbucks team! See our latest #job opening here: https://t.co/8uWKCWo96o #Hospitality #Veterans #Hiring #CareerArc", "created_at": "Fri Jul 22 12:45:05 +0000 2016", "time": 1469191494.353923, "tid": 756470117387542528, "nei_num": "058"}}, {"geometry": {"type": "Point", "coordinates": [-79.3416638, 43.6912006]}, "type": "Feature", "id": 756512538775347200, "properties": {"loc": [-79.3416638, 43.6912006], "screen_name": "tmj_gta_jobs", "text": "This #job might be a great fit for you: shift supervisor - https://t.co/DQ8CKpiLSG #EastYork, ON #Veterans #Hiring #CareerArc", "created_at": "Fri Jul 22 15:33:39 +0000 2016", "time": 1469201608.328057, "tid": 756512538775347200, "nei_num": "058"}}, {"geometry": {"type": "Point", "coordinates": [-79.34239, 43.69386]}, "type": "Feature", "id": 756518258522595328, "properties": {"loc": [-79.34239, 43.69386], "screen_name": "snakataktruk", "text": "I'm #humbled I'm proud of the team #aristocaters #snakatak #happy @ Pie In The Sky Studios https://t.co/BDpWmQCDMg", "created_at": "Fri Jul 22 15:56:22 +0000 2016", "time": 1469202971.997708, "tid": 756518258522595328, "nei_num": "058"}}, {"geometry": {"type": "Point", "coordinates": [-79.3416638, 43.6912006]}, "type": "Feature", "id": 756559823395631104, "properties": {"loc": [-79.3416638, 43.6912006], "screen_name": "tmj_gta_jobs", "text": "We're #hiring! Click to apply: barista - https://t.co/yEJCcDBPuL #Job #EastYork, ON #Veterans #Jobs #CareerArc", "created_at": "Fri Jul 22 18:41:32 +0000 2016", "time": 1469212881.806399, "tid": 756559823395631104, "nei_num": "058"}}, {"geometry": {"type": "Point", "coordinates": [-79.3290899, 43.69608]}, "type": "Feature", "id": 756638824956956672, "properties": {"loc": [-79.3290899, 43.69608], "screen_name": "NewzFromTheSix", "text": "#Dinner @ Lickadee Split Ice Cream Shoppe https://t.co/KjYx8Cv6DP", "created_at": "Fri Jul 22 23:55:28 +0000 2016", "time": 1469231717.207352, "tid": 756638824956956672, "nei_num": "058"}}, {"geometry": {"type": "Point", "coordinates": [-79.34014396, 43.69553421]}, "type": "Feature", "id": 756682273215221760, "properties": {"loc": [-79.34014396, 43.69553421], "screen_name": "CelineGunton", "text": "Newest addition to the #cemy apartment decor \ud83c\uddec\ud83c\udde7 #Anglophile #britincanada #decor #bigben #London\u2026 https://t.co/jggYK5v3SS", "created_at": "Sat Jul 23 02:48:07 +0000 2016", "time": 1469242076.091946, "tid": 756682273215221760, "nei_num": "058"}}, {"geometry": {"type": "Point", "coordinates": [-79.3327025, 43.6931217]}, "type": "Feature", "id": 756839545354747904, "properties": {"loc": [-79.3327025, 43.6931217], "screen_name": "tpscalls", "text": "Unknown Trouble | Memorial Park Ave &amp; Cosburn Ave [54 Div.] 07/23 09:06 #Old_East_York #Toronto", "created_at": "Sat Jul 23 13:13:03 +0000 2016", "time": 1469279572.507182, "tid": 756839545354747904, "nei_num": "058"}}, {"geometry": {"type": "Point", "coordinates": [-79.3292504, 43.695996]}, "type": "Feature", "id": 756892033143361536, "properties": {"loc": [-79.3292504, 43.695996], "screen_name": "tmj_gta_hrta", "text": "We're #hiring! Read about our latest #job opening here: Barista (CA) - https://t.co/R5s0Mnnk6k #Hospitality #Veterans #CareerArc", "created_at": "Sat Jul 23 16:41:37 +0000 2016", "time": 1469292086.557303, "tid": 756892033143361536, "nei_num": "058"}}, {"geometry": {"type": "Point", "coordinates": [-79.3236783, 43.6942698]}, "type": "Feature", "id": 756896928277946368, "properties": {"loc": [-79.3236783, 43.6942698], "screen_name": "tpscalls", "text": "Dispute | Southridge Ave &amp; Binswood Ave [54 Div.] 07/23 12:54 #Old_East_York #Toronto", "created_at": "Sat Jul 23 17:01:04 +0000 2016", "time": 1469293253.59231, "tid": 756896928277946368, "nei_num": "058"}}, {"geometry": {"type": "Point", "coordinates": [-79.3382129, 43.690771]}, "type": "Feature", "id": 756904478339690497, "properties": {"loc": [-79.3382129, 43.690771], "screen_name": "tofireS", "text": "Fire (Grass/rubbish) - St Hubert Avenue b/w Dieppe Road / Cosburn Avenue, East York (2 Trucks)", "created_at": "Sat Jul 23 17:31:04 +0000 2016", "time": 1469295053.651822, "tid": 756904478339690497, "nei_num": "058"}}, {"geometry": {"type": "Point", "coordinates": [-79.3382129, 43.690771]}, "type": "Feature", "id": 756904477542772736, "properties": {"loc": [-79.3382129, 43.690771], "screen_name": "tofire", "text": "Fire (Grass/rubbish) - St Hubert Avenue b/w Dieppe Road / Cosburn Avenue, East York (2 Trucks)", "created_at": "Sat Jul 23 17:31:04 +0000 2016", "time": 1469295053.492039, "tid": 756904477542772736, "nei_num": "058"}}, {"geometry": {"type": "Point", "coordinates": [-79.3382129, 43.690771]}, "type": "Feature", "id": 756904479195357184, "properties": {"loc": [-79.3382129, 43.690771], "screen_name": "tofiref", "text": "Fire (Grass/rubbish) - St Hubert Avenue b/w Dieppe Road / Cosburn Avenue, East York (2 Trucks)", "created_at": "Sat Jul 23 17:31:05 +0000 2016", "time": 1469295053.852317, "tid": 756904479195357184, "nei_num": "058"}}, {"geometry": {"type": "Point", "coordinates": [-79.3416638, 43.6912006]}, "type": "Feature", "id": 756949847924551680, "properties": {"loc": [-79.3416638, 43.6912006], "screen_name": "tmj_gta_jobs", "text": "Join the Starbucks team! See our latest #job opening here: https://t.co/xDyU3VWauG #EastYork, ON #Veterans #Hiring #CareerArc", "created_at": "Sat Jul 23 20:31:21 +0000 2016", "time": 1469305870.645235, "tid": 756949847924551680, "nei_num": "058"}}, {"geometry": {"type": "Point", "coordinates": [-79.3344912, 43.7028794]}, "type": "Feature", "id": 756979725654953984, "properties": {"loc": [-79.3344912, 43.7028794], "screen_name": "tofire", "text": "Fire (Highrise Residential) - Thorncliffe Park Dr b/w West Don River Trail / Overlea Boulevard, East York (7 Trucks)", "created_at": "Sat Jul 23 22:30:05 +0000 2016", "time": 1469312993.960819, "tid": 756979725654953984, "nei_num": "058"}}, {"geometry": {"type": "Point", "coordinates": [-79.3344912, 43.7028794]}, "type": "Feature", "id": 756979727429230592, "properties": {"loc": [-79.3344912, 43.7028794], "screen_name": "tofiref", "text": "Fire (Highrise Residential) - Thorncliffe Park Dr b/w West Don River Trail / Overlea Boulevard, East York (7 Trucks)", "created_at": "Sat Jul 23 22:30:05 +0000 2016", "time": 1469312994.392161, "tid": 756979727429230592, "nei_num": "058"}}, {"geometry": {"type": "Point", "coordinates": [-79.3344912, 43.7028794]}, "type": "Feature", "id": 756979726544203776, "properties": {"loc": [-79.3344912, 43.7028794], "screen_name": "tofireS", "text": "Fire (Highrise Residential) - Thorncliffe Park Dr b/w West Don River Trail / Overlea Boulevard, East York (7 Trucks)", "created_at": "Sat Jul 23 22:30:05 +0000 2016", "time": 1469312994.189545, "tid": 756979726544203776, "nei_num": "058"}}, {"geometry": {"type": "Point", "coordinates": [-79.3303846, 43.695673]}, "type": "Feature", "id": 756988276838465541, "properties": {"loc": [-79.3303846, 43.695673], "screen_name": "tpscalls", "text": "See Ambulance | Cosburn Ave &amp; Plains Rd [54 Div.] 07/23 18:59 #Old_East_York #Toronto", "created_at": "Sat Jul 23 23:04:04 +0000 2016", "time": 1469315032.743203, "tid": 756988276838465541, "nei_num": "058"}}, {"geometry": {"type": "Point", "coordinates": [-79.3279963, 43.6941335]}, "type": "Feature", "id": 757020490368163840, "properties": {"loc": [-79.3279963, 43.6941335], "screen_name": "tpscalls", "text": "Disorderlies | Cosburn Ave &amp; Coxwell Ave [54 Div.] 07/23 21:07 #Old_East_York #Toronto", "created_at": "Sun Jul 24 01:12:04 +0000 2016", "time": 1469322713.019579, "tid": 757020490368163840, "nei_num": "058"}}, {"geometry": {"type": "Point", "coordinates": [-79.3279963, 43.6941335]}, "type": "Feature", "id": 757021247385563137, "properties": {"loc": [-79.3279963, 43.6941335], "screen_name": "tpscalls", "text": "Impaired Driver | Coxwell Ave &amp; Cosburn Ave [54 Div.] 07/23 21:09 #Old_East_York #Toronto", "created_at": "Sun Jul 24 01:15:04 +0000 2016", "time": 1469322893.50106, "tid": 757021247385563137, "nei_num": "058"}}, {"geometry": {"type": "Point", "coordinates": [-79.3430907, 43.6946971]}, "type": "Feature", "id": 757062267787677696, "properties": {"loc": [-79.3430907, 43.6946971], "screen_name": "tpscalls", "text": "Personal Injury Collision | Donlands Ave &amp; O\\'Connor Dr [HP] 07/23 23:53 #Old_East_York #Toronto", "created_at": "Sun Jul 24 03:58:04 +0000 2016", "time": 1469332673.540511, "tid": 757062267787677696, "nei_num": "058"}}, {"geometry": {"type": "Point", "coordinates": [-79.3495542, 43.6966726]}, "type": "Feature", "id": 757096232162557953, "properties": {"loc": [-79.3495542, 43.6966726], "screen_name": "tpscalls", "text": "Disorderlies | Pape Ave &amp; Rivercourt Blvd [54 Div.] 07/24 02:08 #Old_East_York #Toronto", "created_at": "Sun Jul 24 06:13:02 +0000 2016", "time": 1469340771.209492, "tid": 757096232162557953, "nei_num": "058"}}, {"geometry": {"type": "Point", "coordinates": [-79.3416638, 43.6912006]}, "type": "Feature", "id": 757214405658484736, "properties": {"loc": [-79.3416638, 43.6912006], "screen_name": "tmj_gta_jobs", "text": "See our latest #EastYork, ON #job and click to apply: shift supervisor - https://t.co/eGZCmHv5yR #Veterans #Hiring #CareerArc", "created_at": "Sun Jul 24 14:02:37 +0000 2016", "time": 1469368945.989534, "tid": 757214405658484736, "nei_num": "058"}}, {"geometry": {"type": "Point", "coordinates": [-79.3416638, 43.6912006]}, "type": "Feature", "id": 757331934955511808, "properties": {"loc": [-79.3416638, 43.6912006], "screen_name": "tmj_gta_jobs", "text": "We're #hiring! Click to apply: shift supervisor - https://t.co/iwYn65CcJv #Job #EastYork, ON #Veterans #Jobs #CareerArc", "created_at": "Sun Jul 24 21:49:38 +0000 2016", "time": 1469396967.086706, "tid": 757331934955511808, "nei_num": "058"}}, {"geometry": {"type": "Point", "coordinates": [-79.3344912, 43.7028794]}, "type": "Feature", "id": 757358744233734145, "properties": {"loc": [-79.3344912, 43.7028794], "screen_name": "tofire", "text": "Water Problem - Thorncliffe Park Dr b/w West Don River Trail / Overlea Boulevard, East York (2 Trucks)", "created_at": "Sun Jul 24 23:36:10 +0000 2016", "time": 1469403358.829652, "tid": 757358744233734145, "nei_num": "058"}}, {"geometry": {"type": "Point", "coordinates": [-79.3344912, 43.7028794]}, "type": "Feature", "id": 757358745064177664, "properties": {"loc": [-79.3344912, 43.7028794], "screen_name": "tofireS", "text": "Water Problem - Thorncliffe Park Dr b/w West Don River Trail / Overlea Boulevard, East York (2 Trucks)", "created_at": "Sun Jul 24 23:36:10 +0000 2016", "time": 1469403358.993761, "tid": 757358745064177664, "nei_num": "058"}}, {"geometry": {"type": "Point", "coordinates": [-79.3344912, 43.7028794]}, "type": "Feature", "id": 757359975559733248, "properties": {"loc": [-79.3344912, 43.7028794], "screen_name": "tofire", "text": "UD: Water Problem - Thorncliffe Park Dr b/w West Don River Trail / Overlea Boulevard, East York (3 Trucks)", "created_at": "Sun Jul 24 23:41:03 +0000 2016", "time": 1469403652.466472, "tid": 757359975559733248, "nei_num": "058"}}, {"geometry": {"type": "Point", "coordinates": [-79.3344912, 43.7028794]}, "type": "Feature", "id": 757359976830623744, "properties": {"loc": [-79.3344912, 43.7028794], "screen_name": "tofireS", "text": "UD: Water Problem - Thorncliffe Park Dr b/w West Don River Trail / Overlea Boulevard, East York (3 Trucks)", "created_at": "Sun Jul 24 23:41:04 +0000 2016", "time": 1469403652.714574, "tid": 757359976830623744, "nei_num": "058"}}, {"geometry": {"type": "Point", "coordinates": [-79.3208263, 43.6918323]}, "type": "Feature", "id": 757367272822415361, "properties": {"loc": [-79.3208263, 43.6918323], "screen_name": "tpscalls", "text": "Break &amp; Enter | Roblin Ave &amp; Glebemount Ave [54 Div.] 07/24 20:05 #Woodbine_Heights #Toronto", "created_at": "Mon Jul 25 00:10:03 +0000 2016", "time": 1469405392.178792, "tid": 757367272822415361, "nei_num": "058"}}, {"geometry": {"type": "Point", "coordinates": [-79.3416638, 43.6912006]}, "type": "Feature", "id": 757387417162620928, "properties": {"loc": [-79.3416638, 43.6912006], "screen_name": "rentboard", "text": "East York Apartments for rent on RentBoard.ca https://t.co/fYZIdFP98K", "created_at": "Mon Jul 25 01:30:06 +0000 2016", "time": 1469410195.006569, "tid": 757387417162620928, "nei_num": "058"}}, {"geometry": {"type": "Point", "coordinates": [-79.34014396, 43.69553421]}, "type": "Feature", "id": 757407592272363520, "properties": {"loc": [-79.34014396, 43.69553421], "screen_name": "CelineGunton", "text": "Truth. #gift #mother #daughter #mug #teaaddicts #davidstea #hallmark #teal #preppy #mom #love\u2026 https://t.co/sl3xz3r1Xn", "created_at": "Mon Jul 25 02:50:16 +0000 2016", "time": 1469415005.135304, "tid": 757407592272363520, "nei_num": "058"}}, {"geometry": {"type": "Point", "coordinates": [-79.3491961, 43.6971729]}, "type": "Feature", "id": 757552237132574720, "properties": {"loc": [-79.3491961, 43.6971729], "screen_name": "tpscalls", "text": "Personal Injury Collision | Pape Ave &amp; Donlands Ave [54 Div.] 07/25 08:20 #Old_East_York #Toronto", "created_at": "Mon Jul 25 12:25:02 +0000 2016", "time": 1469449491.037637, "tid": 757552237132574720, "nei_num": "058"}}, {"geometry": {"type": "Point", "coordinates": [-79.3426696, 43.690607]}, "type": "Feature", "id": 757719845593092096, "properties": {"loc": [-79.3426696, 43.690607], "screen_name": "tpscalls", "text": "Theft Just Occurred | Gowan Ave &amp; Cosburn Ave [54 Div.] 07/25 19:24 #Old_East_York #Toronto", "created_at": "Mon Jul 25 23:31:03 +0000 2016", "time": 1469489452.257904, "tid": 757719845593092096, "nei_num": "058"}}, {"geometry": {"type": "Point", "coordinates": [-79.3250256, 43.6986963]}, "type": "Feature", "id": 757972004070907904, "properties": {"loc": [-79.3250256, 43.6986963], "screen_name": "tpscalls", "text": "Assault | Ventnor Ave &amp; O\\'Connor Dr [54 Div.] 07/26 12:07 #Toronto", "created_at": "Tue Jul 26 16:13:02 +0000 2016", "time": 1469549571.020485, "tid": 757972004070907904, "nei_num": "058"}}, {"geometry": {"type": "Point", "coordinates": [-79.34239, 43.69386]}, "type": "Feature", "id": 757985558979235840, "properties": {"loc": [-79.34239, 43.69386], "screen_name": "mizzsugahkane", "text": "Manulife shoot! #greenscreenfun #awesome #studioshoot #actorslife\u2026 https://t.co/8ysOklM2re", "created_at": "Tue Jul 26 17:06:54 +0000 2016", "time": 1469552802.757239, "tid": 757985558979235840, "nei_num": "058"}}, {"geometry": {"type": "Point", "coordinates": [-79.3426696, 43.690607]}, "type": "Feature", "id": 758023096251060224, "properties": {"loc": [-79.3426696, 43.690607], "screen_name": "tpscalls", "text": "Theft Just Occurred | Gowan Ave &amp; Cosburn Ave [54 Div.] 07/26 15:31 #Old_East_York #Toronto", "created_at": "Tue Jul 26 19:36:04 +0000 2016", "time": 1469561752.325179, "tid": 758023096251060224, "nei_num": "058"}}, {"geometry": {"type": "Point", "coordinates": [-79.32786, 43.69098]}, "type": "Feature", "id": 758040037518897152, "properties": {"loc": [-79.32786, 43.69098], "screen_name": "adriandoran", "text": "Primetime for local blueberries. @ East York Farmers' Market https://t.co/nTgCYieYRp", "created_at": "Tue Jul 26 20:43:23 +0000 2016", "time": 1469565791.440563, "tid": 758040037518897152, "nei_num": "058"}}, {"geometry": {"type": "Point", "coordinates": [-79.3416638, 43.6912006]}, "type": "Feature", "id": 758048592284164096, "properties": {"loc": [-79.3416638, 43.6912006], "screen_name": "tmj_gta_jobs", "text": "We're #hiring! Read about our latest #job opening here: barista - https://t.co/fc0YGUvpO4 #EastYork, ON #Veterans #CareerArc", "created_at": "Tue Jul 26 21:17:22 +0000 2016", "time": 1469567831.041116, "tid": 758048592284164096, "nei_num": "058"}}, {"geometry": {"type": "Point", "coordinates": [-79.3416638, 43.6912006]}, "type": "Feature", "id": 758112454735831042, "properties": {"loc": [-79.3416638, 43.6912006], "screen_name": "rentboard", "text": "East York Apartments for rent on RentBoard.ca https://t.co/fYZIdFP98K", "created_at": "Wed Jul 27 01:31:08 +0000 2016", "time": 1469583056.947095, "tid": 758112454735831042, "nei_num": "058"}}, {"geometry": {"type": "Point", "coordinates": [-79.34253681, 43.69777777]}, "type": "Feature", "id": 758299905119051776, "properties": {"loc": [-79.34253681, 43.69777777], "screen_name": "JordanRenaud", "text": "Democratic National Convention Kickoff Is a Bigger Draw Than GOP Confab, via @AdAge: https://t.co/zy5WKzLcgm", "created_at": "Wed Jul 27 13:56:00 +0000 2016", "time": 1469627748.524343, "tid": 758299905119051776, "nei_num": "058"}}, {"geometry": {"type": "Point", "coordinates": [-79.34253681, 43.69777777]}, "type": "Feature", "id": 758300294107111424, "properties": {"loc": [-79.34253681, 43.69777777], "screen_name": "JordanRenaud", "text": "Who would have thought that authentic history, hope, and vision for the future would make for good TV? #DemsinPhilly #TuneIn", "created_at": "Wed Jul 27 13:57:33 +0000 2016", "time": 1469627841.39069, "tid": 758300294107111424, "nei_num": "058"}}, {"geometry": {"type": "Point", "coordinates": [-79.34239, 43.69386]}, "type": "Feature", "id": 758301646526910464, "properties": {"loc": [-79.34239, 43.69386], "screen_name": "BissonCsc", "text": "A rare moment!!! @ Pie In The Sky Studios https://t.co/mKjjonve53", "created_at": "Wed Jul 27 14:02:55 +0000 2016", "time": 1469628163.684989, "tid": 758301646526910464, "nei_num": "058"}}, {"geometry": {"type": "Point", "coordinates": [-79.3416638, 43.6912006]}, "type": "Feature", "id": 758353112255991808, "properties": {"loc": [-79.3416638, 43.6912006], "screen_name": "tmj_gta_jobs", "text": "Want to work at Starbucks? We're #hiring in #EastYork, ON! Click for details: https://t.co/T6hqR2Z86n #Job #Veterans #Jobs #CareerArc", "created_at": "Wed Jul 27 17:27:26 +0000 2016", "time": 1469640434.063462, "tid": 758353112255991808, "nei_num": "058"}}, {"geometry": {"type": "Point", "coordinates": [-79.3416638, 43.6912006]}, "type": "Feature", "id": 758368238115762176, "properties": {"loc": [-79.3416638, 43.6912006], "screen_name": "tmj_gta_jobs", "text": "We're #hiring! Click to apply: barista - https://t.co/9MsMohVSeh #Job #EastYork, ON #Veterans #Jobs #CareerArc", "created_at": "Wed Jul 27 18:27:32 +0000 2016", "time": 1469644040.328864, "tid": 758368238115762176, "nei_num": "058"}}, {"geometry": {"type": "Point", "coordinates": [-79.32491, 43.68982]}, "type": "Feature", "id": 758395728381218816, "properties": {"loc": [-79.32491, 43.68982], "screen_name": "AnneMarieClune", "text": "The benefits of owning your own company (#thetalentco ) is being able to do your corporate\u2026 https://t.co/Vn7L1GXOfj", "created_at": "Wed Jul 27 20:16:46 +0000 2016", "time": 1469650594.438016, "tid": 758395728381218816, "nei_num": "058"}}, {"geometry": {"type": "Point", "coordinates": [-79.32798132, 43.69407049]}, "type": "Feature", "id": 758423041789530113, "properties": {"loc": [-79.32798132, 43.69407049], "screen_name": "BarryTheBazman", "text": "Band food. (@ Diamond Corner) https://t.co/6WVELc6f7c", "created_at": "Wed Jul 27 22:05:18 +0000 2016", "time": 1469657106.512559, "tid": 758423041789530113, "nei_num": "058"}}, {"geometry": {"type": "Point", "coordinates": [-79.3290863, 43.6960793]}, "type": "Feature", "id": 758461226837954560, "properties": {"loc": [-79.3290863, 43.6960793], "screen_name": "foodpages", "text": "#LICKADEE SPLIT ICE CREAM SHOPPE #Toronto https://t.co/4mvCIH4pDw Excellent https://t.co/8uasrsxqpt", "created_at": "Thu Jul 28 00:37:02 +0000 2016", "time": 1469666210.797582, "tid": 758461226837954560, "nei_num": "058"}}, {"geometry": {"type": "Point", "coordinates": [-79.3491814, 43.6903736]}, "type": "Feature", "id": 758486145026129922, "properties": {"loc": [-79.3491814, 43.6903736], "screen_name": "tpscalls", "text": "Dispute | Cosburn Ave &amp; Gamble Ave [54 Div.] 07/27 22:09 #Old_East_York #Toronto", "created_at": "Thu Jul 28 02:16:03 +0000 2016", "time": 1469672151.352218, "tid": 758486145026129922, "nei_num": "058"}}, {"geometry": {"type": "Point", "coordinates": [-79.3208263, 43.6918323]}, "type": "Feature", "id": 758616754235006976, "properties": {"loc": [-79.3208263, 43.6918323], "screen_name": "tpscalls", "text": "Noise Complaint | Woodington Ave &amp; Glebemount Ave [54 Div.] 07/28 06:49 #Woodbine_Heights #Toronto", "created_at": "Thu Jul 28 10:55:03 +0000 2016", "time": 1469703290.929717, "tid": 758616754235006976, "nei_num": "058"}}, {"geometry": {"type": "Point", "coordinates": [-79.32491, 43.68982]},