{"type": "FeatureCollection", "features": [{"geometry": {"type": "Point", "coordinates": [-79.39278, 43.670155]}, "type": "Feature", "id": 705045012333998080, "properties": {"loc": [-79.39278, 43.670155], "centroid": [-79.415950171687, 43.63196481779232], "screen_name": "primaryresponse", "time": 1456948804.0, "tid": 705045012333998080, "text": "FT/PT - Casual Security Guard - High Profile Positions Toronto #job #hiring https://t.co/RvWQTFnV60", "created_at": "Wed Mar 02 15:00:04 +0000 2016", "klabel": 0}}, {"geometry": {"type": "Point", "coordinates": [-79.3919437, 43.66924437]}, "type": "Feature", "id": 705050456804950016, "properties": {"loc": [-79.3919437, 43.66924437], "centroid": [-79.415950171687, 43.63196481779232], "screen_name": "GracieCarroll", "time": 1456950102.0, "tid": 705050456804950016, "text": "A bit of early morning shopping at coach! So excited for my new #saddlebag for spring!! \ud83d\udc9a\ud83c\udf38\ud83c\udf3c\ud83c\udf39\ud83c\udf37\ud83d\udc99\u2026 https://t.co/1Iw7qMqXYB", "created_at": "Wed Mar 02 15:21:42 +0000 2016", "klabel": 0}}, {"geometry": {"type": "Point", "coordinates": [-79.3861, 43.6731]}, "type": "Feature", "id": 705052043057221632, "properties": {"loc": [-79.3861, 43.6731], "centroid": [-79.415950171687, 43.63196481779232], "screen_name": "TTLastSpring", "time": 1456950480.0, "tid": 705052043057221632, "text": "I am quite familiar with European techniques but I use them as supporting techniques to record my vision.", "created_at": "Wed Mar 02 15:28:00 +0000 2016", "klabel": 0}}, {"geometry": {"type": "Point", "coordinates": [-79.39626032, 43.67422296]}, "type": "Feature", "id": 705054671363117058, "properties": {"loc": [-79.39626032, 43.67422296], "centroid": [-79.415950171687, 43.63196481779232], "screen_name": "modestoriesca", "time": 1456951107.0, "tid": 705054671363117058, "text": "A hint of spring on this snowy Wednesday in Toronto. @ Flower Markets https://t.co/voL8rMygqd", "created_at": "Wed Mar 02 15:38:27 +0000 2016", "klabel": 0}}, {"geometry": {"type": "Point", "coordinates": [-79.3897099, 43.67162]}, "type": "Feature", "id": 705057497938325504, "properties": {"loc": [-79.3897099, 43.67162], "centroid": [-79.415950171687, 43.63196481779232], "screen_name": "DufourAurelien", "time": 1456951781.0, "tid": 705057497938325504, "text": "#charcuterie #pateencroute #tourte #chefstalk #toronto @dineto @fstoronto @ Four Seasons Hotel\u2026 https://t.co/0y9MHd4X8k", "created_at": "Wed Mar 02 15:49:41 +0000 2016", "klabel": 0}}, {"geometry": {"type": "Point", "coordinates": [-79.3861, 43.6731]}, "type": "Feature", "id": 705060847773753344, "properties": {"loc": [-79.3861, 43.6731], "centroid": [-79.415950171687, 43.63196481779232], "screen_name": "TTLastSpring", "time": 1456952580.0, "tid": 705060847773753344, "text": "21 days before I go up North. Follow the Journal of My Last Spring of 1917. #TomThomson\u00a0https://t.co/zXyT7oFj9y", "created_at": "Wed Mar 02 16:03:00 +0000 2016", "klabel": 0}}, {"geometry": {"type": "Point", "coordinates": [-79.3863049, 43.6706202]}, "type": "Feature", "id": 705061002782445569, "properties": {"loc": [-79.3863049, 43.6706202], "centroid": [-79.415950171687, 43.63196481779232], "screen_name": "tmj_gta_hrta", "time": 1456952617.0, "tid": 705061002782445569, "text": "Can you recommend anyone for this #job? Shift Supervisor (CA) - https://t.co/VZvOljLC9u #Hospitality #Veterans #Hiring #CareerArc", "created_at": "Wed Mar 02 16:03:37 +0000 2016", "klabel": 0}}, {"geometry": {"type": "Point", "coordinates": [-79.3884645, 43.6697589]}, "type": "Feature", "id": 705063553007398912, "properties": {"loc": [-79.3884645, 43.6697589], "centroid": [-79.415950171687, 43.63196481779232], "screen_name": "tmj_gta_hrta", "time": 1456953225.0, "tid": 705063553007398912, "text": "This #Hospitality #job might be a great fit for you: Shift Supervisor (CA) - https://t.co/LLKdlSP2Ox 55 BLOOR ST W, #TORONTO, ON #Veterans", "created_at": "Wed Mar 02 16:13:45 +0000 2016", "klabel": 0}}, {"geometry": {"type": "Point", "coordinates": [-79.39111111, 43.67027778]}, "type": "Feature", "id": 705067751270842368, "properties": {"loc": [-79.39111111, 43.67027778], "centroid": [-79.415950171687, 43.63196481779232], "screen_name": "thenewgirldar", "time": 1456954226.0, "tid": 705067751270842368, "text": "Missing last Sunday's weather! \ud83d\udc90 pls bring back spring like weather #torontolife #thenewgirl\u2026 https://t.co/FNUoMBUW4q", "created_at": "Wed Mar 02 16:30:26 +0000 2016", "klabel": 0}}, {"geometry": {"type": "Point", "coordinates": [-79.3872358, 43.6704433]}, "type": "Feature", "id": 705087329501728768, "properties": {"loc": [-79.3872358, 43.6704433], "centroid": [-79.415950171687, 43.63196481779232], "screen_name": "CIBCcareers", "time": 1456958893.0, "tid": 705087329501728768, "text": "Can you recommend anyone for this #job? Senior Financial Advisor - https://t.co/24vSbyME3v #cibc #cibcjobs #Toronto, Ontario #Sales #Hiring", "created_at": "Wed Mar 02 17:48:13 +0000 2016", "klabel": 0}}, {"geometry": {"type": "Point", "coordinates": [-79.3861, 43.6731]}, "type": "Feature", "id": 705088530352050176, "properties": {"loc": [-79.3861, 43.6731], "centroid": [-79.415950171687, 43.63196481779232], "screen_name": "TTLastSpring", "time": 1456959180.0, "tid": 705088530352050176, "text": "Painting by moonlight in the bush is easier than painting on a canvas in a studio.", "created_at": "Wed Mar 02 17:53:00 +0000 2016", "klabel": 0}}, {"geometry": {"type": "Point", "coordinates": [-79.38607, 43.668648]}, "type": "Feature", "id": 705091759773130752, "properties": {"loc": [-79.38607, 43.668648], "centroid": [-79.415950171687, 43.63196481779232], "screen_name": "tmj_gta_hrta", "time": 1456959950.0, "tid": 705091759773130752, "text": "Can you recommend anyone for this #job? Shift Supervisor (CA) - https://t.co/wawRjeCIPn 675 YONGE STREET, #TORONTO, ON #Hospitality #Hiring", "created_at": "Wed Mar 02 18:05:50 +0000 2016", "klabel": 0}}, {"geometry": {"type": "Point", "coordinates": [-79.3897099, 43.67162]}, "type": "Feature", "id": 705091820997451778, "properties": {"loc": [-79.3897099, 43.67162], "centroid": [-79.415950171687, 43.63196481779232], "screen_name": "GlamAllure", "time": 1456959964.0, "tid": 705091820997451778, "text": "#morningbreakfast#day2@sisley@fstoronto holtsbloor @ Four Seasons Hotel Toronto https://t.co/TdcEaE7r5v", "created_at": "Wed Mar 02 18:06:04 +0000 2016", "klabel": 0}}, {"geometry": {"type": "Point", "coordinates": [-79.39386, 43.67542]}, "type": "Feature", "id": 705103277294276608, "properties": {"loc": [-79.39386, 43.67542], "centroid": [-79.415950171687, 43.63196481779232], "screen_name": "BKR_ent", "time": 1456962696.0, "tid": 705103277294276608, "text": "#the6ix @ The 6ix https://t.co/00AgT6RmZU", "created_at": "Wed Mar 02 18:51:36 +0000 2016", "klabel": 0}}, {"geometry": {"type": "Point", "coordinates": [-79.388293, 43.673003]}, "type": "Feature", "id": 705111722915471361, "properties": {"loc": [-79.388293, 43.673003], "centroid": [-79.415950171687, 43.63196481779232], "screen_name": "michaelbathurst", "time": 1456964709.0, "tid": 705111722915471361, "text": "The sun is very powerful today. I love the joy that can be found when you have the warmth of sun\u2026 https://t.co/snCFYGZ1wv", "created_at": "Wed Mar 02 19:25:09 +0000 2016", "klabel": 0}}, {"geometry": {"type": "Point", "coordinates": [-79.3866272, 43.6718788]}, "type": "Feature", "id": 705118043354038272, "properties": {"loc": [-79.3866272, 43.6718788], "centroid": [-79.415950171687, 43.63196481779232], "screen_name": "Aikenstyles", "time": 1456966216.0, "tid": 705118043354038272, "text": "Aiken Heart Films associate producer Emma Wardle at OMDC Page to\u2026 https://t.co/XmBZbZCHSN", "created_at": "Wed Mar 02 19:50:16 +0000 2016", "klabel": 0}}, {"geometry": {"type": "Point", "coordinates": [-79.3861, 43.6731]}, "type": "Feature", "id": 705121303133614080, "properties": {"loc": [-79.3861, 43.6731], "centroid": [-79.415950171687, 43.63196481779232], "screen_name": "TTLastSpring", "time": 1456966993.0, "tid": 705121303133614080, "text": "Florence is leaving for Ottawa today. She plans to see Eric Brown @gallerydotca She may visit me in the Park in the spring", "created_at": "Wed Mar 02 20:03:13 +0000 2016", "klabel": 0}}, {"geometry": {"type": "Point", "coordinates": [-79.3897099, 43.67162]}, "type": "Feature", "id": 705123970786451456, "properties": {"loc": [-79.3897099, 43.67162], "centroid": [-79.415950171687, 43.63196481779232], "screen_name": "GlamAllure", "time": 1456967629.0, "tid": 705123970786451456, "text": "vivejellybean Our  lovely, beautiful , talented  aesthetician We all love her \ud83d\udc9c @ Four Seasons\u2026 https://t.co/PoHI89qri9", "created_at": "Wed Mar 02 20:13:49 +0000 2016", "klabel": 0}}, {"geometry": {"type": "Point", "coordinates": [-79.391002, 43.6693945]}, "type": "Feature", "id": 705143165100150784, "properties": {"loc": [-79.391002, 43.6693945], "centroid": [-79.415950171687, 43.63196481779232], "screen_name": "tofireS", "time": 1456972206.0, "tid": 705143165100150784, "text": "Medical (Unconscious) - Bloor St b/w St Thomas St / Avenue Road, Toronto (2 Trucks)", "created_at": "Wed Mar 02 21:30:06 +0000 2016", "klabel": 0}}, {"geometry": {"type": "Point", "coordinates": [-79.387055, 43.6709994]}, "type": "Feature", "id": 705148135828381696, "properties": {"loc": [-79.387055, 43.6709994], "centroid": [-79.415950171687, 43.63196481779232], "screen_name": "tmj_gta_hrta", "time": 1456973391.0, "tid": 705148135828381696, "text": "Can you recommend anyone for this #job? Shift Supervisor (CA) - https://t.co/DR1Ks1AYiP 765 YONGE STREET, #TORONTO, ON #Hospitality #Hiring", "created_at": "Wed Mar 02 21:49:51 +0000 2016", "klabel": 0}}, {"geometry": {"type": "Point", "coordinates": [-79.3906906, 43.668659]}, "type": "Feature", "id": 705151968331825152, "properties": {"loc": [-79.3906906, 43.668659], "centroid": [-79.415950171687, 43.63196481779232], "screen_name": "tofireS", "time": 1456974304.0, "tid": 705151968331825152, "text": "Alarm Highrise Residential Downtown - St Thomas St b/w Sultan St / Bloor St West, Toronto (2 Trucks)", "created_at": "Wed Mar 02 22:05:04 +0000 2016", "klabel": 0}}, {"geometry": {"type": "Point", "coordinates": [-79.3906906, 43.668659]}, "type": "Feature", "id": 705154732462096384, "properties": {"loc": [-79.3906906, 43.668659], "centroid": [-79.415950171687, 43.63196481779232], "screen_name": "tofire", "time": 1456974964.0, "tid": 705154732462096384, "text": "UD: Alarm Highrise Residential Downtown - St Thomas St b/w Sultan St / Bloor St West, Toronto (6 Trucks)", "created_at": "Wed Mar 02 22:16:04 +0000 2016", "klabel": 0}}, {"geometry": {"type": "Point", "coordinates": [-79.3861, 43.6731]}, "type": "Feature", "id": 705155959740637185, "properties": {"loc": [-79.3861, 43.6731], "centroid": [-79.415950171687, 43.63196481779232], "screen_name": "TTLastSpring", "time": 1456975256.0, "tid": 705155959740637185, "text": "Dr GW Howland: There was some bleeding from right ear, cause of death drowning. Solve the mystery  #TomThomson", "created_at": "Wed Mar 02 22:20:56 +0000 2016", "klabel": 0}}, {"geometry": {"type": "Point", "coordinates": [-79.39057589, 43.68005475]}, "type": "Feature", "id": 705160863989284864, "properties": {"loc": [-79.39057589, 43.68005475], "centroid": [-79.415950171687, 43.63196481779232], "screen_name": "andraspapp", "time": 1456976425.0, "tid": 705160863989284864, "text": "I'm at Terroni in Toronto, ON https://t.co/B580oqcWmC", "created_at": "Wed Mar 02 22:40:25 +0000 2016", "klabel": 0}}, {"geometry": {"type": "Point", "coordinates": [-79.3861, 43.6731]}, "type": "Feature", "id": 705161512684490753, "properties": {"loc": [-79.3861, 43.6731], "centroid": [-79.415950171687, 43.63196481779232], "screen_name": "TTLastSpring", "time": 1456976580.0, "tid": 705161512684490753, "text": "I don`t have the sketches this year but next year I want to paint a grand canvas of the aurora borealis.", "created_at": "Wed Mar 02 22:43:00 +0000 2016", "klabel": 0}}, {"geometry": {"type": "Point", "coordinates": [-79.378, 43.679]}, "type": "Feature", "id": 705170919430496256, "properties": {"loc": [-79.378, 43.679], "centroid": [-79.415950171687, 43.63196481779232], "screen_name": "HBstyle_", "time": 1456978823.0, "tid": 705170919430496256, "text": "I love the look of this range #bertazzoni as it is flush with counters. Who wouldn't want to\u2026 https://t.co/IIR0oQE8Mt", "created_at": "Wed Mar 02 23:20:23 +0000 2016", "klabel": 0}}, {"geometry": {"type": "Point", "coordinates": [-79.3861, 43.6731]}, "type": "Feature", "id": 705191711694299136, "properties": {"loc": [-79.3861, 43.6731], "centroid": [-79.415950171687, 43.63196481779232], "screen_name": "TTLastSpring", "time": 1456983780.0, "tid": 705191711694299136, "text": "I like to paint with huge brushstrokes to discourage the critics from coming too close to my paintings.", "created_at": "Thu Mar 03 00:43:00 +0000 2016", "klabel": 0}}, {"geometry": {"type": "Point", "coordinates": [-79.39279, 43.67015]}, "type": "Feature", "id": 705192249626218497, "properties": {"loc": [-79.39279, 43.67015], "centroid": [-79.415950171687, 43.63196481779232], "screen_name": "HemingwaysTO", "time": 1456983908.0, "tid": 705192249626218497, "text": "#hemsapparel officially launched,  watch this space for online catalogue,  available now at the\u2026 https://t.co/H3Y0zL7Dyk", "created_at": "Thu Mar 03 00:45:08 +0000 2016", "klabel": 0}}, {"geometry": {"type": "Point", "coordinates": [-79.3861, 43.6731]}, "type": "Feature", "id": 705200510656073728, "properties": {"loc": [-79.3861, 43.6731], "centroid": [-79.415950171687, 43.63196481779232], "screen_name": "TTLastSpring", "time": 1456985878.0, "tid": 705200510656073728, "text": "Jim MacDonald taught me the importance of design, the use of the decorative as form", "created_at": "Thu Mar 03 01:17:58 +0000 2016", "klabel": 0}}, {"geometry": {"type": "Point", "coordinates": [-79.39111111, 43.67027778]}, "type": "Feature", "id": 705201739675406337, "properties": {"loc": [-79.39111111, 43.67027778], "centroid": [-79.415950171687, 43.63196481779232], "screen_name": "wacky_emman", "time": 1456986171.0, "tid": 705201739675406337, "text": "Olives #EVOO #Toronto #yorkville #conciergeapproved @ Yorkville, Toronto https://t.co/jCzJ8lOIgE", "created_at": "Thu Mar 03 01:22:51 +0000 2016", "klabel": 0}}, {"geometry": {"type": "Point", "coordinates": [-79.38842207, 43.67102239]}, "type": "Feature", "id": 705203836940644352, "properties": {"loc": [-79.38842207, 43.67102239], "centroid": [-79.415950171687, 43.63196481779232], "screen_name": "jennweatherhead", "time": 1456986671.0, "tid": 705203836940644352, "text": "I'm at The Pilot Tavern in Toronto, ON https://t.co/lvLiuc2ECX", "created_at": "Thu Mar 03 01:31:11 +0000 2016", "klabel": 0}}, {"geometry": {"type": "Point", "coordinates": [-79.3906021, 43.6800842]}, "type": "Feature", "id": 705209807205244930, "properties": {"loc": [-79.3906021, 43.6800842], "centroid": [-79.415950171687, 43.63196481779232], "screen_name": "SandraDS27", "time": 1456988094.0, "tid": 705209807205244930, "text": "The perfect way to end your Wednesday? A delish dins at @terronito \ud83d\ude0a #Toronto #italian #italia\u2026 https://t.co/SLIfQ2P3Ym", "created_at": "Thu Mar 03 01:54:54 +0000 2016", "klabel": 0}}, {"geometry": {"type": "Point", "coordinates": [-79.39057075, 43.66970798]}, "type": "Feature", "id": 705216561406201860, "properties": {"loc": [-79.39057075, 43.66970798], "centroid": [-79.415950171687, 43.63196481779232], "screen_name": "Faustin25", "time": 1456989705.0, "tid": 705216561406201860, "text": "Living the Nightlife #weekendwear #menswear #versace #nightout #style #modern #look #party\u2026 https://t.co/bVIRHBMNbp", "created_at": "Thu Mar 03 02:21:45 +0000 2016", "klabel": 0}}, {"geometry": {"type": "Point", "coordinates": [-79.39111111, 43.67027778]}, "type": "Feature", "id": 705219365281665024, "properties": {"loc": [-79.39111111, 43.67027778], "centroid": [-79.415950171687, 43.63196481779232], "screen_name": "lauralaeme", "time": 1456990373.0, "tid": 705219365281665024, "text": "Winter vibes\u2744\ufe0f #toronto #torontotrip @ Yorkville, Toronto https://t.co/tAJQqfoDqW", "created_at": "Thu Mar 03 02:32:53 +0000 2016", "klabel": 0}}, {"geometry": {"type": "Point", "coordinates": [-79.3861, 43.6731]}, "type": "Feature", "id": 705226945819222016, "properties": {"loc": [-79.3861, 43.6731], "centroid": [-79.415950171687, 43.63196481779232], "screen_name": "TTLastSpring", "time": 1456992181.0, "tid": 705226945819222016, "text": "Jackson gave me the tools for new expression. But even he was concerned I was going too far.", "created_at": "Thu Mar 03 03:03:01 +0000 2016", "klabel": 0}}, {"geometry": {"type": "Point", "coordinates": [-79.39386, 43.67542]}, "type": "Feature", "id": 705230737474199552, "properties": {"loc": [-79.39386, 43.67542], "centroid": [-79.415950171687, 43.63196481779232], "screen_name": "thatwayimove", "time": 1456993085.0, "tid": 705230737474199552, "text": "@torylanez x foreverumbrella x \ud83c\udfac@jyothitatter Just #Oneday @ The 6ix https://t.co/va73jLOAzt", "created_at": "Thu Mar 03 03:18:05 +0000 2016", "klabel": 0}}, {"geometry": {"type": "Point", "coordinates": [-79.39111111, 43.67027778]}, "type": "Feature", "id": 705234034356527105, "properties": {"loc": [-79.39111111, 43.67027778], "centroid": [-79.415950171687, 43.63196481779232], "screen_name": "AndrewAwesome76", "time": 1456993871.0, "tid": 705234034356527105, "text": "This just happened to be in the #snow downtown. #pickaxe #winter #Toronto @ Yorkville, Toronto https://t.co/sWM5tlmcHc", "created_at": "Thu Mar 03 03:31:11 +0000 2016", "klabel": 0}}, {"geometry": {"type": "Point", "coordinates": [-79.3951492, 43.67202]}, "type": "Feature", "id": 705235081917501441, "properties": {"loc": [-79.3951492, 43.67202], "centroid": [-79.415950171687, 43.63196481779232], "screen_name": "devjohnson", "time": 1456994120.0, "tid": 705235081917501441, "text": "Fitting in a late night workout. \ud83d\udcaa\ud83c\udffc #committosomething #equinox @ Equinox Yorkville https://t.co/nCen39NYMq", "created_at": "Thu Mar 03 03:35:20 +0000 2016", "klabel": 0}}, {"geometry": {"type": "Point", "coordinates": [-79.3861, 43.6731]}, "type": "Feature", "id": 705252107398619136, "properties": {"loc": [-79.3861, 43.6731], "centroid": [-79.415950171687, 43.63196481779232], "screen_name": "TTLastSpring", "time": 1456998180.0, "tid": 705252107398619136, "text": "The lack of harmony of technique in a painting can give it power.", "created_at": "Thu Mar 03 04:43:00 +0000 2016", "klabel": 0}}, {"geometry": {"type": "Point", "coordinates": [-79.3906021, 43.6800842]}, "type": "Feature", "id": 705286943597199360, "properties": {"loc": [-79.3906021, 43.6800842], "centroid": [-79.415950171687, 43.63196481779232], "screen_name": "giver110", "time": 1457006485.0, "tid": 705286943597199360, "text": "R&amp;D: \"The Governor\" \ud83d\udc82\ud83c\udffb @ Terroni - Price St https://t.co/gPeqGzZmgc", "created_at": "Thu Mar 03 07:01:25 +0000 2016", "klabel": 0}}, {"geometry": {"type": "Point", "coordinates": [-79.3861, 43.6731]}, "type": "Feature", "id": 705360328717156352, "properties": {"loc": [-79.3861, 43.6731], "centroid": [-79.415950171687, 43.63196481779232], "screen_name": "TTLastSpring", "time": 1457023981.0, "tid": 705360328717156352, "text": "I was painting Nature but more accurately, I was painting the recent devastation by mankind.", "created_at": "Thu Mar 03 11:53:01 +0000 2016", "klabel": 0}}, {"geometry": {"type": "Point", "coordinates": [-79.3856451, 43.6703361]}, "type": "Feature", "id": 705376759437357056, "properties": {"loc": [-79.3856451, 43.6703361], "centroid": [-79.415950171687, 43.63196481779232], "screen_name": "tmj_gta_art", "time": 1457027899.0, "tid": 705376759437357056, "text": "This #Art #job might be a great fit for you: Graphic Designer - https://t.co/Q3BDxrKKFs #Toronto, ON #Hiring #CareerArc", "created_at": "Thu Mar 03 12:58:19 +0000 2016", "klabel": 0}}, {"geometry": {"type": "Point", "coordinates": [-79.3868, 43.6702]}, "type": "Feature", "id": 705378459955142656, "properties": {"loc": [-79.3868, 43.6702], "centroid": [-79.415950171687, 43.63196481779232], "screen_name": "kartenquizde", "time": 1457028304.0, "tid": 705378459955142656, "text": "Wo liegt Toronto? https://t.co/A4G5zW5anS #Toronto #quiz", "created_at": "Thu Mar 03 13:05:04 +0000 2016", "klabel": 0}}, {"geometry": {"type": "Point", "coordinates": [-79.3861, 43.6731]}, "type": "Feature", "id": 705381709555044352, "properties": {"loc": [-79.3861, 43.6731], "centroid": [-79.415950171687, 43.63196481779232], "screen_name": "TTLastSpring", "time": 1457029079.0, "tid": 705381709555044352, "text": "If it was a rainy day, I would stay in camp, clean my pipes and read the Compleat Angler by Izaak Walton.", "created_at": "Thu Mar 03 13:17:59 +0000 2016", "klabel": 0}}, {"geometry": {"type": "Point", "coordinates": [-79.3846857, 43.67073187]}, "type": "Feature", "id": 705390437062864896, "properties": {"loc": [-79.3846857, 43.67073187], "centroid": [-79.415950171687, 43.63196481779232], "screen_name": "tylerhhan", "time": 1457031160.0, "tid": 705390437062864896, "text": "I'm at Presse Cafe in Toronto, Ontario https://t.co/v87WwZZebv", "created_at": "Thu Mar 03 13:52:40 +0000 2016", "klabel": 0}}, {"geometry": {"type": "Point", "coordinates": [-79.3952866, 43.6752014]}, "type": "Feature", "id": 705401888259371009, "properties": {"loc": [-79.3952866, 43.6752014], "centroid": [-79.415950171687, 43.63196481779232], "screen_name": "melissaandre", "time": 1457033890.0, "tid": 705401888259371009, "text": "\ud83d\udd6f\ud83d\udd6f\ud83d\udd6f #MelissaAndreEvents for abelxo #TheWeeknd \ud83d\udd6f\ud83d\udd6f\ud83d\udd6fphoto by: @melissa_dsouza @riperesolution @\u2026 https://t.co/IEYy4mQtqL", "created_at": "Thu Mar 03 14:38:10 +0000 2016", "klabel": 0}}, {"geometry": {"type": "Point", "coordinates": [-79.3897095, 43.6716194]}, "type": "Feature", "id": 705407204535488513, "properties": {"loc": [-79.3897095, 43.6716194], "centroid": [-79.415950171687, 43.63196481779232], "screen_name": "DufourAurelien", "time": 1457035158.0, "tid": 705407204535488513, "text": "#charcuterie #pateencroute #toronto @cafebouludto #chefstalk @fstoronto @ Caf\u00e9 Boulud Toronto &amp;\u2026 https://t.co/T066gfUNG2", "created_at": "Thu Mar 03 14:59:18 +0000 2016", "klabel": 0}}, {"geometry": {"type": "Point", "coordinates": [-79.3861, 43.6731]}, "type": "Feature", "id": 705408136849526784, "properties": {"loc": [-79.3861, 43.6731], "centroid": [-79.415950171687, 43.63196481779232], "screen_name": "TTLastSpring", "time": 1457035380.0, "tid": 705408136849526784, "text": "George 1868, Elizabeth 1869, Henry 1871, Louisa 1873, Minnie 1875 me 1877, Ralph 1880, James 1882-83, Margaret 1884, Fraser 1886", "created_at": "Thu Mar 03 15:03:00 +0000 2016", "klabel": 0}}, {"geometry": {"type": "Point", "coordinates": [-79.3861, 43.6731]}, "type": "Feature", "id": 705425754121707520, "properties": {"loc": [-79.3861, 43.6731], "centroid": [-79.415950171687, 43.63196481779232], "screen_name": "TTLastSpring", "time": 1457039580.0, "tid": 705425754121707520, "text": "I had none of the responsibilities of the older children and none of the affections of the younger. So they say.", "created_at": "Thu Mar 03 16:13:00 +0000 2016", "klabel": 0}}, {"geometry": {"type": "Point", "coordinates": [-79.39057075, 43.66970798]}, "type": "Feature", "id": 705426312291295235, "properties": {"loc": [-79.39057075, 43.66970798], "centroid": [-79.415950171687, 43.63196481779232], "screen_name": "Faustin25", "time": 1457039713.0, "tid": 705426312291295235, "text": "Hand Made Artisan Ties #kiton #thebestofthebestplusone #italiancraftsmanship #luxury #menswear\u2026 https://t.co/OgayNGVecS", "created_at": "Thu Mar 03 16:15:13 +0000 2016", "klabel": 0}}, {"geometry": {"type": "Point", "coordinates": [-79.39057075, 43.66970798]}, "type": "Feature", "id": 705427329183408128, "properties": {"loc": [-79.39057075, 43.66970798], "centroid": [-79.415950171687, 43.63196481779232], "screen_name": "Faustin25", "time": 1457039956.0, "tid": 705427329183408128, "text": "Hand Made Artisan Ties #kiton #ties #luxury #italiancraftsmanship #mensfashion #style #artisan\u2026 https://t.co/BHXsdDxgFD", "created_at": "Thu Mar 03 16:19:16 +0000 2016", "klabel": 0}}, {"geometry": {"type": "Point", "coordinates": [-79.388293, 43.673003]}, "type": "Feature", "id": 705435562392621057, "properties": {"loc": [-79.388293, 43.673003], "centroid": [-79.415950171687, 43.63196481779232], "screen_name": "michaelbathurst", "time": 1457041919.0, "tid": 705435562392621057, "text": "Here is a colourful outfit that whispers retro. We take great pride in the way we look.\u2026 https://t.co/IS36oZvZwS", "created_at": "Thu Mar 03 16:51:59 +0000 2016", "klabel": 0}}, {"geometry": {"type": "Point", "coordinates": [-79.38827, 43.67038]}, "type": "Feature", "id": 705443272148328448, "properties": {"loc": [-79.38827, 43.67038], "centroid": [-79.415950171687, 43.63196481779232], "screen_name": "stephenanthonie", "time": 1457043757.0, "tid": 705443272148328448, "text": "Random nights at clothing launches with randy_inc_  @tynomibanks \n\n#tbt #throwback\u2026 https://t.co/L55DC7Dcey", "created_at": "Thu Mar 03 17:22:37 +0000 2016", "klabel": 0}}, {"geometry": {"type": "Point", "coordinates": [-79.3861, 43.6731]}, "type": "Feature", "id": 705446513426694145, "properties": {"loc": [-79.3861, 43.6731], "centroid": [-79.415950171687, 43.63196481779232], "screen_name": "TTLastSpring", "time": 1457044530.0, "tid": 705446513426694145, "text": "Minnie Henry: Tom dearly loved an argument and generally held his own in a battle of wits Solve the mystery  #TomThomson", "created_at": "Thu Mar 03 17:35:30 +0000 2016", "klabel": 0}}, {"geometry": {"type": "Point", "coordinates": [-79.3861, 43.6731]}, "type": "Feature", "id": 705448402922971136, "properties": {"loc": [-79.3861, 43.6731], "centroid": [-79.415950171687, 43.63196481779232], "screen_name": "TTLastSpring", "time": 1457044980.0, "tid": 705448402922971136, "text": "Brother George said I was not proud of my painting, but cocky about my fishing. Easy for him to say - he couldn`t fish to save a life.", "created_at": "Thu Mar 03 17:43:00 +0000 2016", "klabel": 0}}, {"geometry": {"type": "Point", "coordinates": [-79.3867594, 43.6702259]}, "type": "Feature", "id": 705471574451888128, "properties": {"loc": [-79.3867594, 43.6702259], "centroid": [-79.415950171687, 43.63196481779232], "screen_name": "tofire", "time": 1457050505.0, "tid": 705471574451888128, "text": "UD: Alarm Highrise (Commercial) - Bloor St b/w Yonge St / Park Road, Toronto (6 Trucks)", "created_at": "Thu Mar 03 19:15:05 +0000 2016", "klabel": 0}}, {"geometry": {"type": "Point", "coordinates": [-79.3867594, 43.6702259]}, "type": "Feature", "id": 705471575617892355, "properties": {"loc": [-79.3867594, 43.6702259], "centroid": [-79.415950171687, 43.63196481779232], "screen_name": "tofireS", "time": 1457050505.0, "tid": 705471575617892355, "text": "UD: Alarm Highrise (Commercial) - Bloor St b/w Yonge St / Park Road, Toronto (6 Trucks)", "created_at": "Thu Mar 03 19:15:05 +0000 2016", "klabel": 0}}, {"geometry": {"type": "Point", "coordinates": [-79.38409, 43.67077]}, "type": "Feature", "id": 705475484977668097, "properties": {"loc": [-79.38409, 43.67077], "centroid": [-79.415950171687, 43.63196481779232], "screen_name": "ashani_marie", "time": 1457051437.0, "tid": 705475484977668097, "text": "As a member of the executive team I had the opportunity to speak\u2026 https://t.co/wNMqqSJ2MF", "created_at": "Thu Mar 03 19:30:37 +0000 2016", "klabel": 0}}, {"geometry": {"type": "Point", "coordinates": [-79.3923569, 43.6694519]}, "type": "Feature", "id": 705480219512033280, "properties": {"loc": [-79.3923569, 43.6694519], "centroid": [-79.415950171687, 43.63196481779232], "screen_name": "tmj_gta_retail", "time": 1457052566.0, "tid": 705480219512033280, "text": "TJX Canada: Assistant Manager of Merchandise (#Toronto, ON) https://t.co/kC7GAlhGmi #Retail #Job #Jobs #Hiring #CareerArc", "created_at": "Thu Mar 03 19:49:26 +0000 2016", "klabel": 0}}, {"geometry": {"type": "Point", "coordinates": [-79.38670814, 43.67192259]}, "type": "Feature", "id": 705482713244016640, "properties": {"loc": [-79.38670814, 43.67192259], "centroid": [-79.415950171687, 43.63196481779232], "screen_name": "ViajealaLunaa", "time": 1457053160.0, "tid": 705482713244016640, "text": "I'm at Toronto Public Library - Toronto Reference Library - @torontolibrary in Toronto, ON https://t.co/4VxPM9pgiX https://t.co/cWit6zy4Hk", "created_at": "Thu Mar 03 19:59:20 +0000 2016", "klabel": 0}}, {"geometry": {"type": "Point", "coordinates": [-79.3951492, 43.67202]}, "type": "Feature", "id": 705483563391541248, "properties": {"loc": [-79.3951492, 43.67202], "centroid": [-79.415950171687, 43.63196481779232], "screen_name": "ChivonVella", "time": 1457053363.0, "tid": 705483563391541248, "text": "Plank play.\n#workout #core #shoulders #fitness #sweat #committosomething #trainer #pilates @\u2026 https://t.co/VT7VYUmJ5Y", "created_at": "Thu Mar 03 20:02:43 +0000 2016", "klabel": 0}}, {"geometry": {"type": "Point", "coordinates": [-79.3951492, 43.67202]}, "type": "Feature", "id": 705486227621818369, "properties": {"loc": [-79.3951492, 43.67202], "centroid": [-79.415950171687, 43.63196481779232], "screen_name": "ChivonVella", "time": 1457053998.0, "tid": 705486227621818369, "text": "Booty work. My moving leg starts with the knee spiralled in behind my grounded knee ( internally\u2026 https://t.co/WdvFNNgZ8U", "created_at": "Thu Mar 03 20:13:18 +0000 2016", "klabel": 0}}, {"geometry": {"type": "Point", "coordinates": [-79.38670814, 43.67192259]}, "type": "Feature", "id": 705492257185595392, "properties": {"loc": [-79.38670814, 43.67192259], "centroid": [-79.415950171687, 43.63196481779232], "screen_name": "rwangsa", "time": 1457055436.0, "tid": 705492257185595392, "text": "I'm at Toronto Public Library - Toronto Reference Library in Toronto, ON https://t.co/EiXTQ6WLbq https://t.co/KZiHuwujsg", "created_at": "Thu Mar 03 20:37:16 +0000 2016", "klabel": 0}}, {"geometry": {"type": "Point", "coordinates": [-79.39386, 43.67542]}, "type": "Feature", "id": 705496967145721856, "properties": {"loc": [-79.39386, 43.67542], "centroid": [-79.415950171687, 43.63196481779232], "screen_name": "TroyBlack_", "time": 1457056559.0, "tid": 705496967145721856, "text": "Just posted a video @ The 6ix https://t.co/L1HcdjXNN4", "created_at": "Thu Mar 03 20:55:59 +0000 2016", "klabel": 0}}, {"geometry": {"type": "Point", "coordinates": [-79.38583333, 43.67111111]}, "type": "Feature", "id": 705503947168030720, "properties": {"loc": [-79.38583333, 43.67111111], "centroid": [-79.415950171687, 43.63196481779232], "screen_name": "mellomanoel", "time": 1457058223.0, "tid": 705503947168030720, "text": "#tbt to this babe. \ud83d\udc36\ud83d\udc96 @ Bloor\u2013Yonge https://t.co/E2WBGR5v7W", "created_at": "Thu Mar 03 21:23:43 +0000 2016", "klabel": 0}}, {"geometry": {"type": "Point", "coordinates": [-79.385, 43.6704]}, "type": "Feature", "id": 705518072417927169, "properties": {"loc": [-79.385, 43.6704], "centroid": [-79.415950171687, 43.63196481779232], "screen_name": "redheadednomad", "time": 1457061591.0, "tid": 705518072417927169, "text": "Tastes like Coors Light... - Drinking a Butler's Pale Ale by @firkinpubs at @firkinonbloor  \u2014 https://t.co/t3tO5SDNkl", "created_at": "Thu Mar 03 22:19:51 +0000 2016", "klabel": 0}}, {"geometry": {"type": "Point", "coordinates": [-79.3861, 43.6731]}, "type": "Feature", "id": 705518346163372033, "properties": {"loc": [-79.3861, 43.6731], "centroid": [-79.415950171687, 43.63196481779232], "screen_name": "TTLastSpring", "time": 1457061656.0, "tid": 705518346163372033, "text": "Mark Robinson observed a blow to the temple at the time of medical examination. Solve the mystery  #TomThomson", "created_at": "Thu Mar 03 22:20:56 +0000 2016", "klabel": 0}}, {"geometry": {"type": "Point", "coordinates": [-79.3895193, 43.6769387]}, "type": "Feature", "id": 705525681103499267, "properties": {"loc": [-79.3895193, 43.6769387], "centroid": [-79.415950171687, 43.63196481779232], "screen_name": "tofire", "time": 1457063405.0, "tid": 705525681103499267, "text": "Vehicle (Personal Injury) - Yonge St @ Crescent Road, Toronto (2 Trucks)", "created_at": "Thu Mar 03 22:50:05 +0000 2016", "klabel": 0}}, {"geometry": {"type": "Point", "coordinates": [-79.38691797, 43.67123728]}, "type": "Feature", "id": 705529553700130816, "properties": {"loc": [-79.38691797, 43.67123728], "centroid": [-79.415950171687, 43.63196481779232], "screen_name": "CrisLOou", "time": 1457064328.0, "tid": 705529553700130816, "text": "School school (@ ILAC High Advanced, University Level Building in Toronto, Ontario) https://t.co/naNh8GHfUp", "created_at": "Thu Mar 03 23:05:28 +0000 2016", "klabel": 0}}, {"geometry": {"type": "Point", "coordinates": [-79.38833333, 43.66944444]}, "type": "Feature", "id": 705531745953710080, "properties": {"loc": [-79.38833333, 43.66944444], "centroid": [-79.415950171687, 43.63196481779232], "screen_name": "jhoonetaz", "time": 1457064851.0, "tid": 705531745953710080, "text": "Improving on my endurance...#nopainnogainseries\ud83d\udcaa\ud83c\udffd\ud83c\udfcb\ud83d\udc6f\ud83d\udc83 #runsamsonsrun #newhealthyhabit\ud83c\udfc3\ud83c\udffb\ud83c\udfc3\ud83c\udffb\ud83c\udfc3\ud83c\udffb @\u2026 https://t.co/Hvx0PT1fJ3", "created_at": "Thu Mar 03 23:14:11 +0000 2016", "klabel": 0}}, {"geometry": {"type": "Point", "coordinates": [-79.39386, 43.67542]}, "type": "Feature", "id": 705537076549316608, "properties": {"loc": [-79.39386, 43.67542], "centroid": [-79.415950171687, 43.63196481779232], "screen_name": "pixelpolice", "time": 1457066121.0, "tid": 705537076549316608, "text": "#throwbackthursday to the time me and my cuz use to throw down on the regular. Usually happened\u2026 https://t.co/ptJRXZlIu2", "created_at": "Thu Mar 03 23:35:21 +0000 2016", "klabel": 0}}, {"geometry": {"type": "Point", "coordinates": [-79.3933, 43.67004]}, "type": "Feature", "id": 705539159310471168, "properties": {"loc": [-79.3933, 43.67004], "centroid": [-79.415950171687, 43.63196481779232], "screen_name": "Caplansky", "time": 1457066618.0, "tid": 705539159310471168, "text": "Game on. Future home of Caplansky's Yorkville @ Toni Bulloni https://t.co/GwMUXXYqrq", "created_at": "Thu Mar 03 23:43:38 +0000 2016", "klabel": 0}}, {"geometry": {"type": "Point", "coordinates": [-79.39016, 43.66988]}, "type": "Feature", "id": 705549483250024448, "properties": {"loc": [-79.39016, 43.66988], "centroid": [-79.415950171687, 43.63196481779232], "screen_name": "PopeyeSupsTDot", "time": 1457069079.0, "tid": 705549483250024448, "text": "Gotta love Popeye Dollars making pre-workouts cheaper everyday \ud83d\ude0d\ud83d\ude0d\ud83d\ude0d thx @livy_harper for this.\u2026 https://t.co/Zvori3qthY", "created_at": "Fri Mar 04 00:24:39 +0000 2016", "klabel": 0}}, {"geometry": {"type": "Point", "coordinates": [-79.38816954, 43.66983436]}, "type": "Feature", "id": 705553443314900992, "properties": {"loc": [-79.38816954, 43.66983436], "centroid": [-79.415950171687, 43.63196481779232], "screen_name": "findyourneesh", "time": 1457070024.0, "tid": 705553443314900992, "text": "rocking Audrey for International Women's Day || #IWD2016 #powerfulwomen #besomebody #caweenet @\u2026 https://t.co/L4lZRIWx2E", "created_at": "Fri Mar 04 00:40:24 +0000 2016", "klabel": 0}}, {"geometry": {"type": "Point", "coordinates": [-79.39016, 43.66988]}, "type": "Feature", "id": 705558160581464064, "properties": {"loc": [-79.39016, 43.66988], "centroid": [-79.415950171687, 43.63196481779232], "screen_name": "ToshieMusical", "time": 1457071148.0, "tid": 705558160581464064, "text": "And I still have the number... I forgot to take it off  #postAudition #actorlife #theatre\u2026 https://t.co/bYgeW9dxVJ", "created_at": "Fri Mar 04 00:59:08 +0000 2016", "klabel": 0}}, {"geometry": {"type": "Point", "coordinates": [-79.39057075, 43.66970798]}, "type": "Feature", "id": 705563075601162240, "properties": {"loc": [-79.39057075, 43.66970798], "centroid": [-79.415950171687, 43.63196481779232], "screen_name": "Faustin25", "time": 1457072320.0, "tid": 705563075601162240, "text": "Black &amp; White done Right #sneakers #newarrivals #menswear #fashion #style #hogans #spring\u2026 https://t.co/w9uxqV9ZcZ", "created_at": "Fri Mar 04 01:18:40 +0000 2016", "klabel": 0}}, {"geometry": {"type": "Point", "coordinates": [-79.39386, 43.67542]}, "type": "Feature", "id": 705563535212998656, "properties": {"loc": [-79.39386, 43.67542], "centroid": [-79.415950171687, 43.63196481779232], "screen_name": "pixelpolice", "time": 1457072430.0, "tid": 705563535212998656, "text": "#throwbackthursday to the time I was conceived. 67/366 #doodleadaychallenge #doodleaday\u2026 https://t.co/d28BWdPKKZ", "created_at": "Fri Mar 04 01:20:30 +0000 2016", "klabel": 0}}, {"geometry": {"type": "Point", "coordinates": [-79.3861, 43.6731]}, "type": "Feature", "id": 705575493878284288, "properties": {"loc": [-79.3861, 43.6731], "centroid": [-79.415950171687, 43.63196481779232], "screen_name": "TTLastSpring", "time": 1457075281.0, "tid": 705575493878284288, "text": "I learn that Marion Long is exhibiting a painting titled \"Goldfish Bowl\"", "created_at": "Fri Mar 04 02:08:01 +0000 2016", "klabel": 0}}, {"geometry": {"type": "Point", "coordinates": [-79.3916626, 43.6696014]}, "type": "Feature", "id": 705576795106627584, "properties": {"loc": [-79.3916626, 43.6696014], "centroid": [-79.415950171687, 43.63196481779232], "screen_name": "kidicarus_store", "time": 1457075591.0, "tid": 705576795106627584, "text": "Hi! \ud83d\udc4b\ud83c\udffc Live Screenprinting kitandace tonight with @benjohnston25 \ud83d\udc4a\ud83c\udffc\ud83d\udca5\ud83d\udcaa\ud83c\udffc\u270c\ud83c\udffc\ufe0f @ Kit and Ace https://t.co/TlxUny6oel", "created_at": "Fri Mar 04 02:13:11 +0000 2016", "klabel": 0}}, {"geometry": {"type": "Point", "coordinates": [-79.3916626, 43.6696014]}, "type": "Feature", "id": 705577554745421824, "properties": {"loc": [-79.3916626, 43.6696014], "centroid": [-79.415950171687, 43.63196481779232], "screen_name": "kidicarus_store", "time": 1457075772.0, "tid": 705577554745421824, "text": "Hi! \ud83d\udc4b\ud83c\udffc Live Screenprinting kitandace tonight with @benjohnston25 \ud83d\udc4a\ud83c\udffc\ud83d\udca5\ud83d\udcaa\ud83c\udffc\u270c\ud83c\udffc\ufe0f @ Kit and Ace https://t.co/JNwoOsgoN2", "created_at": "Fri Mar 04 02:16:12 +0000 2016", "klabel": 0}}, {"geometry": {"type": "Point", "coordinates": [-79.3902054, 43.6720543]}, "type": "Feature", "id": 705595078451052544, "properties": {"loc": [-79.3902054, 43.6720543], "centroid": [-79.415950171687, 43.63196481779232], "screen_name": "ChefRobGentile", "time": 1457079950.0, "tid": 705595078451052544, "text": "Black trumpet agnolotti, chicken tail, sunchoke, sunflower @bucayorkville #BucaYorkville @ Buca\u2026 https://t.co/wzK56FbLLb", "created_at": "Fri Mar 04 03:25:50 +0000 2016", "klabel": 0}}, {"geometry": {"type": "Point", "coordinates": [-79.3902054, 43.6720543]}, "type": "Feature", "id": 705603869359935489, "properties": {"loc": [-79.3902054, 43.6720543], "centroid": [-79.415950171687, 43.63196481779232], "screen_name": "ChefRobGentile", "time": 1457082046.0, "tid": 705603869359935489, "text": "Octopus, fregola, clams, bone marrow @bucayorkville #BucaYorkville @ Buca Yorkville https://t.co/rq50AXphG3", "created_at": "Fri Mar 04 04:00:46 +0000 2016", "klabel": 0}}, {"geometry": {"type": "Point", "coordinates": [-79.38665, 43.66849]}, "type": "Feature", "id": 705656069519839232, "properties": {"loc": [-79.38665, 43.66849], "centroid": [-79.415950171687, 43.63196481779232], "screen_name": "ca_villeta", "time": 1457094492.0, "tid": 705656069519839232, "text": "Day 64 of #365Planes \n\n#snow #ice #frozen #planes #hidden #missing #travel #dailyproject #cold\u2026 https://t.co/WJYCQC0DyD", "created_at": "Fri Mar 04 07:28:12 +0000 2016", "klabel": 0}}, {"geometry": {"type": "Point", "coordinates": [-79.39111111, 43.67027778]}, "type": "Feature", "id": 705716615573323777, "properties": {"loc": [-79.39111111, 43.67027778], "centroid": [-79.415950171687, 43.63196481779232], "screen_name": "AlbertDdesign", "time": 1457108927.0, "tid": 705716615573323777, "text": "A luxurious bathroom designed for the most classiest Yorkville Residence! @albertddesign\u2026 https://t.co/EmN2xm7aid", "created_at": "Fri Mar 04 11:28:47 +0000 2016", "klabel": 0}}, {"geometry": {"type": "Point", "coordinates": [-79.38583333, 43.67111111]}, "type": "Feature", "id": 705745578697818112, "properties": {"loc": [-79.38583333, 43.67111111], "centroid": [-79.415950171687, 43.63196481779232], "screen_name": "DonnaBulika", "time": 1457115832.0, "tid": 705745578697818112, "text": "Another #snowy #day \u2744\ufe0f #happy #Friday #toronto #march #gymtime \ud83d\udcaa\ud83c\udffb #happy #grateful @ Bloor\u2013Yonge https://t.co/BAg59qt99N", "created_at": "Fri Mar 04 13:23:52 +0000 2016", "klabel": 0}}, {"geometry": {"type": "Point", "coordinates": [-79.3897099, 43.67162]}, "type": "Feature", "id": 705755853459165184, "properties": {"loc": [-79.3897099, 43.67162], "centroid": [-79.415950171687, 43.63196481779232], "screen_name": "watchfinderca", "time": 1457118282.0, "tid": 705755853459165184, "text": "Rolex Rosegold Daytona and bracelet 2010 box and papers come and check out Rolexes Everrose\u2026 https://t.co/kgDCMqLhyJ", "created_at": "Fri Mar 04 14:04:42 +0000 2016", "klabel": 0}}, {"geometry": {"type": "Point", "coordinates": [-79.387888, 43.673117]}, "type": "Feature", "id": 705760348175880192, "properties": {"loc": [-79.387888, 43.673117], "centroid": [-79.415950171687, 43.63196481779232], "screen_name": "geolocationms", "time": 1457119354.0, "tid": 705760348175880192, "text": "New landmark created! Discover interesting places around: https://t.co/NyjanpJV5e https://t.co/QSqUOuPmgg", "created_at": "Fri Mar 04 14:22:34 +0000 2016", "klabel": 0}}, {"geometry": {"type": "Point", "coordinates": [-79.38482, 43.67087]}, "type": "Feature", "id": 705777981348663296, "properties": {"loc": [-79.38482, 43.67087], "centroid": [-79.415950171687, 43.63196481779232], "screen_name": "AnstonMendes", "time": 1457123558.0, "tid": 705777981348663296, "text": "Thanks @melroseleone for spending time with me on linkedin #training\u2026 https://t.co/QGezpkN8BL", "created_at": "Fri Mar 04 15:32:38 +0000 2016", "klabel": 0}}, {"geometry": {"type": "Point", "coordinates": [-79.3835065, 43.6716106]}, "type": "Feature", "id": 705790782247047169, "properties": {"loc": [-79.3835065, 43.6716106], "centroid": [-79.415950171687, 43.63196481779232], "screen_name": "FCBTML", "time": 1457126610.0, "tid": 705790782247047169, "text": "This guy's Bell on his bike is a #Burger. I want a bike just so I can get me one of these..\u2026 https://t.co/eHGCYeHeF1", "created_at": "Fri Mar 04 16:23:30 +0000 2016", "klabel": 0}}, {"geometry": {"type": "Point", "coordinates": [-79.38724959, 43.6690533]}, "type": "Feature", "id": 705793312150540288, "properties": {"loc": [-79.38724959, 43.6690533], "centroid": [-79.415950171687, 43.63196481779232], "screen_name": "Fridayakarickyd", "time": 1457127213.0, "tid": 705793312150540288, "text": "E.Y.E. Am Nocturnal TV tune in from my  #YouTube page! #inshot #girls #cute #summer #blur #sun\u2026 https://t.co/aPI79j8nE3", "created_at": "Fri Mar 04 16:33:33 +0000 2016", "klabel": 0}}, {"geometry": {"type": "Point", "coordinates": [-79.3897099, 43.67162]}, "type": "Feature", "id": 705802504508973056, "properties": {"loc": [-79.3897099, 43.67162], "centroid": [-79.415950171687, 43.63196481779232], "screen_name": "BeautyBlitz", "time": 1457129404.0, "tid": 705802504508973056, "text": "berries for breakfast. @ Four Seasons Hotel Toronto https://t.co/aJGDug0LBn", "created_at": "Fri Mar 04 17:10:04 +0000 2016", "klabel": 0}}, {"geometry": {"type": "Point", "coordinates": [-79.3861, 43.6731]}, "type": "Feature", "id": 705808897139941377, "properties": {"loc": [-79.3861, 43.6731], "centroid": [-79.415950171687, 43.63196481779232], "screen_name": "TTLastSpring", "time": 1457130929.0, "tid": 705808897139941377, "text": "Did I meet someone on my way to Gill Lake or at the portage? Solve the mystery  #TomThomson", "created_at": "Fri Mar 04 17:35:29 +0000 2016", "klabel": 0}}, {"geometry": {"type": "Point", "coordinates": [-79.3861, 43.6731]}, "type": "Feature", "id": 705812049239080962, "properties": {"loc": [-79.3861, 43.6731], "centroid": [-79.415950171687, 43.63196481779232], "screen_name": "TTLastSpring", "time": 1457131680.0, "tid": 705812049239080962, "text": "To paint Nature you need to know Nature first, painting second.", "created_at": "Fri Mar 04 17:48:00 +0000 2016", "klabel": 0}}, {"geometry": {"type": "Point", "coordinates": [-79.3861, 43.6731]}, "type": "Feature", "id": 705815820941828096, "properties": {"loc": [-79.3861, 43.6731], "centroid": [-79.415950171687, 43.63196481779232], "screen_name": "TTLastSpring", "time": 1457132579.0, "tid": 705815820941828096, "text": "Mar 4, 1917 TORONTO GLOBE: NO EDITION TODAY.", "created_at": "Fri Mar 04 18:02:59 +0000 2016", "klabel": 0}}, {"geometry": {"type": "Point", "coordinates": [-79.3902781, 43.6706584]}, "type": "Feature", "id": 705829408293031936, "properties": {"loc": [-79.3902781, 43.6706584], "centroid": [-79.415950171687, 43.63196481779232], "screen_name": "tmj_gta_hrta", "time": 1457135819.0, "tid": 705829408293031936, "text": "#Hospitality #Job alert: Barista (CA) | Starbucks | 1250 BAY STREET 100, #TORONTO, ON https://t.co/DEuN5qMq3g #Veterans #Jobs #Hiring", "created_at": "Fri Mar 04 18:56:59 +0000 2016", "klabel": 0}}, {"geometry": {"type": "Point", "coordinates": [-79.39111111, 43.67027778]}, "type": "Feature", "id": 705831907079143425, "properties": {"loc": [-79.39111111, 43.67027778], "centroid": [-79.415950171687, 43.63196481779232], "screen_name": "thenewgirldar", "time": 1457136415.0, "tid": 705831907079143425, "text": "Reminiscing about last Sunday. A new style post is up on the blog https://t.co/xUz6XPhACa \ud83d\udc6f\u2026 https://t.co/BtA2a7qumC", "created_at": "Fri Mar 04 19:06:55 +0000 2016", "klabel": 0}}, {"geometry": {"type": "Point", "coordinates": [-79.3861, 43.6731]}, "type": "Feature", "id": 705842249532370945, "properties": {"loc": [-79.3861, 43.6731], "centroid": [-79.415950171687, 43.63196481779232], "screen_name": "TTLastSpring", "time": 1457138880.0, "tid": 705842249532370945, "text": "Jackson, despite being overseas, is exhibiting four paintings in the OSA Spring Exhibition.", "created_at": "Fri Mar 04 19:48:00 +0000 2016", "klabel": 0}}, {"geometry": {"type": "Point", "coordinates": [-79.38610355, 43.67067824]}, "type": "Feature", "id": 705848774254600192, "properties": {"loc": [-79.38610355, 43.67067824], "centroid": [-79.415950171687, 43.63196481779232], "screen_name": "PlanGinerd", "time": 1457140436.0, "tid": 705848774254600192, "text": "@FPLViper thoughts on which gk for cech? Thinking fors or fab\u2026 https://t.co/US8j5wOX25", "created_at": "Fri Mar 04 20:13:56 +0000 2016", "klabel": 0}}, {"geometry": {"type": "Point", "coordinates": [-79.39386, 43.67542]}, "type": "Feature", "id": 705878997989761024, "properties": {"loc": [-79.39386, 43.67542], "centroid": [-79.415950171687, 43.63196481779232], "screen_name": "gabeciufo", "time": 1457147642.0, "tid": 705878997989761024, "text": "views @ The 6ix https://t.co/NxceK97Bxk", "created_at": "Fri Mar 04 22:14:02 +0000 2016", "klabel": 0}}, {"geometry": {"type": "Point", "coordinates": [-79.39386, 43.67542]}, "type": "Feature", "id": 705888864951529474, "properties": {"loc": [-79.39386, 43.67542], "centroid": [-79.415950171687, 43.63196481779232], "screen_name": "hhaileyhen", "time": 1457149994.0, "tid": 705888864951529474, "text": "classic 6ix picture @ The 6ix https://t.co/1lz1OFVvlD", "created_at": "Fri Mar 04 22:53:14 +0000 2016", "klabel": 0}}, {"geometry": {"type": "Point", "coordinates": [-79.3861368, 43.6686768]}, "type": "Feature", "id": 705915756823896064, "properties": {"loc": [-79.3861368, 43.6686768], "centroid": [-79.415950171687, 43.63196481779232], "screen_name": "tofireS", "time": 1457156406.0, "tid": 705915756823896064, "text": "Medical (Unconscious) - Yonge St b/w Charles St West / Hayden St, Toronto (2 Trucks)", "created_at": "Sat Mar 05 00:40:06 +0000 2016", "klabel": 0}}, {"geometry": {"type": "Point", "coordinates": [-79.39190351, 43.67005403]}, "type": "Feature", "id": 705942801695973376, "properties": {"loc": [-79.39190351, 43.67005403], "centroid": [-79.415950171687, 43.63196481779232], "screen_name": "xocrystalchloe", "time": 1457162854.0, "tid": 705942801695973376, "text": "Is it too late now to say soorry @ Sorry Coffee Co https://t.co/bqoJ9XRiVT", "created_at": "Sat Mar 05 02:27:34 +0000 2016", "klabel": 0}}, {"geometry": {"type": "Point", "coordinates": [-79.3932266, 43.6708794]}, "type": "Feature", "id": 705944216611000320, "properties": {"loc": [-79.3932266, 43.6708794], "centroid": [-79.415950171687, 43.63196481779232], "screen_name": "FashionEcstasy", "time": 1457163191.0, "tid": 705944216611000320, "text": "Everything is so perfect here @one_restaurant hazeltonto @blooryorkville \ud83d\ude0b\n.\n.\n.\n#beeftartare\u2026 https://t.co/eiXDOHHbCB", "created_at": "Sat Mar 05 02:33:11 +0000 2016", "klabel": 0}}, {"geometry": {"type": "Point", "coordinates": [-79.3906021, 43.6800842]}, "type": "Feature", "id": 705949007160414208, "properties": {"loc": [-79.3906021, 43.6800842], "centroid": [-79.415950171687, 43.63196481779232], "screen_name": "smokenmiras", "time": 1457164333.0, "tid": 705949007160414208, "text": "after a long week \ud83d\udd11 @ Terroni - Price St https://t.co/wIwi3fWxtH", "created_at": "Sat Mar 05 02:52:13 +0000 2016", "klabel": 0}}, {"geometry": {"type": "Point", "coordinates": [-79.3861, 43.6731]}, "type": "Feature", "id": 705949203315474433, "properties": {"loc": [-79.3861, 43.6731], "centroid": [-79.415950171687, 43.63196481779232], "screen_name": "TTLastSpring", "time": 1457164380.0, "tid": 705949203315474433, "text": "In painting, perfection must be abandoned for feeling.", "created_at": "Sat Mar 05 02:53:00 +0000 2016", "klabel": 0}}, {"geometry": {"type": "Point", "coordinates": [-79.38533507, 43.6697638]}, "type": "Feature", "id": 705953696220377089, "properties": {"loc": [-79.38533507, 43.6697638], "centroid": [-79.415950171687, 43.63196481779232], "screen_name": "eleki_prfm", "time": 1457165451.0, "tid": 705953696220377089, "text": "Finally!!!\nMy TTC(Toronto) collections at all station\ud83c\udde8\ud83c\udde6\ud83d\ude89\nGreen line,Blue line,Yellow line and\u2026 https://t.co/20koweqJEf", "created_at": "Sat Mar 05 03:10:51 +0000 2016", "klabel": 0}}, {"geometry": {"type": "Point", "coordinates": [-79.3861, 43.6731]}, "type": "Feature", "id": 706073775079555072, "properties": {"loc": [-79.3861, 43.6731], "centroid": [-79.415950171687, 43.63196481779232], "screen_name": "TTLastSpring", "time": 1457194080.0, "tid": 706073775079555072, "text": "Like my boards, my journal entries of 1916-17 are unfinished. One day they`ll become a canvas that is a book.", "created_at": "Sat Mar 05 11:08:00 +0000 2016", "klabel": 0}}, {"geometry": {"type": "Point", "coordinates": [-79.3895111, 43.6697388]}, "type": "Feature", "id": 706104020230918144, "properties": {"loc": [-79.3895111, 43.6697388], "centroid": [-79.415950171687, 43.63196481779232], "screen_name": "graups1", "time": 1457201291.0, "tid": 706104020230918144, "text": "Skyscraper. #skyscrapers #touchthesky @ Bay and Bloor https://t.co/tyv4uBuEju", "created_at": "Sat Mar 05 13:08:11 +0000 2016", "klabel": 0}}, {"geometry": {"type": "Point", "coordinates": [-79.38733952, 43.67127663]}, "type": "Feature", "id": 706124759189344256, "properties": {"loc": [-79.38733952, 43.67127663], "centroid": [-79.415950171687, 43.63196481779232], "screen_name": "leechenbistroTO", "time": 1457206236.0, "tid": 706124759189344256, "text": "#musthaves\n#goodeats #foodie #instafoodie\n#TOeats #restaurantintoronto #foodinthe6ix\u2026 https://t.co/U83L2KxqBR", "created_at": "Sat Mar 05 14:30:36 +0000 2016", "klabel": 0}}, {"geometry": {"type": "Point", "coordinates": [-79.3861, 43.6731]}, "type": "Feature", "id": 706125364700057602, "properties": {"loc": [-79.3861, 43.6731], "centroid": [-79.415950171687, 43.63196481779232], "screen_name": "TTLastSpring", "time": 1457206380.0, "tid": 706125364700057602, "text": "The most invigorating moment in painting is when I have no idea what I am going to do next.", "created_at": "Sat Mar 05 14:33:00 +0000 2016", "klabel": 0}}, {"geometry": {"type": "Point", "coordinates": [-79.3861, 43.6731]}, "type": "Feature", "id": 706130401102798849, "properties": {"loc": [-79.3861, 43.6731], "centroid": [-79.415950171687, 43.63196481779232], "screen_name": "TTLastSpring", "time": 1457207581.0, "tid": 706130401102798849, "text": "Figure the form, then the technique.", "created_at": "Sat Mar 05 14:53:01 +0000 2016", "klabel": 0}}, {"geometry": {"type": "Point", "coordinates": [-79.3861, 43.6731]}, "type": "Feature", "id": 706131654503505920, "properties": {"loc": [-79.3861, 43.6731], "centroid": [-79.415950171687, 43.63196481779232], "screen_name": "TTLastSpring", "time": 1457207880.0, "tid": 706131654503505920, "text": "Technique is what you fall back on when you`ve run out of inspiration.", "created_at": "Sat Mar 05 14:58:00 +0000 2016", "klabel": 0}}, {"geometry": {"type": "Point", "coordinates": [-79.3861, 43.6731]}, "type": "Feature", "id": 706132913562238980, "properties": {"loc": [-79.3861, 43.6731], "centroid": [-79.415950171687, 43.63196481779232], "screen_name": "TTLastSpring", "time": 1457208180.0, "tid": 706132913562238980, "text": "Dr MacCallum has invited me for lunch at the Arts and Letters Club", "created_at": "Sat Mar 05 15:03:00 +0000 2016", "klabel": 0}}, {"geometry": {"type": "Point", "coordinates": [-79.39386, 43.67542]}, "type": "Feature", "id": 706138365985316864, "properties": {"loc": [-79.39386, 43.67542], "centroid": [-79.415950171687, 43.63196481779232], "screen_name": "DiyaDadlani", "time": 1457209480.0, "tid": 706138365985316864, "text": "I woke up like this!!!! \n#missabbey #dogsofinstagram #cockapoo #love\u2026 https://t.co/20nyHRnBnK", "created_at": "Sat Mar 05 15:24:40 +0000 2016", "klabel": 0}}, {"geometry": {"type": "Point", "coordinates": [-79.3897099, 43.67162]}, "type": "Feature", "id": 706144552822906881, "properties": {"loc": [-79.3897099, 43.67162], "centroid": [-79.415950171687, 43.63196481779232], "screen_name": "DufourAurelien", "time": 1457210955.0, "tid": 706144552822906881, "text": "#charcuterie #pateencroute #newmenu #60jornalist #dbar #toronto @ Four Seasons Hotel Toronto https://t.co/gsdNYgMapK", "created_at": "Sat Mar 05 15:49:15 +0000 2016", "klabel": 0}}, {"geometry": {"type": "Point", "coordinates": [-79.39190351, 43.67005403]}, "type": "Feature", "id": 706145719766413312, "properties": {"loc": [-79.39190351, 43.67005403], "centroid": [-79.415950171687, 43.63196481779232], "screen_name": "steph_gray", "time": 1457211233.0, "tid": 706145719766413312, "text": "Not sorry about this coffee. \u2615\ufe0f @ Sorry Coffee Co https://t.co/6YcRewO5Sb", "created_at": "Sat Mar 05 15:53:53 +0000 2016", "klabel": 0}}, {"geometry": {"type": "Point", "coordinates": [-79.3861, 43.6731]}, "type": "Feature", "id": 706148010284224512, "properties": {"loc": [-79.3861, 43.6731], "centroid": [-79.415950171687, 43.63196481779232], "screen_name": "TTLastSpring", "time": 1457211779.0, "tid": 706148010284224512, "text": "18 days before I go up North. Follow the Journal of My Last Spring of 1917. https://t.co/zXyT7oFj9y", "created_at": "Sat Mar 05 16:02:59 +0000 2016", "klabel": 0}}, {"geometry": {"type": "Point", "coordinates": [-79.38988, 43.66923]}, "type": "Feature", "id": 706153612364349440, "properties": {"loc": [-79.38988, 43.66923], "centroid": [-79.415950171687, 43.63196481779232], "screen_name": "Faustin25", "time": 1457213115.0, "tid": 706153612364349440, "text": "Weekend Plans #luxury #specialevent #menswear #fashion #retailtherapy #newarrivals #yorkville\u2026 https://t.co/oGVICxT9jG", "created_at": "Sat Mar 05 16:25:15 +0000 2016", "klabel": 0}}, {"geometry": {"type": "Point", "coordinates": [-79.378, 43.679]}, "type": "Feature", "id": 706157544520224776, "properties": {"loc": [-79.378, 43.679], "centroid": [-79.415950171687, 43.63196481779232], "screen_name": "brepola", "time": 1457214053.0, "tid": 706157544520224776, "text": "#snapsave @ Rosedale, Toronto https://t.co/3oQ2dZMoAM", "created_at": "Sat Mar 05 16:40:53 +0000 2016", "klabel": 0}}, {"geometry": {"type": "Point", "coordinates": [-79.3897099, 43.67162]}, "type": "Feature", "id": 706162111441977347, "properties": {"loc": [-79.3897099, 43.67162], "centroid": [-79.415950171687, 43.63196481779232], "screen_name": "WMFashionista", "time": 1457215141.0, "tid": 706162111441977347, "text": "Dreaming of breakfast in bed at my favorite @fstoronto. Happy weekend darlings! #visualsoflife @\u2026 https://t.co/CjhIvwLW3h", "created_at": "Sat Mar 05 16:59:01 +0000 2016", "klabel": 0}}, {"geometry": {"type": "Point", "coordinates": [-79.3906021, 43.6800842]}, "type": "Feature", "id": 706168913361571840, "properties": {"loc": [-79.3906021, 43.6800842], "centroid": [-79.415950171687, 43.63196481779232], "screen_name": "FionaWhy", "time": 1457216763.0, "tid": 706168913361571840, "text": "#aboutlastnight: friends date, I'm sorry I have the same picture as @rudicampbell but that's\u2026 https://t.co/k1mFdAJKEl", "created_at": "Sat Mar 05 17:26:03 +0000 2016", "klabel": 0}}, {"geometry": {"type": "Point", "coordinates": [-79.3861, 43.6731]}, "type": "Feature", "id": 706170659206991873, "properties": {"loc": [-79.3861, 43.6731], "centroid": [-79.415950171687, 43.63196481779232], "screen_name": "TTLastSpring", "time": 1457217179.0, "tid": 706170659206991873, "text": "The Old Courthouse is full of `Modern Fire Worshippers.` Stuffed shirts as I like to call them.", "created_at": "Sat Mar 05 17:32:59 +0000 2016", "klabel": 0}}, {"geometry": {"type": "Point", "coordinates": [-79.3861, 43.6731]}, "type": "Feature", "id": 706178215228874752, "properties": {"loc": [-79.3861, 43.6731], "centroid": [-79.415950171687, 43.63196481779232], "screen_name": "TTLastSpring", "time": 1457218981.0, "tid": 706178215228874752, "text": "Mar 5, 1917 TORONTO GLOBE: HAIG ADVANCES ON WIDE FRONT DESPITE RESISTANCE. WILSON APPEALS TO PEOPLE.", "created_at": "Sat Mar 05 18:03:01 +0000 2016", "klabel": 0}}, {"geometry": {"type": "Point", "coordinates": [-79.3872048, 43.6713127]}, "type": "Feature", "id": 706181264236224512, "properties": {"loc": [-79.3872048, 43.6713127], "centroid": [-79.415950171687, 43.63196481779232], "screen_name": "tofireS", "time": 1457219708.0, "tid": 706181264236224512, "text": "Medical (Unconscious) - Yonge St b/w Asquith Avenue / Yorkville Avenue, Toronto (2 Trucks)", "created_at": "Sat Mar 05 18:15:08 +0000 2016", "klabel": 0}}, {"geometry": {"type": "Point", "coordinates": [-79.3872048, 43.6713127]}, "type": "Feature", "id": 706181263229632516, "properties": {"loc": [-79.3872048, 43.6713127], "centroid": [-79.415950171687, 43.63196481779232], "screen_name": "tofire", "time": 1457219708.0, "tid": 706181263229632516, "text": "Medical (Unconscious) - Yonge St b/w Asquith Avenue / Yorkville Avenue, Toronto (2 Trucks)", "created_at": "Sat Mar 05 18:15:08 +0000 2016", "klabel": 0}}, {"geometry": {"type": "Point", "coordinates": [-79.39386, 43.67542]}, "type": "Feature", "id": 707619540046319617, "properties": {"loc": [-79.39386, 43.67542], "centroid": [-79.415950171687, 43.63196481779232], "screen_name": "DeliVeizi", "time": 1457562619.0, "tid": 707619540046319617, "text": "\ud83d\ude2d\ud83d\ude2d\ud83d\ude2d\ud83d\ude2d\ud83d\ude2d\ud83d\ude2d\ud83d\ude2d\ud83d\ude2d\ud83d\ude2d\ud83d\ude2d\ud83d\ude2d\ud83d\ude2d\ud83d\ude2d\ud83d\ude2d\ud83d\ude2d\ud83d\ude2d\ud83d\ude2d\ud83d\ude2d\ud83d\ude2d\ud83d\ude2d\ud83d\ude2d\ud83d\ude2d\ud83d\ude2d\ud83d\ude2d\ud83d\ude2d\ud83d\ude2d\ud83d\ude2d\ud83d\ude2d\ud83d\ude2d\ud83d\ude2d\ud83d\ude2d\ud83d\ude2d\ud83d\ude2d\ud83d\ude2d\ud83d\ude2d\ud83d\ude2d\ud83d\ude2d\ud83d\ude2d\ud83d\ude2d\ud83d\ude2d\ud83d\ude2d\ud83d\ude2d\ud83d\ude2d\ud83d\ude2d\ud83d\ude2d\ud83d\ude2d\ud83d\ude2d\ud83d\ude2d @ The 6ix https://t.co/5S7pRtKILB", "created_at": "Wed Mar 09 17:30:19 +0000 2016", "klabel": 0}}, {"geometry": {"type": "Point", "coordinates": [-79.3923569, 43.6694519]}, "type": "Feature", "id": 707620972291948546, "properties": {"loc": [-79.3923569, 43.6694519], "centroid": [-79.415950171687, 43.63196481779232], "screen_name": "tmj_gta_retail", "time": 1457562961.0, "tid": 707620972291948546, "text": "Can you recommend anyone for this #job? Assistant Manager of Merchandise - https://t.co/kC7GAlhGmi #Toronto, ON #Retail #Hiring #CareerArc", "created_at": "Wed Mar 09 17:36:01 +0000 2016", "klabel": 0}}, {"geometry": {"type": "Point", "coordinates": [-79.3861, 43.6731]}, "type": "Feature", "id": 707623986331521024, "properties": {"loc": [-79.3861, 43.6731], "centroid": [-79.415950171687, 43.63196481779232], "screen_name": "TTLastSpring", "time": 1457563680.0, "tid": 707623986331521024, "text": "The 45th @OSAartists Spring Exhibition private viewing today on Mar 9, 1917 at 6pm. I have entered nothing this year", "created_at": "Wed Mar 09 17:48:00 +0000 2016", "klabel": 0}}, {"geometry": {"type": "Point", "coordinates": [-79.3861, 43.6731]}, "type": "Feature", "id": 707627766309584897, "properties": {"loc": [-79.3861, 43.6731], "centroid": [-79.415950171687, 43.63196481779232], "screen_name": "TTLastSpring", "time": 1457564581.0, "tid": 707627766309584897, "text": "Mar 9, 1917 TORONTO GLOBE: FURTHER PROGRESS ON BRITISH MOVE ON BAPAUME. GERMANS MAY ATTACK U.S. THROUGH MEXICO.", "created_at": "Wed Mar 09 18:03:01 +0000 2016", "klabel": 0}}, {"geometry": {"type": "Point", "coordinates": [-79.3960567, 43.6733928]}, "type": "Feature", "id": 707631556995772416, "properties": {"loc": [-79.3960567, 43.6733928], "centroid": [-79.415950171687, 43.63196481779232], "screen_name": "tpscalls", "time": 1457565485.0, "tid": 707631556995772416, "text": "Arrest | Elgin Ave &amp; Tranby Ave [53 Div.] 03/09 13:13 #Midtown_Toronto", "created_at": "Wed Mar 09 18:18:05 +0000 2016", "klabel": 0}}, {"geometry": {"type": "Point", "coordinates": [-79.38631801, 43.67071561]}, "type": "Feature", "id": 749759738611699712, "properties": {"loc": [-79.38631801, 43.67071561], "centroid": [-79.415950171687, 43.63196481779232], "screen_name": "16781205enjoy", "time": 1467609626.0, "tid": 749759738611699712, "text": "There were so so many people haha\nI wanted to join for volunteer :'( \nThis is  one of the\u2026 https://t.co/8ddMPN11tl", "created_at": "Mon Jul 04 00:20:26 +0000 2016", "klabel": 0}}, {"geometry": {"type": "Point", "coordinates": [-79.3835148, 43.6741858]}, "type": "Feature", "id": 749760653108338688, "properties": {"loc": [-79.3835148, 43.6741858], "centroid": [-79.415950171687, 43.63196481779232], "screen_name": "tpscalls", "time": 1467609844.0, "tid": 749760653108338688, "text": "Disorderlies | Dufferin Grove Park Trl &amp; Dufferin Grove Park Trl [14 Div.] 07/03 20:18 #Midtown_Toronto", "created_at": "Mon Jul 04 00:24:04 +0000 2016", "klabel": 0}}, {"geometry": {"type": "Point", "coordinates": [-79.3864088, 43.6693865]}, "type": "Feature", "id": 749765184261095424, "properties": {"loc": [-79.3864088, 43.6693865], "centroid": [-79.415950171687, 43.63196481779232], "screen_name": "tpscalls", "time": 1467610924.0, "tid": 749765184261095424, "text": "Fight | Hayden St &amp; Yonge St [51 Div.] 07/03 20:36 #Downtown #Toronto", "created_at": "Mon Jul 04 00:42:04 +0000 2016", "klabel": 0}}, {"geometry": {"type": "Point", "coordinates": [-79.38677, 43.67026]}, "type": "Feature", "id": 749772108297830400, "properties": {"loc": [-79.38677, 43.67026], "centroid": [-79.415950171687, 43.63196481779232], "screen_name": "thyisyours", "time": 1467612575.0, "tid": 749772108297830400, "text": "Celebrating equality and acceptance. In this country, its a beautiful experience to be embraced\u2026 https://t.co/tOIygE51Wd", "created_at": "Mon Jul 04 01:09:35 +0000 2016", "klabel": 0}}, {"geometry": {"type": "Point", "coordinates": [-79.38631801, 43.67071561]}, "type": "Feature", "id": 749775603675439105, "properties": {"loc": [-79.38631801, 43.67071561], "centroid": [-79.415950171687, 43.63196481779232], "screen_name": "SaraImrie", "time": 1467613408.0, "tid": 749775603675439105, "text": "I got to shake hands with both these awesome ladies today! #fangirling \n\n#OrangeIsTheNewBlack\u2026 https://t.co/A9HPxXLrme", "created_at": "Mon Jul 04 01:23:28 +0000 2016", "klabel": 0}}, {"geometry": {"type": "Point", "coordinates": [-79.38724959, 43.6690533]}, "type": "Feature", "id": 749777848907464704, "properties": {"loc": [-79.38724959, 43.6690533], "centroid": [-79.415950171687, 43.63196481779232], "screen_name": "Matt_dbpjp", "time": 1467613944.0, "tid": 749777848907464704, "text": "July 3 2016 | Pride\n\n#project365 @ Downtown Toronto https://t.co/LZD40KLTFG", "created_at": "Mon Jul 04 01:32:24 +0000 2016", "klabel": 0}}, {"geometry": {"type": "Point", "coordinates": [-79.3911, 43.6703]}, "type": "Feature", "id": 749785158631485440, "properties": {"loc": [-79.3911, 43.6703], "centroid": [-79.415950171687, 43.63196481779232], "screen_name": "junaidz08", "time": 1467615686.0, "tid": 749785158631485440, "text": "Just posted a photo @ Yorkville, Toronto https://t.co/fSIhhVImpA", "created_at": "Mon Jul 04 02:01:26 +0000 2016", "klabel": 0}}, {"geometry": {"type": "Point", "coordinates": [-79.38631801, 43.67071561]}, "type": "Feature", "id": 749788552767139840, "properties": {"loc": [-79.38631801, 43.67071561], "centroid": [-79.415950171687, 43.63196481779232], "screen_name": "nicksean", "time": 1467616496.0, "tid": 749788552767139840, "text": "TORONTO PRIDE 2016 \u2764\ufe0f\ud83d\udc9b\ud83d\udc9a\ud83d\udc99\ud83d\udc9c cibcnow @ Yonge and Bloor, Downtown Toronto https://t.co/ZpkAHM6pMM", "created_at": "Mon Jul 04 02:14:56 +0000 2016", "klabel": 0}}, {"geometry": {"type": "Point", "coordinates": [-79.38646138, 43.66928728]}, "type": "Feature", "id": 749790716298133504, "properties": {"loc": [-79.38646138, 43.66928728], "centroid": [-79.415950171687, 43.63196481779232], "screen_name": "ArticulateBod", "time": 1467617011.0, "tid": 749790716298133504, "text": "We offer group of 3 maximum participant Equipment class. Check out out website\u2026 https://t.co/sXa6fVlaeB", "created_at": "Mon Jul 04 02:23:31 +0000 2016", "klabel": 0}}, {"geometry": {"type": "Point", "coordinates": [-79.38724959, 43.6690533]}, "type": "Feature", "id": 749794239505108992, "properties": {"loc": [-79.38724959, 43.6690533], "centroid": [-79.415950171687, 43.63196481779232], "screen_name": "simmsimer", "time": 1467617851.0, "tid": 749794239505108992, "text": "Your music for today and yesterday brought to u by #SimmSimer @ Downtown Toronto https://t.co/0qS1cdU2Pb", "created_at": "Mon Jul 04 02:37:31 +0000 2016", "klabel": 0}}, {"geometry": {"type": "Point", "coordinates": [-79.38631801, 43.67071561]}, "type": "Feature", "id": 749798001116405760, "properties": {"loc": [-79.38631801, 43.67071561], "centroid": [-79.415950171687, 43.63196481779232], "screen_name": "afoodgypsy", "time": 1467618748.0, "tid": 749798001116405760, "text": "Thousands upon thousands cheered, danced and clapped. Oh Canada, you did us proud. #pride2016 @\u2026 https://t.co/Jo5vQAWd2s", "created_at": "Mon Jul 04 02:52:28 +0000 2016", "klabel": 0}}, {"geometry": {"type": "Point", "coordinates": [-79.38677, 43.67026]}, "type": "Feature", "id": 749810478424219652, "properties": {"loc": [-79.38677, 43.67026], "centroid": [-79.415950171687, 43.63196481779232], "screen_name": "_kae02", "time": 1467621723.0, "tid": 749810478424219652, "text": "Love all #prideparade #lgbt #pridetoronto @ Yonge Street https://t.co/ZxrhKwzOKV", "created_at": "Mon Jul 04 03:42:03 +0000 2016", "klabel": 0}}, {"geometry": {"type": "Point", "coordinates": [-79.38631801, 43.67071561]}, "type": "Feature", "id": 749811692796870656, "properties": {"loc": [-79.38631801, 43.67071561], "centroid": [-79.415950171687, 43.63196481779232], "screen_name": "djKURTYmusic", "time": 1467622013.0, "tid": 749811692796870656, "text": "#facebookConnectsUS \nTORONTO PRIDE PARADE \n3 facebook Prides down 1 more to go!! This Float is\u2026 https://t.co/PCcSZKda8p", "created_at": "Mon Jul 04 03:46:53 +0000 2016", "klabel": 0}}, {"geometry": {"type": "Point", "coordinates": [-79.38677, 43.67026]}, "type": "Feature", "id": 749812302887710720, "properties": {"loc": [-79.38677, 43.67026], "centroid": [-79.415950171687, 43.63196481779232], "screen_name": "_kae02", "time": 1467622158.0, "tid": 749812302887710720, "text": "Today I saw so many macho man\ud83d\ude02\ud83d\ude02 @ Yonge Street https://t.co/xQa1Vderg3", "created_at": "Mon Jul 04 03:49:18 +0000 2016", "klabel": 0}}, {"geometry": {"type": "Point", "coordinates": [-79.38583333, 43.67111111]}, "type": "Feature", "id": 749826954732400640, "properties": {"loc": [-79.38583333, 43.67111111], "centroid": [-79.415950171687, 43.63196481779232], "screen_name": "arcticmenemen", "time": 1467625651.0, "tid": 749826954732400640, "text": "This is the first post from Toronto Pride Parade. I turned off the voice because it was just me\u2026 https://t.co/7lEswemBB8", "created_at": "Mon Jul 04 04:47:31 +0000 2016", "klabel": 0}}, {"geometry": {"type": "Point", "coordinates": [-79.38583333, 43.67111111]}, "type": "Feature", "id": 749831253755621376, "properties": {"loc": [-79.38583333, 43.67111111], "centroid": [-79.415950171687, 43.63196481779232], "screen_name": "arcticmenemen", "time": 1467626676.0, "tid": 749831253755621376, "text": "I got the chance to spend my day with amazing people, cheer for the incredible queer community,\u2026 https://t.co/SHzLtYDiZW", "created_at": "Mon Jul 04 05:04:36 +0000 2016", "klabel": 0}}, {"geometry": {"type": "Point", "coordinates": [-79.39386, 43.67542]}, "type": "Feature", "id": 749846120562515969, "properties": {"loc": [-79.39386, 43.67542], "centroid": [-79.415950171687, 43.63196481779232], "screen_name": "JamBam930", "time": 1467630221.0, "tid": 749846120562515969, "text": "To all my patriotic American friends... Have a rockin' Fourth of July. \nStay safe in the Home of\u2026 https://t.co/TstnphsClF", "created_at": "Mon Jul 04 06:03:41 +0000 2016", "klabel": 0}}, {"geometry": {"type": "Point", "coordinates": [-79.39386, 43.67542]}, "type": "Feature", "id": 749851018695811072, "properties": {"loc": [-79.39386, 43.67542], "centroid": [-79.415950171687, 43.63196481779232], "screen_name": "AneilroNation", "time": 1467631389.0, "tid": 749851018695811072, "text": "A likkle throwback to our first OVO FEST in 2013. Happy birthday fam, keep it #SWAVEY \ud83d\ude4f\u2764\ufe0f @ The 6ix https://t.co/auRUDc0TDM", "created_at": "Mon Jul 04 06:23:09 +0000 2016", "klabel": 0}}, {"geometry": {"type": "Point", "coordinates": [-79.38583333, 43.67111111]}, "type": "Feature", "id": 749852041137184768, "properties": {"loc": [-79.38583333, 43.67111111], "centroid": [-79.415950171687, 43.63196481779232], "screen_name": "adrienlatapie", "time": 1467631632.0, "tid": 749852041137184768, "text": "#Toronto #Gay #Pride #Parade #pride2016 @ Bloor\u2013Yonge https://t.co/5Zdwvisg5I", "created_at": "Mon Jul 04 06:27:12 +0000 2016", "klabel": 0}}, {"geometry": {"type": "Point", "coordinates": [-79.38885927, 43.67415749]}, "type": "Feature", "id": 749947505157242880, "properties": {"loc": [-79.38885927, 43.67415749], "centroid": [-79.415950171687, 43.63196481779232], "screen_name": "ymeltemm", "time": 1467654393.0, "tid": 749947505157242880, "text": "I'm at ILAC - International Language Academy of Canada in Toronto, ON https://t.co/Zij4jrZ3a1", "created_at": "Mon Jul 04 12:46:33 +0000 2016", "klabel": 0}}, {"geometry": {"type": "Point", "coordinates": [-79.38724959, 43.6690533]}, "type": "Feature", "id": 749950040593006592, "properties": {"loc": [-79.38724959, 43.6690533], "centroid": [-79.415950171687, 43.63196481779232], "screen_name": "xxaimi0219xx", "time": 1467654997.0, "tid": 749950040593006592, "text": "Happy pride!\ud83c\udf08#pride2016 #toronto @ Downtown Toronto https://t.co/B7yKqstqGI", "created_at": "Mon Jul 04 12:56:37 +0000 2016", "klabel": 0}}, {"geometry": {"type": "Point", "coordinates": [-79.3904614, 43.6692858]}, "type": "Feature", "id": 749961915082747904, "properties": {"loc": [-79.3904614, 43.6692858], "centroid": [-79.415950171687, 43.63196481779232], "screen_name": "tmj_usa_retail", "time": 1467657828.0, "tid": 749961915082747904, "text": "#Toronto, ON #Retail #Job: Associate Manager, J.Crew Retail, 110 Bloor Street at J. Crew https://t.co/kPn1LUG0S3 #Jobs #Hiring #CareerArc", "created_at": "Mon Jul 04 13:43:48 +0000 2016", "klabel": 0}}, {"geometry": {"type": "Point", "coordinates": [-79.39522, 43.67519]}, "type": "Feature", "id": 749972169560653824, "properties": {"loc": [-79.39522, 43.67519], "centroid": [-79.415950171687, 43.63196481779232], "screen_name": "jiematar", "time": 1467660273.0, "tid": 749972169560653824, "text": "What a weekend! You know, coming in to see us is like a mini vacation! #makeanappointment #hair\u2026 https://t.co/u7fREriM1F", "created_at": "Mon Jul 04 14:24:33 +0000 2016", "klabel": 0}}, {"geometry": {"type": "Point", "coordinates": [-79.3835148, 43.6741858]}, "type": "Feature", "id": 749972797720498176, "properties": {"loc": [-79.3835148, 43.6741858], "centroid": [-79.415950171687, 43.63196481779232], "screen_name": "tpscalls", "time": 1467660423.0, "tid": 749972797720498176, "text": "Fraud | Dufferin Grove Park Trl &amp; Dufferin Grove Park Trl [11 Div.] 07/04 10:22 #Midtown_Toronto", "created_at": "Mon Jul 04 14:27:03 +0000 2016", "klabel": 0}}, {"geometry": {"type": "Point", "coordinates": [-79.3902781, 43.6706584]}, "type": "Feature", "id": 749986697522270208, "properties": {"loc": [-79.3902781, 43.6706584], "centroid": [-79.415950171687, 43.63196481779232], "screen_name": "tmj_gta_hrta", "time": 1467663737.0, "tid": 749986697522270208, "text": "This #Hospitality #job might be a great fit for you: Barista (CA) - https://t.co/DEuN5qMq3g 1250 BAY STREET 100, #TORONTO, ON #Veterans", "created_at": "Mon Jul 04 15:22:17 +0000 2016", "klabel": 0}}, {"geometry": {"type": "Point", "coordinates": [-79.3776379, 43.6830072]}, "type": "Feature", "id": 749991672969330688, "properties": {"loc": [-79.3776379, 43.6830072], "centroid": [-79.415950171687, 43.63196481779232], "screen_name": "tpscalls", "time": 1467664923.0, "tid": 749991672969330688, "text": "Break &amp; Enter | Highland Gdns &amp; Scholfield Ave [53 Div.] 07/04 11:38 #Midtown_Toronto", "created_at": "Mon Jul 04 15:42:03 +0000 2016", "klabel": 0}}, {"geometry": {"type": "Point", "coordinates": [-79.38834162, 43.67085304]}, "type": "Feature", "id": 750003809112514561, "properties": {"loc": [-79.38834162, 43.67085304], "centroid": [-79.415950171687, 43.63196481779232], "screen_name": "bartenderone", "time": 1467667817.0, "tid": 750003809112514561, "text": "Start July 11 - Monday - 10am - 5pm\n\nRegister now for BarChef Certification:\nCall: 416 461 4441\u2026 https://t.co/BmCOQHtuQ2", "created_at": "Mon Jul 04 16:30:17 +0000 2016", "klabel": 0}}, {"geometry": {"type": "Point", "coordinates": [-79.3916626, 43.6696014]}, "type": "Feature", "id": 750004298180751361, "properties": {"loc": [-79.3916626, 43.6696014], "centroid": [-79.415950171687, 43.63196481779232], "screen_name": "jamesmc92", "time": 1467667933.0, "tid": 750004298180751361, "text": "Canadiana coffee and hanging with @haneshayley and @didier_yhc. Sounds like a pretty good 4th of\u2026 https://t.co/ogfrzkyhlg", "created_at": "Mon Jul 04 16:32:13 +0000 2016", "klabel": 0}}, {"geometry": {"type": "Point", "coordinates": [-79.3867594, 43.6702259]}, "type": "Feature", "id": 750009794774364160, "properties": {"loc": [-79.3867594, 43.6702259], "centroid": [-79.415950171687, 43.63196481779232], "screen_name": "tpscalls", "time": 1467669244.0, "tid": 750009794774364160, "text": "Demonstration | Yonge St &amp; Bloor St E [53 Div.] 07/04 12:50 #Downtown #Toronto", "created_at": "Mon Jul 04 16:54:04 +0000 2016", "klabel": 0}}, {"geometry": {"type": "Point", "coordinates": [-79.39314, 43.67036]}, "type": "Feature", "id": 750012489975279616, "properties": {"loc": [-79.39314, 43.67036], "centroid": [-79.415950171687, 43.63196481779232], "screen_name": "CatosAutoSalon", "time": 1467669886.0, "tid": 750012489975279616, "text": "Some of our new products are starting to arrive! Part of our detailing PLUS services! If you\u2026 https://t.co/gH4HzSlu2x", "created_at": "Mon Jul 04 17:04:46 +0000 2016", "klabel": 0}}, {"geometry": {"type": "Point", "coordinates": [-79.38677, 43.67026]}, "type": "Feature", "id": 750023746832900096, "properties": {"loc": [-79.38677, 43.67026], "centroid": [-79.415950171687, 43.63196481779232], "screen_name": "KJ_McKnight", "time": 1467672570.0, "tid": 750023746832900096, "text": "Had such a blast yesterday performing for danikagancasting and Smart Car for the second year in\u2026 https://t.co/uMvz5UF6cU", "created_at": "Mon Jul 04 17:49:30 +0000 2016", "klabel": 0}}, {"geometry": {"type": "Point", "coordinates": [-79.39107996, 43.67106208]}, "type": "Feature", "id": 750036724789678080, "properties": {"loc": [-79.39107996, 43.67106208], "centroid": [-79.415950171687, 43.63196481779232], "screen_name": "christielli", "time": 1467675664.0, "tid": 750036724789678080, "text": "I'm at @Anthropologie in Toronto, ON https://t.co/SwiXLma6Wa", "created_at": "Mon Jul 04 18:41:04 +0000 2016", "klabel": 0}}, {"geometry": {"type": "Point", "coordinates": [-79.3863049, 43.6706202]}, "type": "Feature", "id": 750054783176683520, "properties": {"loc": [-79.3863049, 43.6706202], "centroid": [-79.415950171687, 43.63196481779232], "screen_name": "tmj_gta_hrta", "time": 1467679970.0, "tid": 750054783176683520, "text": "We're #hiring! Read about our latest #job opening here: Barista (CA) - https://t.co/oLFdaKUKzO #Hospitality #Veterans #CareerArc", "created_at": "Mon Jul 04 19:52:50 +0000 2016", "klabel": 0}}, {"geometry": {"type": "Point", "coordinates": [-79.3847874, 43.6701261]}, "type": "Feature", "id": 750063838775521280, "properties": {"loc": [-79.3847874, 43.6701261], "centroid": [-79.415950171687, 43.63196481779232], "screen_name": "tmj_gta_sales", "time": 1467682129.0, "tid": 750063838775521280, "text": "Can you recommend anyone for this #job? Attorney/Lawyer - https://t.co/Kiq3xqOxF4 #Toronto, ON #Sales #Hiring #CareerArc", "created_at": "Mon Jul 04 20:28:49 +0000 2016", "klabel": 0}}, {"geometry": {"type": "Point", "coordinates": [-79.3897137, 43.6709577]}, "type": "Feature", "id": 750075447027781632, "properties": {"loc": [-79.3897137, 43.6709577], "centroid": [-79.415950171687, 43.63196481779232], "screen_name": "tmj_gta_retail", "time": 1467684896.0, "tid": 750075447027781632, "text": "#Retail #Job in #Toronto, ON: Wine Merchant at Wine Rack https://t.co/wS5Eink1hM #Jobs #Hiring #CareerArc", "created_at": "Mon Jul 04 21:14:56 +0000 2016", "klabel": 0}}, {"geometry": {"type": "Point", "coordinates": [-79.3912579, 43.6711165]}, "type": "Feature", "id": 750080007981105152, "properties": {"loc": [-79.3912579, 43.6711165], "centroid": [-79.415950171687, 43.63196481779232], "screen_name": "tpscalls", "time": 1467685984.0, "tid": 750080007981105152, "text": "Fail To Remain Property Damage Collision | Bellair St &amp; Yorkville Ave [53 Div.] 07/04 17:27 #Midtown_Toronto", "created_at": "Mon Jul 04 21:33:04 +0000 2016", "klabel": 0}}, {"geometry": {"type": "Point", "coordinates": [-79.38677, 43.67026]}, "type": "Feature", "id": 750079988016095232, "properties": {"loc": [-79.38677, 43.67026], "centroid": [-79.415950171687, 43.63196481779232], "screen_name": "KJ_McKnight", "time": 1467685979.0, "tid": 750079988016095232, "text": "Pride was LIT. Bubbles and Rainbows with smartcanada. #lategram #pride2016 #TorontoPride it was\u2026 https://t.co/nY7ZCEAh6E", "created_at": "Mon Jul 04 21:32:59 +0000 2016", "klabel": 0}}, {"geometry": {"type": "Point", "coordinates": [-79.3847874, 43.6701261]}, "type": "Feature", "id": 750096605789851648, "properties": {"loc": [-79.3847874, 43.6701261], "centroid": [-79.415950171687, 43.63196481779232], "screen_name": "RHLegalJobs", "time": 1467689941.0, "tid": 750096605789851648, "text": "Attorney/Lawyer - Robert Half Legal: (#Toronto, ON) https://t.co/HMO8nrMHpZ #Sales #RHLegalJobs #Job #Jobs #Hiring", "created_at": "Mon Jul 04 22:39:01 +0000 2016", "klabel": 0}}, {"geometry": {"type": "Point", "coordinates": [-79.395382, 43.675025]}, "type": "Feature", "id": 750099464552079360, "properties": {"loc": [-79.395382, 43.675025], "centroid": [-79.415950171687, 43.63196481779232], "screen_name": "melissaandre", "time": 1467690623.0, "tid": 750099464552079360, "text": "#MelissaAndreEvents for @reebok @reebokwomen \ud83d\udcf7 jakerosenberg @thecoveteur @ Melissa Andre Events\u2026 https://t.co/yZ5KMafyYe", "created_at": "Mon Jul 04 22:50:23 +0000 2016", "klabel": 0}}, {"geometry": {"type": "Point", "coordinates": [-79.38724959, 43.6690533]}, "type": "Feature", "id": 750102922080452610, "properties": {"loc": [-79.38724959, 43.6690533], "centroid": [-79.415950171687, 43.63196481779232], "screen_name": "caiquinhu", "time": 1467691447.0, "tid": 750102922080452610, "text": "\ud83c\udf70 by the \ud83c\udf0a @ Downtown Toronto https://t.co/ihB2UTDzUY", "created_at": "Mon Jul 04 23:04:07 +0000 2016", "klabel": 0}}, {"geometry": {"type": "Point", "coordinates": [-79.38820705, 43.66996794]}, "type": "Feature", "id": 750138325084889093, "properties": {"loc": [-79.38820705, 43.66996794], "centroid": [-79.415950171687, 43.63196481779232], "screen_name": "Quanner", "time": 1467699888.0, "tid": 750138325084889093, "text": "Didn't find my designer handbag in Italy but thanks holtsbloor for\u2026 https://t.co/Pk8RZhrzHQ", "created_at": "Tue Jul 05 01:24:48 +0000 2016", "klabel": 0}}, {"geometry": {"type": "Point", "coordinates": [-79.39215, 43.67028]}, "type": "Feature", "id": 750170325497868288, "properties": {"loc": [-79.39215, 43.67028], "centroid": [-79.415950171687, 43.63196481779232], "screen_name": "DivineDecOrig", "time": 1467707517.0, "tid": 750170325497868288, "text": "Night night sweet dresses.... c u tomorrow! #art #deco #antique #vintage #couture #dress\u2026 https://t.co/gs1zNZsggZ", "created_at": "Tue Jul 05 03:31:57 +0000 2016", "klabel": 0}}, {"geometry": {"type": "Point", "coordinates": [-79.3867594, 43.6702259]}, "type": "Feature", "id": 750229234094841856, "properties": {"loc": [-79.3867594, 43.6702259], "centroid": [-79.415950171687, 43.63196481779232], "screen_name": "tofire", "time": 1467721562.0, "tid": 750229234094841856, "text": "Medical (Unconscious) - Bloor St b/w Yonge St / Park Road, Toronto (2 Trucks)", "created_at": "Tue Jul 05 07:26:02 +0000 2016", "klabel": 0}}, {"geometry": {"type": "Point", "coordinates": [-79.3807966, 43.6789285]}, "type": "Feature", "id": 750312294069010433, "properties": {"loc": [-79.3807966, 43.6789285], "centroid": [-79.415950171687, 43.63196481779232], "screen_name": "tofire", "time": 1467741365.0, "tid": 750312294069010433, "text": "Medical (Exposure) - Crescent Road b/w Mount Pleasant Road / Crescent Mount Pleasant Ramp, Toronto (2 Trucks)", "created_at": "Tue Jul 05 12:56:05 +0000 2016", "klabel": 0}}, {"geometry": {"type": "Point", "coordinates": [-79.3807966, 43.6789285]}, "type": "Feature", "id": 750312294870085633, "properties": {"loc": [-79.3807966, 43.6789285], "centroid": [-79.415950171687, 43.63196481779232], "screen_name": "tofireS", "time": 1467741365.0, "tid": 750312294870085633, "text": "Medical (Exposure) - Crescent Road b/w Mount Pleasant Road / Crescent Mount Pleasant Ramp, Toronto (2 Trucks)", "created_at": "Tue Jul 05 12:56:05 +0000 2016", "klabel": 0}}, {"geometry": {"type": "Point", "coordinates": [-79.378, 43.679]}, "type": "Feature", "id": 750317164796805120, "properties": {"loc": [-79.378, 43.679], "centroid": [-79.415950171687, 43.63196481779232], "screen_name": "PhelishaCassupp", "time": 1467742526.0, "tid": 750317164796805120, "text": "Rosegold \ud83e\udd11 @ Rosedale, Toronto https://t.co/9U8bJYdTT1", "created_at": "Tue Jul 05 13:15:26 +0000 2016", "klabel": 0}}, {"geometry": {"type": "Point", "coordinates": [-79.386348, 43.667927]}, "type": "Feature", "id": 750324118562668544, "properties": {"loc": [-79.386348, 43.667927], "centroid": [-79.415950171687, 43.63196481779232], "screen_name": "JordanRenaud", "time": 1467744184.0, "tid": 750324118562668544, "text": "Our Government delivers on its promises! - Veterans Affairs Canada Office Reopens in Corner Brook: https://t.co/dQaoH0KWqm", "created_at": "Tue Jul 05 13:43:04 +0000 2016", "klabel": 0}}, {"geometry": {"type": "Point", "coordinates": [-79.3878391, 43.6728576]}, "type": "Feature", "id": 750325616248025088, "properties": {"loc": [-79.3878391, 43.6728576], "centroid": [-79.415950171687, 43.63196481779232], "screen_name": "tpscalls", "time": 1467744541.0, "tid": 750325616248025088, "text": "Unknown Trouble | Yonge St &amp; Davenport Rd [53 Div.] 07/05 09:43 #Midtown_Toronto", "created_at": "Tue Jul 05 13:49:01 +0000 2016", "klabel": 0}}, {"geometry": {"type": "Point", "coordinates": [-79.38834162, 43.67085304]}, "type": "Feature", "id": 750332386563465216, "properties": {"loc": [-79.38834162, 43.67085304], "centroid": [-79.415950171687, 43.63196481779232], "screen_name": "bartenderone", "time": 1467746156.0, "tid": 750332386563465216, "text": "BartenderOne Students\n\nSPEED rounds!!!! We are BartenderOne, you can be BartenderOne\u2026 https://t.co/4iP5kOWfQl", "created_at": "Tue Jul 05 14:15:56 +0000 2016", "klabel": 0}}, {"geometry": {"type": "Point", "coordinates": [-79.3871918, 43.6703987]}, "type": "Feature", "id": 750337451357507584, "properties": {"loc": [-79.3871918, 43.6703987], "centroid": [-79.415950171687, 43.63196481779232], "screen_name": "Bridal_Path", "time": 1467747363.0, "tid": 750337451357507584, "text": "Reserved signs for the Bride, Groom and the entire bridal party #reserved for #bride &amp; #groom\u2026 https://t.co/083vmiPwxA", "created_at": "Tue Jul 05 14:36:03 +0000 2016", "klabel": 0}}, {"geometry": {"type": "Point", "coordinates": [-79.3904614, 43.6692858]}, "type": "Feature", "id": 750342439194415105, "properties": {"loc": [-79.3904614, 43.6692858], "centroid": [-79.415950171687, 43.63196481779232], "screen_name": "tmj_usa_retail", "time": 1467748552.0, "tid": 750342439194415105, "text": "#Retail #Job in #Toronto, ON: Sales Support Associate, J.Crew Retail, 110 Bloor Street at J. Crew https://t.co/dtJ6cSIsLD #Jobs #Hiring", "created_at": "Tue Jul 05 14:55:52 +0000 2016", "klabel": 0}}, {"geometry": {"type": "Point", "coordinates": [-79.3897137, 43.6709577]}, "type": "Feature", "id": 750345977995759618, "properties": {"loc": [-79.3897137, 43.6709577], "centroid": [-79.415950171687, 43.63196481779232], "screen_name": "WineRackCareers", "time": 1467749396.0, "tid": 750345977995759618, "text": "Can you recommend anyone for this #job? Wine Merchant - https://t.co/fvQSrvbExJ #canadajobs #Toronto, ON #Retail #Hiring", "created_at": "Tue Jul 05 15:09:56 +0000 2016", "klabel": 0}}, {"geometry": {"type": "Point", "coordinates": [-79.390487, 43.675347]}, "type": "Feature", "id": 750354202740854784, "properties": {"loc": [-79.390487, 43.675347], "centroid": [-79.415950171687, 43.63196481779232], "screen_name": "LeashnPaws", "time": 1467751357.0, "tid": 750354202740854784, "text": "Clancy! #Toronto #leashandpaws #dogwalker - https://t.co/yXFPMurv6u", "created_at": "Tue Jul 05 15:42:37 +0000 2016", "klabel": 0}}, {"geometry": {"type": "Point", "coordinates": [-79.391575, 43.675265]}, "type": "Feature", "id": 750360213203681280, "properties": {"loc": [-79.391575, 43.675265], "centroid": [-79.415950171687, 43.63196481779232], "screen_name": "LeashnPaws", "time": 1467752790.0, "tid": 750360213203681280, "text": "One walk is never enough for Ollie! #Toronto #leashandpaws #dogwalker #puppy #barbet - https://t.co/34WMzoY8pG", "created_at": "Tue Jul 05 16:06:30 +0000 2016", "klabel": 0}}, {"geometry": {"type": "Point", "coordinates": [-79.38573242, 43.67045502]}, "type": "Feature", "id": 750361575773483008, "properties": {"loc": [-79.38573242, 43.67045502], "centroid": [-79.415950171687, 43.63196481779232], "screen_name": "caiodias", "time": 1467753115.0, "tid": 750361575773483008, "text": "@bonelam sem d\u00favidas.\nVoc\u00ea usa o JS Blocker?", "created_at": "Tue Jul 05 16:11:55 +0000 2016", "klabel": 0}}, {"geometry": {"type": "Point", "coordinates": [-79.38573242, 43.67045502]}, "type": "Feature", "id": 750361844812910596, "properties": {"loc": [-79.38573242, 43.67045502], "centroid": [-79.415950171687, 43.63196481779232], "screen_name": "MrCaioDias", "time": 1467753179.0, "tid": 750361844812910596, "text": "#WTF https://t.co/inAa8Sd2AW", "created_at": "Tue Jul 05 16:12:59 +0000 2016", "klabel": 0}}, {"geometry": {"type": "Point", "coordinates": [-79.390403, 43.67389]}, "type": "Feature", "id": 750365996381265921, "properties": {"loc": [-79.390403, 43.67389], "centroid": [-79.415950171687, 43.63196481779232], "screen_name": "LeashnPaws", "time": 1467754169.0, "tid": 750365996381265921, "text": "Eily! #Toronto #leashandpaws #dogwalker #goldenoftheday - https://t.co/U979njZlQf", "created_at": "Tue Jul 05 16:29:29 +0000 2016", "klabel": 0}}, {"geometry": {"type": "Point", "coordinates": [-79.3906747, 43.6802411]}, "type": "Feature", "id": 750366852518477825, "properties": {"loc": [-79.3906747, 43.6802411], "centroid": [-79.415950171687, 43.63196481779232], "screen_name": "allthebestff", "time": 1467754373.0, "tid": 750366852518477825, "text": "Triple Cream Ch\u00e8vre? Don't mind if I do! \ud83d\udc10\ud83e\uddc0 @ All the Best Fine Foods https://t.co/ljNn7oFwsw", "created_at": "Tue Jul 05 16:32:53 +0000 2016", "klabel": 0}}, {"geometry": {"type": "Point", "coordinates": [-79.3903332, 43.6779566]}, "type": "Feature", "id": 750373746859397120, "properties": {"loc": [-79.3903332, 43.6779566], "centroid": [-79.415950171687, 43.63196481779232], "screen_name": "tmj_gta_hrta", "time": 1467756017.0, "tid": 750373746859397120, "text": "Can you recommend anyone for this #Hospitality #job? https://t.co/GE1FbASt9r 1088 YONGE STREET, #TORONTO, ON #Veterans #Hiring #CareerArc", "created_at": "Tue Jul 05 17:00:17 +0000 2016", "klabel": 0}}, {"geometry": {"type": "Point", "coordinates": [-79.38665, 43.66849]}, "type": "Feature", "id": 750374991141621760, "properties": {"loc": [-79.38665, 43.66849], "centroid": [-79.415950171687, 43.63196481779232], "screen_name": "FCBTML", "time": 1467756313.0, "tid": 750374991141621760, "text": "Day 186, #Burger 186. Never been to 7westcafe so thought I'd check out their\u2026 https://t.co/1eGWZjvHec", "created_at": "Tue Jul 05 17:05:13 +0000 2016", "klabel": 0}}, {"geometry": {"type": "Point", "coordinates": [-79.3904614, 43.6692858]}, "type": "Feature", "id": 750377747441004544, "properties": {"loc": [-79.3904614, 43.6692858], "centroid": [-79.415950171687, 43.63196481779232], "screen_name": "tmj_usa_sales", "time": 1467756970.0, "tid": 750377747441004544, "text": "We're #hiring! Read about our latest #job opening here: Sales Associate, J.Crew Retail, 110 Bloor Street - https://t.co/KYzSJHEekt #Sales", "created_at": "Tue Jul 05 17:16:10 +0000 2016", "klabel": 0}}, {"geometry": {"type": "Point", "coordinates": [-79.3868, 43.6702]}, "type": "Feature", "id": 750378721572511745, "properties": {"loc": [-79.3868, 43.6702], "centroid": [-79.415950171687, 43.63196481779232], "screen_name": "kartenquizde", "time": 1467757203.0, "tid": 750378721572511745, "text": "Wo liegt Toronto? https://t.co/A4G5zW5anS #Toronto #quiz", "created_at": "Tue Jul 05 17:20:03 +0000 2016", "klabel": 0}}, {"geometry": {"type": "Point", "coordinates": [-79.389406, 43.676225]}, "type": "Feature", "id": 750379715731546113, "properties": {"loc": [-79.389406, 43.676225], "centroid": [-79.415950171687, 43.63196481779232], "screen_name": "LeashnPaws", "time": 1467757440.0, "tid": 750379715731546113, "text": "Emma is more into squirrels than Finn is. #dogwalker #leashandpaws #Toronto - https://t.co/KPCGisfzWC", "created_at": "Tue Jul 05 17:24:00 +0000 2016", "klabel": 0}}, {"geometry": {"type": "Point", "coordinates": [-79.38724959, 43.6690533]}, "type": "Feature", "id": 750387961766830080, "properties": {"loc": [-79.38724959, 43.6690533], "centroid": [-79.415950171687, 43.63196481779232], "screen_name": "frederyckf", "time": 1467759406.0, "tid": 750387961766830080, "text": "That's Me\n#selfie #city #toronto #the6ix #sky #concretejungle #picoftheday @ Downtown Toronto https://t.co/moJmIXWJqh", "created_at": "Tue Jul 05 17:56:46 +0000 2016", "klabel": 0}}, {"geometry": {"type": "Point", "coordinates": [-79.393066, 43.670754]}, "type": "Feature", "id": 751213039987281920, "properties": {"loc": [-79.393066, 43.670754], "centroid": [-79.415950171687, 43.63196481779232], "screen_name": "Chef_MarkMcEwan", "time": 1467956120.0, "tid": 751213039987281920, "text": "Summerlicious 2016 starts tomorrow, July 8th! S'MORES ECLAIR spoiler, video by @thesix_co @ One\u2026 https://t.co/6JNzIuTNEl", "created_at": "Fri Jul 08 00:35:20 +0000 2016", "klabel": 0}}, {"geometry": {"type": "Point", "coordinates": [-79.38871584, 43.66929104]}, "type": "Feature", "id": 751218955293958144, "properties": {"loc": [-79.38871584, 43.66929104], "centroid": [-79.415950171687, 43.63196481779232], "screen_name": "tylerhhan", "time": 1467957530.0, "tid": 751218955293958144, "text": "I'm at Cineplex Odeon Varsity &amp; VIP Cinemas - @cineplexmovies for Love &amp; Friendship in Toronto, ON https://t.co/BRVeIfjvxH", "created_at": "Fri Jul 08 00:58:50 +0000 2016", "klabel": 0}}, {"geometry": {"type": "Point", "coordinates": [-79.38864, 43.66963]}, "type": "Feature", "id": 751242037610119169, "properties": {"loc": [-79.38864, 43.66963], "centroid": [-79.415950171687, 43.63196481779232], "screen_name": "GCalman", "time": 1467963033.0, "tid": 751242037610119169, "text": "My slaw #OneEighty #style @the51stfloor #truecooks #truechefs #yorkvilleEats #the6ixEats\u2026 https://t.co/WH0oAi4Exz", "created_at": "Fri Jul 08 02:30:33 +0000 2016", "klabel": 0}}, {"geometry": {"type": "Point", "coordinates": [-79.3876839, 43.6669119]}, "type": "Feature", "id": 751632237549027328, "properties": {"loc": [-79.3876839, 43.6669119], "centroid": [-79.415950171687, 43.63196481779232], "screen_name": "tpscalls", "time": 1468056064.0, "tid": 751632237549027328, "text": "See Ambulance | Irwin Ave &amp; Inkerman St [52 Div.] 07/09 00:16 #Downtown #Toronto", "created_at": "Sat Jul 09 04:21:04 +0000 2016", "klabel": 0}}, {"geometry": {"type": "Point", "coordinates": [-79.38864, 43.66963]}, "type": "Feature", "id": 751660407358681089, "properties": {"loc": [-79.38864, 43.66963], "centroid": [-79.415950171687, 43.63196481779232], "screen_name": "THEVancityBabe", "time": 1468062780.0, "tid": 751660407358681089, "text": "\ud83c\udf77\ud83c\udf03\n#teamwine #rooftop #eastcoasttour #vacay #tdot \n\n#liveit #loveit #writerlife #happy #smile\u2026 https://t.co/CYv7HQW0WT", "created_at": "Sat Jul 09 06:13:00 +0000 2016", "klabel": 0}}, {"geometry": {"type": "Point", "coordinates": [-79.3871335, 43.671145]}, "type": "Feature", "id": 751688352555040768, "properties": {"loc": [-79.3871335, 43.671145], "centroid": [-79.415950171687, 43.63196481779232], "screen_name": "tpscalls", "time": 1468069443.0, "tid": 751688352555040768, "text": "Assault Just Occurred | Yonge St &amp; Cumberland St [53 Div.] 07/09 03:57 #Midtown_Toronto", "created_at": "Sat Jul 09 08:04:03 +0000 2016", "klabel": 0}}, {"geometry": {"type": "Point", "coordinates": [-79.3903333, 43.6779566]}, "type": "Feature", "id": 751757554565263360, "properties": {"loc": [-79.3903333, 43.6779566], "centroid": [-79.415950171687, 43.63196481779232], "screen_name": "tmj_gta_hrta", "time": 1468085942.0, "tid": 751757554565263360, "text": "Want to work at Starbucks? We're #hiring in 1088 YONGE STREET, #TORONTO, ON! Click for details: https://t.co/kRhxt8oBd0 #Job #Hospitality", "created_at": "Sat Jul 09 12:39:02 +0000 2016", "klabel": 0}}, {"geometry": {"type": "Point", "coordinates": [-79.392253, 43.670019]}, "type": "Feature", "id": 751767385124864000, "properties": {"loc": [-79.392253, 43.670019], "centroid": [-79.415950171687, 43.63196481779232], "screen_name": "DimmyV", "time": 1468088286.0, "tid": 751767385124864000, "text": "I'm at starbucks at the rock https://t.co/ojfNgx5OwW", "created_at": "Sat Jul 09 13:18:06 +0000 2016", "klabel": 0}}, {"geometry": {"type": "Point", "coordinates": [-79.39321381, 43.6713502]}, "type": "Feature", "id": 751767482478710784, "properties": {"loc": [-79.39321381, 43.6713502], "centroid": [-79.415950171687, 43.63196481779232], "screen_name": "FCM08", "time": 1468088309.0, "tid": 751767482478710784, "text": "regrann from @bertabridal  -  Toronto trunk show day #2 \ud83c\udf80 #BERTA at @whiteto_mtl\n#fcmbridal\ud83d\udc57\u2026 https://t.co/lj8fxsCoj5", "created_at": "Sat Jul 09 13:18:29 +0000 2016", "klabel": 0}}, {"geometry": {"type": "Point", "coordinates": [-79.38698411, 43.67172179]}, "type": "Feature", "id": 751791761937297412, "properties": {"loc": [-79.38698411, 43.67172179], "centroid": [-79.415950171687, 43.63196481779232], "screen_name": "humanplusdesign", "time": 1468094098.0, "tid": 751791761937297412, "text": "Lurking makerfestival and eavesdropping on all sorts of fantastic conversations. I think all the\u2026 https://t.co/dntO3MFDEi", "created_at": "Sat Jul 09 14:54:58 +0000 2016", "klabel": 0}}, {"geometry": {"type": "Point", "coordinates": [-79.38698411, 43.67172179]}, "type": "Feature", "id": 751792781170016260, "properties": {"loc": [-79.38698411, 43.67172179], "centroid": [-79.415950171687, 43.63196481779232], "screen_name": "humanplusdesign", "time": 1468094341.0, "tid": 751792781170016260, "text": "The lovely danicadrago \"Pedal Potter Extraordinaire\" (bicycle-powered potter's wheel)\u2026 https://t.co/K0U9DmLbFi", "created_at": "Sat Jul 09 14:59:01 +0000 2016", "klabel": 0}}, {"geometry": {"type": "Point", "coordinates": [-79.38837, 43.67145]}, "type": "Feature", "id": 751803247778729984, "properties": {"loc": [-79.38837, 43.67145], "centroid": [-79.415950171687, 43.63196481779232], "screen_name": "kashiifoto", "time": 1468096836.0, "tid": 751803247778729984, "text": "Getting back into #reading on the subway. This time @shondarhimes #yearofyes thanks to\u2026 https://t.co/UV4ZRl1iAB", "created_at": "Sat Jul 09 15:40:36 +0000 2016", "klabel": 0}}, {"geometry": {"type": "Point", "coordinates": [-79.38698411, 43.67172179]}, "type": "Feature", "id": 751805203515604992, "properties": {"loc": [-79.38698411, 43.67172179], "centroid": [-79.415950171687, 43.63196481779232], "screen_name": "humanplusdesign", "time": 1468097303.0, "tid": 751805203515604992, "text": "An interactive, socially inclusive and totally ooh-pretty sculpture from @romtoronto #chihulyto\u2026 https://t.co/0p9NQivCRp", "created_at": "Sat Jul 09 15:48:23 +0000 2016", "klabel": 0}}, {"geometry": {"type": "Point", "coordinates": [-79.38670814, 43.67192259]}, "type": "Feature", "id": 751805848419270659, "properties": {"loc": [-79.38670814, 43.67192259], "centroid": [-79.415950171687, 43.63196481779232], "screen_name": "anna_lytical", "time": 1468097456.0, "tid": 751805848419270659, "text": "Maker festival (@ Toronto Public Library - Toronto Reference Library - @torontolibrary in Toronto, ON) https://t.co/HuIyN0U4eN", "created_at": "Sat Jul 09 15:50:56 +0000 2016", "klabel": 0}}, {"geometry": {"type": "Point", "coordinates": [-79.38698411, 43.67172179]},