{"type": "FeatureCollection", "features": [{"geometry": {"type": "Point", "coordinates": [-79.4403076, 43.6981087]}, "type": "Feature", "id": 754824054960455682, "properties": {"loc": [-79.4403076, 43.6981087], "screen_name": "King1Lyrical", "text": "Cheap N Clean Mondayz\n\nThis Week\n\nSo You Think You Can Dance Edition\n\nLas Brisas Night Club\n\n24\u2026 https://t.co/a2dE9ZoLKB", "created_at": "Sun Jul 17 23:44:13 +0000 2016", "time": 1468799043.510532, "tid": 754824054960455682, "nei_num": "102"}}, {"geometry": {"type": "Point", "coordinates": [-79.439679, 43.698801]}, "type": "Feature", "id": 762331238883622912, "properties": {"loc": [-79.439679, 43.698801], "screen_name": "tofire", "text": "Medical (Assist) - Livingstone Avenue b/w Marlee Avenue / Times Road, York (2 Trucks)", "created_at": "Sun Aug 07 16:55:05 +0000 2016", "time": 1470588890.636492, "tid": 762331238883622912, "nei_num": "102"}}, {"geometry": {"type": "Point", "coordinates": [-79.439679, 43.698801]}, "type": "Feature", "id": 762331239705632768, "properties": {"loc": [-79.439679, 43.698801], "screen_name": "tofireS", "text": "Medical (Assist) - Livingstone Avenue b/w Marlee Avenue / Times Road, York (2 Trucks)", "created_at": "Sun Aug 07 16:55:05 +0000 2016", "time": 1470588890.882562, "tid": 762331239705632768, "nei_num": "102"}}, {"geometry": {"type": "Point", "coordinates": [-79.4402753, 43.7003154]}, "type": "Feature", "id": 754461882220675072, "properties": {"loc": [-79.4402753, 43.7003154], "screen_name": "tofire", "text": "Alarm Residential - Whitmore Avenue b/w Marlee Avenue / Times Road, York (6 Trucks)", "created_at": "Sat Jul 16 23:45:04 +0000 2016", "time": 1468712694.993129, "tid": 754461882220675072, "nei_num": "102"}}, {"geometry": {"type": "Point", "coordinates": [-79.4402753, 43.7003154]}, "type": "Feature", "id": 754461883034398724, "properties": {"loc": [-79.4402753, 43.7003154], "screen_name": "tofireS", "text": "Alarm Residential - Whitmore Avenue b/w Marlee Avenue / Times Road, York (6 Trucks)", "created_at": "Sat Jul 16 23:45:04 +0000 2016", "time": 1468712695.386754, "tid": 754461883034398724, "nei_num": "102"}}, {"geometry": {"type": "Point", "coordinates": [-79.4399887, 43.6995451]}, "type": "Feature", "id": 756986010081329153, "properties": {"loc": [-79.4399887, 43.6995451], "screen_name": "tofire", "text": "Carbon Monoxide (Non Medical) - Belgravia Avenue b/w Marlee Avenue / Times Road, York (2 Trucks)", "created_at": "Sat Jul 23 22:55:03 +0000 2016", "time": 1469314492.28243, "tid": 756986010081329153, "nei_num": "102"}}, {"geometry": {"type": "Point", "coordinates": [-79.4399887, 43.6995451]}, "type": "Feature", "id": 756986010941218816, "properties": {"loc": [-79.4399887, 43.6995451], "screen_name": "tofireS", "text": "Carbon Monoxide (Non Medical) - Belgravia Avenue b/w Marlee Avenue / Times Road, York (2 Trucks)", "created_at": "Sat Jul 23 22:55:03 +0000 2016", "time": 1469314492.50736, "tid": 756986010941218816, "nei_num": "102"}}, {"geometry": {"type": "Point", "coordinates": [-79.4405715, 43.7010689]}, "type": "Feature", "id": 754425391322918916, "properties": {"loc": [-79.4405715, 43.7010689], "screen_name": "tofire", "text": "Alarm Highrise Residential - Hopewell Avenue b/w Marlee Avenue / Times Road, York (6 Trucks)", "created_at": "Sat Jul 16 21:20:04 +0000 2016", "time": 1468703994.935063, "tid": 754425391322918916, "nei_num": "102"}}, {"geometry": {"type": "Point", "coordinates": [-79.4405715, 43.7010689]}, "type": "Feature", "id": 754425392124100608, "properties": {"loc": [-79.4405715, 43.7010689], "screen_name": "tofireS", "text": "Alarm Highrise Residential - Hopewell Avenue b/w Marlee Avenue / Times Road, York (6 Trucks)", "created_at": "Sat Jul 16 21:20:04 +0000 2016", "time": 1468703995.109299, "tid": 754425392124100608, "nei_num": "102"}}, {"geometry": {"type": "Point", "coordinates": [-79.4405715, 43.7010689]}, "type": "Feature", "id": 772189948204179456, "properties": {"loc": [-79.4405715, 43.7010689], "screen_name": "tofire", "text": "Medical (Trouble Breathing) - Hopewell Avenue b/w Marlee Avenue / Times Road, York (2 Trucks)", "created_at": "Sat Sep 03 21:50:04 +0000 2016", "time": 1472939383.808456, "tid": 772189948204179456, "nei_num": "102"}}, {"geometry": {"type": "Point", "coordinates": [-79.4405715, 43.7010689]}, "type": "Feature", "id": 772189949173137408, "properties": {"loc": [-79.4405715, 43.7010689], "screen_name": "tofireS", "text": "Medical (Trouble Breathing) - Hopewell Avenue b/w Marlee Avenue / Times Road, York (2 Trucks)", "created_at": "Sat Sep 03 21:50:05 +0000 2016", "time": 1472939383.934036, "tid": 772189949173137408, "nei_num": "102"}}, {"geometry": {"type": "Point", "coordinates": [-79.4403893, 43.7027479]}, "type": "Feature", "id": 763389704712650752, "properties": {"loc": [-79.4403893, 43.7027479], "screen_name": "tpscalls", "text": "Missing Elderly | Elm Ridge Dr &amp; Lyon Crt [13 Div.] 08/10 10:55 #Midtown_Toronto", "created_at": "Wed Aug 10 15:01:03 +0000 2016", "time": 1470841247.87963, "tid": 763389704712650752, "nei_num": "102"}}, {"geometry": {"type": "Point", "coordinates": [-79.4406684, 43.70302579]}, "type": "Feature", "id": 752155303613984768, "properties": {"loc": [-79.4406684, 43.70302579], "screen_name": "big_dreamer11", "text": "Great night with the b*****s last night! Amanda's bachelorette muzik club! #Toronto @ Muzik\u2026 https://t.co/4PnyV8HQgj", "created_at": "Sun Jul 10 14:59:33 +0000 2016", "time": 1468162765.257571, "tid": 752155303613984768, "nei_num": "102"}}, {"geometry": {"type": "Point", "coordinates": [-79.4406684, 43.70302579]}, "type": "Feature", "id": 754668008409149440, "properties": {"loc": [-79.4406684, 43.70302579], "screen_name": "ShowDown_TO", "text": "Join us Today, Sun July 17th for the #Muzikbeach Day Party! Open\u2026 https://t.co/2dbVTrlagB", "created_at": "Sun Jul 17 13:24:08 +0000 2016", "time": 1468761839.162722, "tid": 754668008409149440, "nei_num": "102"}}, {"geometry": {"type": "Point", "coordinates": [-79.4406684, 43.70302579]}, "type": "Feature", "id": 758426040234565632, "properties": {"loc": [-79.4406684, 43.70302579], "screen_name": "anwarwallace", "text": "Where else could you find the hottest poolside party on a Saturday night in Toronto? It will be\u2026 https://t.co/DsFOuuhzLK", "created_at": "Wed Jul 27 22:17:13 +0000 2016", "time": 1469657821.35999, "tid": 758426040234565632, "nei_num": "102"}}, {"geometry": {"type": "Point", "coordinates": [-79.4406684, 43.70302579]}, "type": "Feature", "id": 761577484643135488, "properties": {"loc": [-79.4406684, 43.70302579], "screen_name": "polinaOH", "text": "Muzik Beach returns this Saturday night and Sunday day inside @muzikclubs \ud83c\udf7e come join the\u2026 https://t.co/ckD6GFfmv4", "created_at": "Fri Aug 05 14:59:56 +0000 2016", "time": 1470409182.226228, "tid": 761577484643135488, "nei_num": "102"}}, {"geometry": {"type": "Point", "coordinates": [-79.4406684, 43.70302579]}, "type": "Feature", "id": 762323698498039809, "properties": {"loc": [-79.4406684, 43.70302579], "screen_name": "_MonicaAguilar_", "text": "The muzik was \ud83d\udca3 @ Muzik Nightclub https://t.co/myFqzQstIu", "created_at": "Sun Aug 07 16:25:07 +0000 2016", "time": 1470587092.923131, "tid": 762323698498039809, "nei_num": "102"}}, {"geometry": {"type": "Point", "coordinates": [-79.4406684, 43.70302579]}, "type": "Feature", "id": 770282327209484288, "properties": {"loc": [-79.4406684, 43.70302579], "screen_name": "vicmucciante97", "text": "My other half\u2764\ufe0f\u2764\ufe0f\u2764\ufe0f @ Muzik Nightclub https://t.co/S13Ipl5U2X", "created_at": "Mon Aug 29 15:29:52 +0000 2016", "time": 1472484572.720972, "tid": 770282327209484288, "nei_num": "102"}}, {"geometry": {"type": "Point", "coordinates": [-79.4406684, 43.70302579]}, "type": "Feature", "id": 770462256920338432, "properties": {"loc": [-79.4406684, 43.70302579], "screen_name": "vicmucciante97", "text": "\ud83d\udc99\ud83d\udc99\ud83d\udc99 @ Muzik Nightclub https://t.co/LC684LD8lq", "created_at": "Tue Aug 30 03:24:51 +0000 2016", "time": 1472527471.147809, "tid": 770462256920338432, "nei_num": "102"}}, {"geometry": {"type": "Point", "coordinates": [-79.4406684, 43.70302579]}, "type": "Feature", "id": 770671236586283008, "properties": {"loc": [-79.4406684, 43.70302579], "screen_name": "JosieOrlando", "text": "1 vodka, 2 vodka, 3 vodka, floor.\ud83c\udf7b\ud83d\ude04 @ Muzik Nightclub https://t.co/gaTMP7VPlW", "created_at": "Tue Aug 30 17:15:15 +0000 2016", "time": 1472577295.609906, "tid": 770671236586283008, "nei_num": "102"}}, {"geometry": {"type": "Point", "coordinates": [-79.4406684, 43.70302579]}, "type": "Feature", "id": 772559130024370176, "properties": {"loc": [-79.4406684, 43.70302579], "screen_name": "amandaead", "text": "so far my 20's have been kind to me \ud83c\udf82\ud83c\udf89\ud83d\udc45 @ Muzik Nightclub https://t.co/sD1ZMSp18Y", "created_at": "Sun Sep 04 22:17:04 +0000 2016", "time": 1473027403.360611, "tid": 772559130024370176, "nei_num": "102"}}, {"geometry": {"type": "Point", "coordinates": [-79.4406684, 43.70302579]}, "type": "Feature", "id": 772950240995315712, "properties": {"loc": [-79.4406684, 43.70302579], "screen_name": "JustKhan_", "text": "Ain't felt the pressure in a little while @ Muzik Nightclub https://t.co/UlKcB8KrQp", "created_at": "Tue Sep 06 00:11:12 +0000 2016", "time": 1473120651.187383, "tid": 772950240995315712, "nei_num": "102"}}, {"geometry": {"type": "Point", "coordinates": [-79.4406684, 43.70302579]}, "type": "Feature", "id": 772951049980162048, "properties": {"loc": [-79.4406684, 43.70302579], "screen_name": "JustKhan_", "text": "Ain't felt the pressure in a little while @ Muzik Nightclub https://t.co/IYUK3kk3D3", "created_at": "Tue Sep 06 00:14:25 +0000 2016", "time": 1473120844.189098, "tid": 772951049980162048, "nei_num": "102"}}, {"geometry": {"type": "Point", "coordinates": [-79.4390839, 43.6981443]}, "type": "Feature", "id": 764230497316794368, "properties": {"loc": [-79.4390839, 43.6981443], "screen_name": "tpscalls", "text": "See Ambulance | Eglinton Ave W &amp; Winona Dr [13 Div.] 08/12 18:37 #Midtown_Toronto", "created_at": "Fri Aug 12 22:42:03 +0000 2016", "time": 1471041707.884195, "tid": 764230497316794368, "nei_num": "102"}}, {"geometry": {"type": "Point", "coordinates": [-79.4388922, 43.6983856]}, "type": "Feature", "id": 762720794753568768, "properties": {"loc": [-79.4388922, 43.6983856], "screen_name": "tpscalls", "text": "Dispute | Leaves Ter &amp; Grand Ave [22 Div.] 08/08 14:38 #Midtown_Toronto", "created_at": "Mon Aug 08 18:43:02 +0000 2016", "time": 1470681767.972654, "tid": 762720794753568768, "nei_num": "102"}}, {"geometry": {"type": "Point", "coordinates": [-79.4383884, 43.6981988]}, "type": "Feature", "id": 705822900884996097, "properties": {"loc": [-79.4383884, 43.6981988], "screen_name": "tofire", "text": "Check Call (Non Emergency) - Eglinton Avenue b/w Atlas Avenue / Winona Dr, York (2 Trucks)", "created_at": "Fri Mar 04 18:31:07 +0000 2016", "time": 1457116268.319756, "tid": 705822900884996097, "nei_num": "102"}}, {"geometry": {"type": "Point", "coordinates": [-79.4383884, 43.6981988]}, "type": "Feature", "id": 705822904752201729, "properties": {"loc": [-79.4383884, 43.6981988], "screen_name": "tofireS", "text": "Check Call (Non Emergency) - Eglinton Avenue b/w Atlas Avenue / Winona Dr, York (2 Trucks)", "created_at": "Fri Mar 04 18:31:08 +0000 2016", "time": 1457116269.173299, "tid": 705822904752201729, "nei_num": "102"}}, {"geometry": {"type": "Point", "coordinates": [-79.4383884, 43.6981988]}, "type": "Feature", "id": 753715723600560128, "properties": {"loc": [-79.4383884, 43.6981988], "screen_name": "tofire", "text": "Medical (Unconscious) - Eglinton Avenue b/w Atlas Avenue / Winona Dr, York (2 Trucks)", "created_at": "Thu Jul 14 22:20:06 +0000 2016", "time": 1468534797.348602, "tid": 753715723600560128, "nei_num": "102"}}, {"geometry": {"type": "Point", "coordinates": [-79.4383884, 43.6981988]}, "type": "Feature", "id": 753715724749766660, "properties": {"loc": [-79.4383884, 43.6981988], "screen_name": "tofireS", "text": "Medical (Unconscious) - Eglinton Avenue b/w Atlas Avenue / Winona Dr, York (2 Trucks)", "created_at": "Thu Jul 14 22:20:06 +0000 2016", "time": 1468534797.651978, "tid": 753715724749766660, "nei_num": "102"}}, {"geometry": {"type": "Point", "coordinates": [-79.4383884, 43.6981988]}, "type": "Feature", "id": 766408346148675585, "properties": {"loc": [-79.4383884, 43.6981988], "screen_name": "tofireS", "text": "Vehicle (Personal Injury) - Atlas Avenue @ Eglinton Avenue West, York (2 Trucks)", "created_at": "Thu Aug 18 22:56:03 +0000 2016", "time": 1471560946.236249, "tid": 766408346148675585, "nei_num": "102"}}, {"geometry": {"type": "Point", "coordinates": [-79.4383884, 43.6981988]}, "type": "Feature", "id": 766408345058148352, "properties": {"loc": [-79.4383884, 43.6981988], "screen_name": "tofire", "text": "Vehicle (Personal Injury) - Atlas Avenue @ Eglinton Avenue West, York (2 Trucks)", "created_at": "Thu Aug 18 22:56:03 +0000 2016", "time": 1471560945.84623, "tid": 766408345058148352, "nei_num": "102"}}, {"geometry": {"type": "Point", "coordinates": [-79.4383884, 43.6981988]}, "type": "Feature", "id": 766409605215846404, "properties": {"loc": [-79.4383884, 43.6981988], "screen_name": "tpscalls", "text": "Personal Injury Collision | Atlas Ave &amp; Eglinton Ave W [HP] 08/18 18:56 #Midtown_Toronto", "created_at": "Thu Aug 18 23:01:03 +0000 2016", "time": 1471561246.252672, "tid": 766409605215846404, "nei_num": "102"}}, {"geometry": {"type": "Point", "coordinates": [-79.4390362, 43.7002159]}, "type": "Feature", "id": 765967943683477504, "properties": {"loc": [-79.4390362, 43.7002159], "screen_name": "tofire", "text": "Vehicle (Personal Injury) - Whitmore Avenue @ Fairleigh Crescent, Toronto (2 Trucks)", "created_at": "Wed Aug 17 17:46:03 +0000 2016", "time": 1471455946.392902, "tid": 765967943683477504, "nei_num": "102"}}, {"geometry": {"type": "Point", "coordinates": [-79.4390362, 43.7002159]}, "type": "Feature", "id": 765967945256341504, "properties": {"loc": [-79.4390362, 43.7002159], "screen_name": "tofireS", "text": "Vehicle (Personal Injury) - Whitmore Avenue @ Fairleigh Crescent, Toronto (2 Trucks)", "created_at": "Wed Aug 17 17:46:03 +0000 2016", "time": 1471455946.613342, "tid": 765967945256341504, "nei_num": "102"}}, {"geometry": {"type": "Point", "coordinates": [-79.4390362, 43.7002159]}, "type": "Feature", "id": 765968696200265729, "properties": {"loc": [-79.4390362, 43.7002159], "screen_name": "tpscalls", "text": "Personal Injury Collision | Whitmore Ave &amp; Fairleigh Cres [HP] 08/17 13:43 #Midtown_Toronto", "created_at": "Wed Aug 17 17:49:02 +0000 2016", "time": 1471456125.676424, "tid": 765968696200265729, "nei_num": "102"}}, {"geometry": {"type": "Point", "coordinates": [-79.4390362, 43.7002159]}, "type": "Feature", "id": 765972472525127680, "properties": {"loc": [-79.4390362, 43.7002159], "screen_name": "tpscalls", "text": "Personal Injury Collision | Whitmore Ave &amp; Fairleigh Cres [13 Div.] 08/17 13:59 #Midtown_Toronto", "created_at": "Wed Aug 17 18:04:03 +0000 2016", "time": 1471457026.026497, "tid": 765972472525127680, "nei_num": "102"}}, {"geometry": {"type": "Point", "coordinates": [-79.4375068, 43.6984393]}, "type": "Feature", "id": 762069077699493890, "properties": {"loc": [-79.4375068, 43.6984393], "screen_name": "misskimrosita", "text": "I'm a believer of the impossible and going the road less travelled. I can do all things through Christ alone. #DoWhatYouCant", "created_at": "Sat Aug 06 23:33:21 +0000 2016", "time": 1470526386.761615, "tid": 762069077699493890, "nei_num": "102"}}, {"geometry": {"type": "Point", "coordinates": [-79.4371693, 43.6984741]}, "type": "Feature", "id": 759365020606042112, "properties": {"loc": [-79.4371693, 43.6984741], "screen_name": "Mindlessrobot37", "text": "@KrugerRi @deborahpearce18 @zahnmcc @MyWolfsong @AlexOsplace Beautiful!", "created_at": "Sat Jul 30 12:28:23 +0000 2016", "time": 1469881691.122356, "tid": 759365020606042112, "nei_num": "102"}}, {"geometry": {"type": "Point", "coordinates": [-79.43819002, 43.70188718]}, "type": "Feature", "id": 770489225032728576, "properties": {"loc": [-79.43819002, 43.70188718], "screen_name": "cmontoyaN21", "text": "They are an Amaizing couple. Wedding performance. bravosdancecompany bravosevents\u2026 https://t.co/M9O4E3DYGL", "created_at": "Tue Aug 30 05:12:00 +0000 2016", "time": 1472533900.898645, "tid": 770489225032728576, "nei_num": "102"}}, {"geometry": {"type": "Point", "coordinates": [-79.436746, 43.702664]}, "type": "Feature", "id": 753542894108217345, "properties": {"loc": [-79.436746, 43.702664], "screen_name": "AndreaMS108", "text": "Hot,  humid and rainy 8km #seawheeze #stwm #thesweatlife #runthe6ix #thesweatlifeto #runto @ Kay\u2026 https://t.co/yswtOy2qxi", "created_at": "Thu Jul 14 10:53:20 +0000 2016", "time": 1468493591.773888, "tid": 753542894108217345, "nei_num": "102"}}, {"geometry": {"type": "Point", "coordinates": [-79.436746, 43.702664]}, "type": "Feature", "id": 757915049117773824, "properties": {"loc": [-79.436746, 43.702664], "screen_name": "AndreaMS108", "text": "Starting the day with 8km tempo run #seawheeze #runthe6ix #thesweatlife #stwm #thesweatlifeTO @\u2026 https://t.co/0wRgYW5Blr", "created_at": "Tue Jul 26 12:26:43 +0000 2016", "time": 1469535992.025554, "tid": 757915049117773824, "nei_num": "102"}}, {"geometry": {"type": "Point", "coordinates": [-79.4362017, 43.6989884]}, "type": "Feature", "id": 705527226041802752, "properties": {"loc": [-79.4362017, 43.6989884], "screen_name": "exkalibur_to", "text": "It'd sure be nice if @TorontoPolice enforced the bus turning lane at Eg West, especially since @TPS13Div is right there...", "created_at": "Thu Mar 03 22:56:13 +0000 2016", "time": 1457045773.861104, "tid": 705527226041802752, "nei_num": "102"}}, {"geometry": {"type": "Point", "coordinates": [-79.43609834, 43.69910438]}, "type": "Feature", "id": 705162500246003714, "properties": {"loc": [-79.43609834, 43.69910438], "screen_name": "tylerhhan", "text": "I'm at Eglinton West Subway Station in Toronto, ON https://t.co/MlyTu3n2WP", "created_at": "Wed Mar 02 22:46:56 +0000 2016", "time": 1456958816.259799, "tid": 705162500246003714, "nei_num": "102"}}, {"geometry": {"type": "Point", "coordinates": [-79.43609834, 43.69910438]}, "type": "Feature", "id": 755871678790524929, "properties": {"loc": [-79.43609834, 43.69910438], "screen_name": "celsocelante", "text": "I'm at Eglinton West Subway Station (Toronto, ON) https://t.co/q9mPgGyWNN", "created_at": "Wed Jul 20 21:07:06 +0000 2016", "time": 1469048815.914891, "tid": 755871678790524929, "nei_num": "102"}}, {"geometry": {"type": "Point", "coordinates": [-79.43609834, 43.69910438]}, "type": "Feature", "id": 765183645082583040, "properties": {"loc": [-79.43609834, 43.69910438], "screen_name": "celsocelante", "text": "I'm at Eglinton West Subway Station (Toronto, ON) https://t.co/HwndjRlPCQ", "created_at": "Mon Aug 15 13:49:32 +0000 2016", "time": 1471268955.458551, "tid": 765183645082583040, "nei_num": "102"}}, {"geometry": {"type": "Point", "coordinates": [-79.435342, 43.698435]}, "type": "Feature", "id": 754409531677868032, "properties": {"loc": [-79.435342, 43.698435], "screen_name": "Bees_N_Trees", "text": "Making friends. #nature_grows #cicada #love #lifewithjoe #family #summer #babymamaatwork @ Ben\u2026 https://t.co/e4rjBnWOui", "created_at": "Sat Jul 16 20:17:03 +0000 2016", "time": 1468700213.675363, "tid": 754409531677868032, "nei_num": "102"}}, {"geometry": {"type": "Point", "coordinates": [-79.435819, 43.699209]}, "type": "Feature", "id": 754423028180668416, "properties": {"loc": [-79.435819, 43.699209], "screen_name": "AndreasKalo", "text": "Tmac member, the incomparable Jay Douglas with the sweet reggae\u2026 https://t.co/cxKqWQLVaE", "created_at": "Sat Jul 16 21:10:41 +0000 2016", "time": 1468703431.528342, "tid": 754423028180668416, "nei_num": "102"}}, {"geometry": {"type": "Point", "coordinates": [-79.435819, 43.699209]}, "type": "Feature", "id": 754704669859917824, "properties": {"loc": [-79.435819, 43.699209], "screen_name": "georgiienne", "text": "I want this in my apartment! So cool #ttc #egwest #subwayart #urbanart @ Eglinton West https://t.co/JMigzdNrM9", "created_at": "Sun Jul 17 15:49:49 +0000 2016", "time": 1468770579.911861, "tid": 754704669859917824, "nei_num": "102"}}, {"geometry": {"type": "Point", "coordinates": [-79.435819, 43.699209]}, "type": "Feature", "id": 755056411168608258, "properties": {"loc": [-79.435819, 43.699209], "screen_name": "FAMESUPPLYCO", "text": "Support local businesses that help build the community by giving back to the communities that we\u2026 https://t.co/VsjR1JFSg2", "created_at": "Mon Jul 18 15:07:31 +0000 2016", "time": 1468854441.414849, "tid": 755056411168608258, "nei_num": "102"}}, {"geometry": {"type": "Point", "coordinates": [-79.435819, 43.699209]}, "type": "Feature", "id": 755440381215576064, "properties": {"loc": [-79.435819, 43.699209], "screen_name": "cvirtueskirts", "text": "I did it! I got the documents to open my new account at @jnbscanada of @jamaicanational .  All\u2026 https://t.co/l5bRRWuaE1", "created_at": "Tue Jul 19 16:33:16 +0000 2016", "time": 1468945986.692197, "tid": 755440381215576064, "nei_num": "102"}}, {"geometry": {"type": "Point", "coordinates": [-79.435819, 43.699209]}, "type": "Feature", "id": 755441392260943872, "properties": {"loc": [-79.435819, 43.699209], "screen_name": "cvirtueskirts", "text": "I did it! I got the documents to open my new account at @jnbscanada of @jamaicanational .  All\u2026 https://t.co/eA8Y1ZEICT", "created_at": "Tue Jul 19 16:37:17 +0000 2016", "time": 1468946227.715115, "tid": 755441392260943872, "nei_num": "102"}}, {"geometry": {"type": "Point", "coordinates": [-79.435819, 43.699209]}, "type": "Feature", "id": 755645631742566400, "properties": {"loc": [-79.435819, 43.699209], "screen_name": "pauleto", "text": "TTC can be cute sometimes \ud83c\udf36 #cute #art #urban #ttc #toronto #eglintonwest #kawaii #blogto\u2026 https://t.co/V5J6ca28Oe", "created_at": "Wed Jul 20 06:08:52 +0000 2016", "time": 1468994922.107617, "tid": 755645631742566400, "nei_num": "102"}}, {"geometry": {"type": "Point", "coordinates": [-79.435819, 43.699209]}, "type": "Feature", "id": 757956799043559425, "properties": {"loc": [-79.435819, 43.699209], "screen_name": "nesquike", "text": "Chrissie's all dressed up and acting coy #Garbage #BleedLikeMe #Toronto #Outtoclass #ponnytail @\u2026 https://t.co/ecK9BSxyhs", "created_at": "Tue Jul 26 15:12:37 +0000 2016", "time": 1469545945.848146, "tid": 757956799043559425, "nei_num": "102"}}, {"geometry": {"type": "Point", "coordinates": [-79.435819, 43.699209]}, "type": "Feature", "id": 758151033638060032, "properties": {"loc": [-79.435819, 43.699209], "screen_name": "Pherae_Le_Sann", "text": "Sundown over Forest Hill shot from Upper Village ... @ Eglinton West https://t.co/ORKjqorCRE", "created_at": "Wed Jul 27 04:04:26 +0000 2016", "time": 1469592254.884759, "tid": 758151033638060032, "nei_num": "102"}}, {"geometry": {"type": "Point", "coordinates": [-79.435819, 43.699209]}, "type": "Feature", "id": 759178925159231489, "properties": {"loc": [-79.435819, 43.699209], "screen_name": "Neeka_Fedyshyn", "text": "#pokemongo lol #ftw @ Eglinton West https://t.co/YEEec2k5ME", "created_at": "Sat Jul 30 00:08:55 +0000 2016", "time": 1469837322.600077, "tid": 759178925159231489, "nei_num": "102"}}, {"geometry": {"type": "Point", "coordinates": [-79.435819, 43.699209]}, "type": "Feature", "id": 766272492025577472, "properties": {"loc": [-79.435819, 43.699209], "screen_name": "Renny_cas", "text": "\ud83d\ude0d @ Eglinton West https://t.co/nlCiZtOEdj", "created_at": "Thu Aug 18 13:56:13 +0000 2016", "time": 1471528556.045235, "tid": 766272492025577472, "nei_num": "102"}}, {"geometry": {"type": "Point", "coordinates": [-79.435819, 43.699209]}, "type": "Feature", "id": 766286793746579456, "properties": {"loc": [-79.435819, 43.699209], "screen_name": "FAMESUPPLYCO", "text": "What are you doing today?\n.\n.\n.\n.\nStop by @treajahisle 1514 Eglinton ave w . Toronto  (Oakwood\u2026 https://t.co/tQ2jeTeEMZ", "created_at": "Thu Aug 18 14:53:03 +0000 2016", "time": 1471531965.84136, "tid": 766286793746579456, "nei_num": "102"}}, {"geometry": {"type": "Point", "coordinates": [-79.435819, 43.699209]}, "type": "Feature", "id": 769598634501500928, "properties": {"loc": [-79.435819, 43.699209], "screen_name": "deejay_hawk", "text": "I eat jamaican\u2026 https://t.co/98fyFXedpB", "created_at": "Sat Aug 27 18:13:07 +0000 2016", "time": 1472321568.0908, "tid": 769598634501500928, "nei_num": "102"}}, {"geometry": {"type": "Point", "coordinates": [-79.435819, 43.699209]}, "type": "Feature", "id": 771408620760080384, "properties": {"loc": [-79.435819, 43.699209], "screen_name": "Brittyalana13", "text": "It's a beautiful day \u2600\ufe0f #summer #clouds #beautyday #toronto #eglinton #sunshine #septemberfirst\u2026 https://t.co/ZICjnHFIcm", "created_at": "Thu Sep 01 18:05:21 +0000 2016", "time": 1472753101.271163, "tid": 771408620760080384, "nei_num": "102"}}, {"geometry": {"type": "Point", "coordinates": [-79.4354125, 43.6988358]}, "type": "Feature", "id": 753377737453215744, "properties": {"loc": [-79.4354125, 43.6988358], "screen_name": "tpscalls", "text": "Disorderlies | William R Allen Rd N &amp; Eglinton Ave W [13 Div.] 07/13 19:51 #Midtown_Toronto", "created_at": "Wed Jul 13 23:57:04 +0000 2016", "time": 1468454215.446583, "tid": 753377737453215744, "nei_num": "102"}}, {"geometry": {"type": "Point", "coordinates": [-79.4354125, 43.6988358]}, "type": "Feature", "id": 756946752985501696, "properties": {"loc": [-79.4354125, 43.6988358], "screen_name": "tpscalls", "text": "Unknown Trouble | Eglinton Ave W &amp; William R Allen Rd N [13 Div.] 07/23 16:14 #Midtown_Toronto", "created_at": "Sat Jul 23 20:19:03 +0000 2016", "time": 1469305132.724852, "tid": 756946752985501696, "nei_num": "102"}}, {"geometry": {"type": "Point", "coordinates": [-79.4354125, 43.6988358]}, "type": "Feature", "id": 758251347863044096, "properties": {"loc": [-79.4354125, 43.6988358], "screen_name": "tpscalls", "text": "Disorderlies | Eglinton Ave W &amp; William R Allen Rd N [13 Div.] 07/27 06:36 #Midtown_Toronto", "created_at": "Wed Jul 27 10:43:03 +0000 2016", "time": 1469616171.494486, "tid": 758251347863044096, "nei_num": "102"}}, {"geometry": {"type": "Point", "coordinates": [-79.4354125, 43.6988358]}, "type": "Feature", "id": 758381957353005056, "properties": {"loc": [-79.4354125, 43.6988358], "screen_name": "tpscalls", "text": "Hazard | William R Allen Rd S &amp; Eglinton Ave W [13 Div.] 07/27 15:17 #Midtown_Toronto", "created_at": "Wed Jul 27 19:22:03 +0000 2016", "time": 1469647311.13175, "tid": 758381957353005056, "nei_num": "102"}}, {"geometry": {"type": "Point", "coordinates": [-79.4354125, 43.6988358]}, "type": "Feature", "id": 758681681129795584, "properties": {"loc": [-79.4354125, 43.6988358], "screen_name": "tpscalls", "text": "Hazard | William R Allen Rd S &amp; Eglinton Ave W [1GRP] 07/28 11:07 #Midtown_Toronto", "created_at": "Thu Jul 28 15:13:03 +0000 2016", "time": 1469718770.643428, "tid": 758681681129795584, "nei_num": "102"}}, {"geometry": {"type": "Point", "coordinates": [-79.4354125, 43.6988358]}, "type": "Feature", "id": 760387923426566144, "properties": {"loc": [-79.4354125, 43.6988358], "screen_name": "tpscalls", "text": "Hazard | Eglinton Ave W &amp; William R Allen Rd N [13 Div.] 08/02 04:08 #Midtown_Toronto", "created_at": "Tue Aug 02 08:13:02 +0000 2016", "time": 1470125569.381378, "tid": 760387923426566144, "nei_num": "102"}}, {"geometry": {"type": "Point", "coordinates": [-79.4354125, 43.6988358]}, "type": "Feature", "id": 761534728453390336, "properties": {"loc": [-79.4354125, 43.6988358], "screen_name": "tpscalls", "text": "Disorderlies | William R Allen Rd S &amp; Eglinton Ave W [13 Div.] 08/05 08:04 #Midtown_Toronto", "created_at": "Fri Aug 05 12:10:02 +0000 2016", "time": 1470398988.336566, "tid": 761534728453390336, "nei_num": "102"}}, {"geometry": {"type": "Point", "coordinates": [-79.4354125, 43.6988358]}, "type": "Feature", "id": 761942419701129216, "properties": {"loc": [-79.4354125, 43.6988358], "screen_name": "tpscalls", "text": "Hazard | William R Allen Rd S &amp; Eglinton Ave W [13 Div.] 08/06 11:05 #Midtown_Toronto", "created_at": "Sat Aug 06 15:10:03 +0000 2016", "time": 1470496189.19402, "tid": 761942419701129216, "nei_num": "102"}}, {"geometry": {"type": "Point", "coordinates": [-79.4354125, 43.6988358]}, "type": "Feature", "id": 762863488054259712, "properties": {"loc": [-79.4354125, 43.6988358], "screen_name": "tpscalls", "text": "Personal Injury Collision | William R Allen Rd N &amp; Eglinton Ave W [13 Div.] 08/09 00:04 #Midtown_Toronto", "created_at": "Tue Aug 09 04:10:03 +0000 2016", "time": 1470715788.329835, "tid": 762863488054259712, "nei_num": "102"}}, {"geometry": {"type": "Point", "coordinates": [-79.4354125, 43.6988358]}, "type": "Feature", "id": 763147112385314816, "properties": {"loc": [-79.4354125, 43.6988358], "screen_name": "tpscalls", "text": "Unknown Trouble | William R Allen Rd N &amp; Eglinton Ave W [13 Div.] 08/09 18:53 #Midtown_Toronto", "created_at": "Tue Aug 09 22:57:04 +0000 2016", "time": 1470783409.470495, "tid": 763147112385314816, "nei_num": "102"}}, {"geometry": {"type": "Point", "coordinates": [-79.4354125, 43.6988358]}, "type": "Feature", "id": 764911988950573056, "properties": {"loc": [-79.4354125, 43.6988358], "screen_name": "tofire", "text": "Medical (Unconscious) - Eglinton Avenue b/w William R Allen Road North / Everden Road, Toronto (2 Trucks)", "created_at": "Sun Aug 14 19:50:04 +0000 2016", "time": 1471204187.753024, "tid": 764911988950573056, "nei_num": "102"}}, {"geometry": {"type": "Point", "coordinates": [-79.4354125, 43.6988358]}, "type": "Feature", "id": 764911989781037056, "properties": {"loc": [-79.4354125, 43.6988358], "screen_name": "tofireS", "text": "Medical (Unconscious) - Eglinton Avenue b/w William R Allen Road North / Everden Road, Toronto (2 Trucks)", "created_at": "Sun Aug 14 19:50:04 +0000 2016", "time": 1471204187.925682, "tid": 764911989781037056, "nei_num": "102"}}, {"geometry": {"type": "Point", "coordinates": [-79.4354125, 43.6988358]}, "type": "Feature", "id": 767739870265704448, "properties": {"loc": [-79.4354125, 43.6988358], "screen_name": "tpscalls", "text": "Hazard | William R Allen Rd S &amp; Eglinton Ave W [13 Div.] 08/22 11:01 #Midtown_Toronto", "created_at": "Mon Aug 22 15:07:03 +0000 2016", "time": 1471878405.387132, "tid": 767739870265704448, "nei_num": "102"}}, {"geometry": {"type": "Point", "coordinates": [-79.4354125, 43.6988358]}, "type": "Feature", "id": 768099741448142848, "properties": {"loc": [-79.4354125, 43.6988358], "screen_name": "tpscalls", "text": "Personal Injury Collision | William R Allen Rd N &amp; Eglinton Ave W [13 Div.] 08/23 10:51 #Midtown_Toronto", "created_at": "Tue Aug 23 14:57:03 +0000 2016", "time": 1471964205.075434, "tid": 768099741448142848, "nei_num": "102"}}, {"geometry": {"type": "Point", "coordinates": [-79.4354125, 43.6988358]}, "type": "Feature", "id": 769979133296275457, "properties": {"loc": [-79.4354125, 43.6988358], "screen_name": "tpscalls", "text": "Property Damage Collision | William R Allen Rd N &amp; Eglinton Ave W [HP] 08/28 15:18 #Midtown_Toronto", "created_at": "Sun Aug 28 19:25:05 +0000 2016", "time": 1472412285.745857, "tid": 769979133296275457, "nei_num": "102"}}, {"geometry": {"type": "Point", "coordinates": [-79.4354125, 43.6988358]}, "type": "Feature", "id": 770632929198403584, "properties": {"loc": [-79.4354125, 43.6988358], "screen_name": "tpscalls", "text": "Personal Injury Collision | William R Allen Rd N &amp; Eglinton Ave W [13 Div.] 08/30 10:37 #Midtown_Toronto", "created_at": "Tue Aug 30 14:43:02 +0000 2016", "time": 1472568162.423301, "tid": 770632929198403584, "nei_num": "102"}}, {"geometry": {"type": "Point", "coordinates": [-79.4354334, 43.6989199]}, "type": "Feature", "id": 754187073947664384, "properties": {"loc": [-79.4354334, 43.6989199], "screen_name": "tpscalls", "text": "Taxi Alarm | Eglinton Ave W &amp; William R Allen Rd N [13 Div.] 07/16 01:28 #Midtown_Toronto", "created_at": "Sat Jul 16 05:33:05 +0000 2016", "time": 1468647175.765938, "tid": 754187073947664384, "nei_num": "102"}}, {"geometry": {"type": "Point", "coordinates": [-79.4354334, 43.6989199]}, "type": "Feature", "id": 771322976776155137, "properties": {"loc": [-79.4354334, 43.6989199], "screen_name": "tpscalls", "text": "Personal Injury Collision | William R Allen Rd S &amp; Eglinton Ave W [13 Div.] 09/01 08:19 #Midtown_Toronto", "created_at": "Thu Sep 01 12:25:02 +0000 2016", "time": 1472732682.194337, "tid": 771322976776155137, "nei_num": "102"}}, {"geometry": {"type": "Point", "coordinates": [-79.4336517, 43.698812]}, "type": "Feature", "id": 756198567627423744, "properties": {"loc": [-79.4336517, 43.698812], "screen_name": "tpscalls", "text": "Dispute | Westover Hill Rd &amp; Flanders Rd [13 Div.] 07/21 14:40 #Midtown_Toronto", "created_at": "Thu Jul 21 18:46:02 +0000 2016", "time": 1469126751.916108, "tid": 756198567627423744, "nei_num": "102"}}, {"geometry": {"type": "Point", "coordinates": [-79.4336517, 43.698812]}, "type": "Feature", "id": 758477590244065280, "properties": {"loc": [-79.4336517, 43.698812], "screen_name": "tpscalls", "text": "Missing Vulnerable Person | Westover Hill Rd &amp; Flanders Rd [13 Div.] 07/27 21:36 #Midtown_Toronto", "created_at": "Thu Jul 28 01:42:04 +0000 2016", "time": 1469670111.765688, "tid": 758477590244065280, "nei_num": "102"}}, {"geometry": {"type": "Point", "coordinates": [-79.4338286, 43.6992348]}, "type": "Feature", "id": 765828268863938560, "properties": {"loc": [-79.4338286, 43.6992348], "screen_name": "tpscalls", "text": "Drunk | Flanders Rd &amp; Eglinton Ave W [13 Div.] 08/17 04:25 #Midtown_Toronto", "created_at": "Wed Aug 17 08:31:02 +0000 2016", "time": 1471422645.329874, "tid": 765828268863938560, "nei_num": "102"}}, {"geometry": {"type": "Point", "coordinates": [-79.43223498, 43.69961426]}, "type": "Feature", "id": 764506744747851776, "properties": {"loc": [-79.43223498, 43.69961426], "screen_name": "iRraghav", "text": "After much research the term is \"hypervigilance\"", "created_at": "Sat Aug 13 16:59:46 +0000 2016", "time": 1471107570.319055, "tid": 764506744747851776, "nei_num": "102"}}, {"geometry": {"type": "Point", "coordinates": [-79.4314, 43.6995]}, "type": "Feature", "id": 752235483565023233, "properties": {"loc": [-79.4314, 43.6995], "screen_name": "elserch4", "text": "Watermelon and figs salad #summerlicious2016 #liciousto #mexican #toronto #frida @ Frida\u2026 https://t.co/kyfhh5P1vU", "created_at": "Sun Jul 10 20:18:09 +0000 2016", "time": 1468181881.639776, "tid": 752235483565023233, "nei_num": "102"}}, {"geometry": {"type": "Point", "coordinates": [-79.4314, 43.6995]}, "type": "Feature", "id": 753277686794088448, "properties": {"loc": [-79.4314, 43.6995], "screen_name": "elserch4", "text": "Thank you go_olivia toshoknifearts #knife #present #thebest @ Frida Restaurant &amp; Bar https://t.co/gSou0cllDn", "created_at": "Wed Jul 13 17:19:30 +0000 2016", "time": 1468430361.594123, "tid": 753277686794088448, "nei_num": "102"}}, {"geometry": {"type": "Point", "coordinates": [-79.4314, 43.6995]}, "type": "Feature", "id": 754091304586469376, "properties": {"loc": [-79.4314, 43.6995], "screen_name": "foodfeed_winc", "text": "What's better than having a mojito to start the weekend?! #food_feed @ Frida Restaurant &amp; Bar https://t.co/pRywXvqLv7", "created_at": "Fri Jul 15 23:12:32 +0000 2016", "time": 1468624342.67826, "tid": 754091304586469376, "nei_num": "102"}}, {"geometry": {"type": "Point", "coordinates": [-79.4314, 43.6995]}, "type": "Feature", "id": 761736987564994560, "properties": {"loc": [-79.4314, 43.6995], "screen_name": "JordanaZT", "text": "Gettin eats. @crosstownto @eglintonway #thesix #mexican #food #dinner #best #tacos #rice #tasty\u2026 https://t.co/1tFxE6GAa4", "created_at": "Sat Aug 06 01:33:44 +0000 2016", "time": 1470447210.542797, "tid": 761736987564994560, "nei_num": "102"}}, {"geometry": {"type": "Point", "coordinates": [-79.4314, 43.6995]}, "type": "Feature", "id": 761780690996387840, "properties": {"loc": [-79.4314, 43.6995], "screen_name": "elserch4", "text": "For this weather... Shrimp and octopuses cocktail... #heatday #cocktail #ceviche #shrimp\u2026 https://t.co/lLUrB6wdOr", "created_at": "Sat Aug 06 04:27:24 +0000 2016", "time": 1470457630.287665, "tid": 761780690996387840, "nei_num": "102"}}, {"geometry": {"type": "Point", "coordinates": [-79.43140248, 43.69966294]}, "type": "Feature", "id": 764687527554977792, "properties": {"loc": [-79.43140248, 43.69966294], "screen_name": "elserch4", "text": "Shrimp &amp; scallop aguachile #aguachiles #shrimp #scallop #mexicanfood #mexicanseafood #ceviche\u2026 https://t.co/FI9vsIET1Q", "created_at": "Sun Aug 14 04:58:08 +0000 2016", "time": 1471150672.110302, "tid": 764687527554977792, "nei_num": "102"}}, {"geometry": {"type": "Point", "coordinates": [-79.43132, 43.6995099]}, "type": "Feature", "id": 766870253729112064, "properties": {"loc": [-79.43132, 43.6995099], "screen_name": "elserch4", "text": "Octopus taco... #octopus #pulpo #taco #eglintonwest #toronto #uppervillage @ Frida Restaurant &amp; Bar https://t.co/IvxFz7lPF9", "created_at": "Sat Aug 20 05:31:30 +0000 2016", "time": 1471671073.193265, "tid": 766870253729112064, "nei_num": "102"}}, {"geometry": {"type": "Point", "coordinates": [-79.4334458, 43.7011196]}, "type": "Feature", "id": 749830109956308994, "properties": {"loc": [-79.4334458, 43.7011196], "screen_name": "tpscalls", "text": "Dispute | Menin Rd &amp; Glenarden Rd [13 Div.] 07/04 00:56 #Midtown_Toronto", "created_at": "Mon Jul 04 05:00:04 +0000 2016", "time": 1467608397.37741, "tid": 749830109956308994, "nei_num": "102"}}, {"geometry": {"type": "Point", "coordinates": [-79.4334458, 43.7011196]}, "type": "Feature", "id": 755658004234665986, "properties": {"loc": [-79.4334458, 43.7011196], "screen_name": "tpscalls", "text": "Break &amp; Enter | Menin Rd &amp; Glenarden Rd [13 Div.] 07/20 02:51 #Midtown_Toronto", "created_at": "Wed Jul 20 06:58:02 +0000 2016", "time": 1468997871.899475, "tid": 755658004234665986, "nei_num": "102"}}, {"geometry": {"type": "Point", "coordinates": [-79.4334458, 43.7011196]}, "type": "Feature", "id": 755694245063880704, "properties": {"loc": [-79.4334458, 43.7011196], "screen_name": "tpscalls", "text": "Break &amp; Enter | Menin Rd &amp; Glenarden Rd [13 Div.] 07/20 05:16 #Midtown_Toronto", "created_at": "Wed Jul 20 09:22:02 +0000 2016", "time": 1469006512.397104, "tid": 755694245063880704, "nei_num": "102"}}, {"geometry": {"type": "Point", "coordinates": [-79.4334458, 43.7011196]}, "type": "Feature", "id": 758223407293104128, "properties": {"loc": [-79.4334458, 43.7011196], "screen_name": "tpscalls", "text": "Break &amp; Enter In Progress | Menin Rd &amp; Glenarden Rd [13 Div.] 07/27 04:45 #Midtown_Toronto", "created_at": "Wed Jul 27 08:52:02 +0000 2016", "time": 1469609509.992586, "tid": 758223407293104128, "nei_num": "102"}}, {"geometry": {"type": "Point", "coordinates": [-79.4334458, 43.7011196]}, "type": "Feature", "id": 759331713692688384, "properties": {"loc": [-79.4334458, 43.7011196], "screen_name": "tpscalls", "text": "See Ambulance | Menin Rd &amp; Glenarden Rd [13 Div.] 07/30 06:09 #Midtown_Toronto", "created_at": "Sat Jul 30 10:16:02 +0000 2016", "time": 1469873750.138943, "tid": 759331713692688384, "nei_num": "102"}}, {"geometry": {"type": "Point", "coordinates": [-79.4334458, 43.7011196]}, "type": "Feature", "id": 769651467137511424, "properties": {"loc": [-79.4334458, 43.7011196], "screen_name": "tpscalls", "text": "Disorderlies | Old Park Rd &amp; Glenarden Rd [13 Div.] 08/27 17:36 #Midtown_Toronto", "created_at": "Sat Aug 27 21:43:03 +0000 2016", "time": 1472334164.220259, "tid": 769651467137511424, "nei_num": "102"}}, {"geometry": {"type": "Point", "coordinates": [-79.4334458, 43.7011196]}, "type": "Feature", "id": 772776300838780928, "properties": {"loc": [-79.4334458, 43.7011196], "screen_name": "tpscalls", "text": "Break &amp; Enter In Progress | Menin Rd &amp; Glenarden Rd [13 Div.] 09/05 08:33 #Midtown_Toronto", "created_at": "Mon Sep 05 12:40:02 +0000 2016", "time": 1473079180.849302, "tid": 772776300838780928, "nei_num": "102"}}, {"geometry": {"type": "Point", "coordinates": [-79.4334458, 43.7011196]}, "type": "Feature", "id": 773000537419747328, "properties": {"loc": [-79.4334458, 43.7011196], "screen_name": "tpscalls", "text": "Property Damage Collision | Menin Rd &amp; Glenarden Rd [13 Div.] 09/05 23:26 #Midtown_Toronto", "created_at": "Tue Sep 06 03:31:04 +0000 2016", "time": 1473132642.776599, "tid": 773000537419747328, "nei_num": "102"}}, {"geometry": {"type": "Point", "coordinates": [-79.4320892, 43.7022981]}, "type": "Feature", "id": 765615620637556736, "properties": {"loc": [-79.4320892, 43.7022981], "screen_name": "tofire", "text": "Alarm (Institution) - Ridge Hill Dr b/w Old Park Road / Glenarden Road, Toronto (8 Trucks)", "created_at": "Tue Aug 16 18:26:03 +0000 2016", "time": 1471371949.086951, "tid": 765615620637556736, "nei_num": "102"}}, {"geometry": {"type": "Point", "coordinates": [-79.4320892, 43.7022981]}, "type": "Feature", "id": 765615621551906816, "properties": {"loc": [-79.4320892, 43.7022981], "screen_name": "tofireN", "text": "Alarm (Institution) - Ridge Hill Dr b/w Old Park Road / Glenarden Road, Toronto (8 Trucks)", "created_at": "Tue Aug 16 18:26:03 +0000 2016", "time": 1471371946.403768, "tid": 765615621551906816, "nei_num": "102"}}, {"geometry": {"type": "Point", "coordinates": [-79.4323026, 43.7031124]}, "type": "Feature", "id": 755975096976769024, "properties": {"loc": [-79.4323026, 43.7031124], "screen_name": "tpscalls", "text": "Missing Elderly | Hilltop Rd &amp; Old Park Rd [13 Div.] 07/20 23:52 #Midtown_Toronto", "created_at": "Thu Jul 21 03:58:03 +0000 2016", "time": 1469073472.500371, "tid": 755975096976769024, "nei_num": "102"}}, {"geometry": {"type": "Point", "coordinates": [-79.4394407, 43.704331]}, "type": "Feature", "id": 756890885607088128, "properties": {"loc": [-79.4394407, 43.704331], "screen_name": "tpscalls", "text": "See Ambulance | Castlefield Ave &amp; Ridelle Ave [13 Div.] 07/23 12:31 #Toronto", "created_at": "Sat Jul 23 16:37:04 +0000 2016", "time": 1469291812.923444, "tid": 756890885607088128, "nei_num": "102"}}, {"geometry": {"type": "Point", "coordinates": [-79.4394407, 43.704331]}, "type": "Feature", "id": 766112899509223424, "properties": {"loc": [-79.4394407, 43.704331], "screen_name": "tpscalls", "text": "Missing Elderly | Castlefield Ave &amp; Ridelle Ave [13 Div.] 08/17 23:16 #Toronto", "created_at": "Thu Aug 18 03:22:03 +0000 2016", "time": 1471490506.285176, "tid": 766112899509223424, "nei_num": "102"}}, {"geometry": {"type": "Point", "coordinates": [-79.44002085, 43.7072494]}, "type": "Feature", "id": 751827329127776257, "properties": {"loc": [-79.44002085, 43.7072494], "screen_name": "bakiberkk", "text": "UNBROKEN! @ TTC Subway Line https://t.co/lbSOjXVYCN", "created_at": "Sat Jul 09 17:16:18 +0000 2016", "time": 1468084570.290492, "tid": 751827329127776257, "nei_num": "102"}}, {"geometry": {"type": "Point", "coordinates": [-79.44002085, 43.7072494]}, "type": "Feature", "id": 752829242816229376, "properties": {"loc": [-79.44002085, 43.7072494], "screen_name": "renmedina", "text": "ESPERANDO EL SUBWAY! @ TTC Subway Line https://t.co/GrGANlyden", "created_at": "Tue Jul 12 11:37:33 +0000 2016", "time": 1468323444.640317, "tid": 752829242816229376, "nei_num": "102"}}, {"geometry": {"type": "Point", "coordinates": [-79.44002085, 43.7072494]}, "type": "Feature", "id": 753392276894781442, "properties": {"loc": [-79.44002085, 43.7072494], "screen_name": "GrahamHolms", "text": "How about this guy in rush hour? Decided that his bag would be more\u2026 https://t.co/h61fp1G4WJ", "created_at": "Thu Jul 14 00:54:50 +0000 2016", "time": 1468457681.881246, "tid": 753392276894781442, "nei_num": "102"}}, {"geometry": {"type": "Point", "coordinates": [-79.44002085, 43.7072494]}, "type": "Feature", "id": 756176204156301313, "properties": {"loc": [-79.44002085, 43.7072494], "screen_name": "indelibleAdv", "text": "The morning subway ride...  Back to reality after 10 fabulous days in Scandinavia. @ TTC Subway\u2026 https://t.co/meW0OwrgrE", "created_at": "Thu Jul 21 17:17:10 +0000 2016", "time": 1469121420.103971, "tid": 756176204156301313, "nei_num": "102"}}, {"geometry": {"type": "Point", "coordinates": [-79.44002085, 43.7072494]}, "type": "Feature", "id": 757283620532817921, "properties": {"loc": [-79.44002085, 43.7072494], "screen_name": "LifeOnTheEdgley", "text": "dabs &amp; trains @ TTC Subway Line https://t.co/6YC01tsFhD", "created_at": "Sun Jul 24 18:37:39 +0000 2016", "time": 1469385448.096563, "tid": 757283620532817921, "nei_num": "102"}}, {"geometry": {"type": "Point", "coordinates": [-79.44002085, 43.7072494]}, "type": "Feature", "id": 769602023486529536, "properties": {"loc": [-79.44002085, 43.7072494], "screen_name": "Chef_MauricioM", "text": "Everyone makes me walk so much @saniasafari @ TTC Subway Line https://t.co/N4Mduwjbf0", "created_at": "Sat Aug 27 18:26:35 +0000 2016", "time": 1472322376.008933, "tid": 769602023486529536, "nei_num": "102"}}, {"geometry": {"type": "Point", "coordinates": [-79.44002085, 43.7072494]}, "type": "Feature", "id": 769602345844039684, "properties": {"loc": [-79.44002085, 43.7072494], "screen_name": "Chef_MauricioM", "text": "@saniasafari #stef #sarah #dillon @ TTC Subway Line https://t.co/HaswEaJwV5", "created_at": "Sat Aug 27 18:27:52 +0000 2016", "time": 1472322452.875645, "tid": 769602345844039684, "nei_num": "102"}}, {"geometry": {"type": "Point", "coordinates": [-79.44002085, 43.7072494]}, "type": "Feature", "id": 769633976176762880, "properties": {"loc": [-79.44002085, 43.7072494], "screen_name": "dotunA", "text": "\u2022 Enough, please \u2022 @ TTC Subway Line https://t.co/60JItndT68", "created_at": "Sat Aug 27 20:33:33 +0000 2016", "time": 1472329994.133413, "tid": 769633976176762880, "nei_num": "102"}}, {"geometry": {"type": "Point", "coordinates": [-79.44002085, 43.7072494]}, "type": "Feature", "id": 769634251084038145, "properties": {"loc": [-79.44002085, 43.7072494], "screen_name": "dotunA", "text": "\u2022 Enough, please \u2022 @ TTC Subway Line https://t.co/uTBq8ep5e8", "created_at": "Sat Aug 27 20:34:39 +0000 2016", "time": 1472330059.62104, "tid": 769634251084038145, "nei_num": "102"}}, {"geometry": {"type": "Point", "coordinates": [-79.44002085, 43.7072494]}, "type": "Feature", "id": 772090093511274496, "properties": {"loc": [-79.44002085, 43.7072494], "screen_name": "TheJStrazz", "text": "When your on your way, getting your coordinates to make the drop. \ud83d\udcbc\ud83d\udcbe\ud83d\udcb0#anactorslife @ TTC Subway\u2026 https://t.co/tBNvLCH8G1", "created_at": "Sat Sep 03 15:13:17 +0000 2016", "time": 1472915576.567073, "tid": 772090093511274496, "nei_num": "102"}}, {"geometry": {"type": "Point", "coordinates": [-79.44002085, 43.7072494]}, "type": "Feature", "id": 772119588058370048, "properties": {"loc": [-79.44002085, 43.7072494], "screen_name": "TheJStrazz", "text": "When your on your way, getting your coordinates to make the drop. \ud83d\udcbc\ud83d\udcbe\ud83d\udcb0#anactorslife #movies\u2026 https://t.co/C4eZldqThw", "created_at": "Sat Sep 03 17:10:29 +0000 2016", "time": 1472922608.685027, "tid": 772119588058370048, "nei_num": "102"}}, {"geometry": {"type": "Point", "coordinates": [-79.43900202, 43.7059145]}, "type": "Feature", "id": 705829960867573760, "properties": {"loc": [-79.43900202, 43.7059145], "screen_name": "Celio_Barreto", "text": "First ever subway ride!!\n#ttczone #toronto_insta #toronto #subway @ TTC Subway Line https://t.co/JKELikp5he", "created_at": "Fri Mar 04 18:59:11 +0000 2016", "time": 1457117951.603289, "tid": 705829960867573760, "nei_num": "102"}}, {"geometry": {"type": "Point", "coordinates": [-79.43725, 43.7075]}, "type": "Feature", "id": 759181931389026304, "properties": {"loc": [-79.43725, 43.7075], "screen_name": "vanessalingyu", "text": "One of my fav things to do after @caterToronto work on Friday: leisurely walk home. Each time I\u2026 https://t.co/4Towkfs3by", "created_at": "Sat Jul 30 00:20:52 +0000 2016", "time": 1469838039.280613, "tid": 759181931389026304, "nei_num": "102"}}, {"geometry": {"type": "Point", "coordinates": [-79.43725, 43.7075]}, "type": "Feature", "id": 767518336426967040, "properties": {"loc": [-79.43725, 43.7075], "screen_name": "jhollington", "text": "Rainbow over the Allen Expressway @ Viewmount Park https://t.co/L7vG6x5X5j", "created_at": "Mon Aug 22 00:26:45 +0000 2016", "time": 1471825587.643619, "tid": 767518336426967040, "nei_num": "102"}}, {"geometry": {"type": "Point", "coordinates": [-79.44056, 43.709675]}, "type": "Feature", "id": 755361807347441664, "properties": {"loc": [-79.44056, 43.709675], "screen_name": "tpscalls", "text": "Explosion | Hillmount Ave &amp; Glencairn Ave [13 Div.] 07/19 07:16 #Midtown_Toronto", "created_at": "Tue Jul 19 11:21:03 +0000 2016", "time": 1468927253.304971, "tid": 755361807347441664, "nei_num": "102"}}, {"geometry": {"type": "Point", "coordinates": [-79.44056, 43.709675]}, "type": "Feature", "id": 756300495392768001, "properties": {"loc": [-79.44056, 43.709675], "screen_name": "tpscalls", "text": "Assault Just Occurred | Hillmount Ave &amp; Glencairn Ave [13 Div.] 07/21 21:26 #Midtown_Toronto", "created_at": "Fri Jul 22 01:31:04 +0000 2016", "time": 1469151053.364672, "tid": 756300495392768001, "nei_num": "102"}}, {"geometry": {"type": "Point", "coordinates": [-79.44056, 43.709675]}, "type": "Feature", "id": 761549071941238784, "properties": {"loc": [-79.44056, 43.709675], "screen_name": "tpscalls", "text": "See Ambulance | Glen Park Ave &amp; Glencairn Ave [13 Div.] 08/05 09:00 #Midtown_Toronto", "created_at": "Fri Aug 05 13:07:02 +0000 2016", "time": 1470402408.216626, "tid": 761549071941238784, "nei_num": "102"}}, {"geometry": {"type": "Point", "coordinates": [-79.44056, 43.709675]}, "type": "Feature", "id": 763871886778494976, "properties": {"loc": [-79.44056, 43.709675], "screen_name": "tpscalls", "text": "Shooting | Hillmount Ave &amp; Glencairn Ave [13 Div.] 08/11 18:52 #Midtown_Toronto", "created_at": "Thu Aug 11 22:57:04 +0000 2016", "time": 1470956208.653432, "tid": 763871886778494976, "nei_num": "102"}}, {"geometry": {"type": "Point", "coordinates": [-79.4345342, 43.7036579]}, "type": "Feature", "id": 754824522189209600, "properties": {"loc": [-79.4345342, 43.7036579], "screen_name": "tofire", "text": "Carbon Monoxide (Non Medical) - Marwood Road b/w Elm Ridge Dr / Ridelle Avenue, Toronto (2 Trucks)", "created_at": "Sun Jul 17 23:46:04 +0000 2016", "time": 1468799154.961106, "tid": 754824522189209600, "nei_num": "102"}}, {"geometry": {"type": "Point", "coordinates": [-79.4345342, 43.7036579]}, "type": "Feature", "id": 754824523095080960, "properties": {"loc": [-79.4345342, 43.7036579], "screen_name": "tofireN", "text": "Carbon Monoxide (Non Medical) - Marwood Road b/w Elm Ridge Dr / Ridelle Avenue, Toronto (2 Trucks)", "created_at": "Sun Jul 17 23:46:04 +0000 2016", "time": 1468799155.164577, "tid": 754824523095080960, "nei_num": "102"}}, {"geometry": {"type": "Point", "coordinates": [-79.4345342, 43.7036579]}, "type": "Feature", "id": 764904695110443008, "properties": {"loc": [-79.4345342, 43.7036579], "screen_name": "tofire", "text": "Medical (Check Call) - Marwood Road b/w Elm Ridge Dr / Ridelle Avenue, Toronto (2 Trucks)", "created_at": "Sun Aug 14 19:21:05 +0000 2016", "time": 1471202448.749773, "tid": 764904695110443008, "nei_num": "102"}}, {"geometry": {"type": "Point", "coordinates": [-79.4345342, 43.7036579]}, "type": "Feature", "id": 764904695999655937, "properties": {"loc": [-79.4345342, 43.7036579], "screen_name": "tofireN", "text": "Medical (Check Call) - Marwood Road b/w Elm Ridge Dr / Ridelle Avenue, Toronto (2 Trucks)", "created_at": "Sun Aug 14 19:21:05 +0000 2016", "time": 1471202448.945775, "tid": 764904695999655937, "nei_num": "102"}}, {"geometry": {"type": "Point", "coordinates": [-79.4352249, 43.7053689]}, "type": "Feature", "id": 755229688910479360, "properties": {"loc": [-79.4352249, 43.7053689], "screen_name": "tpscalls", "text": "Disorderlies | Elm Ridge Crcl &amp; Marwood Rd [13 Div.] 07/18 22:30 #Midtown_Toronto", "created_at": "Tue Jul 19 02:36:03 +0000 2016", "time": 1468895753.815398, "tid": 755229688910479360, "nei_num": "102"}}, {"geometry": {"type": "Point", "coordinates": [-79.4349225, 43.7089351]}, "type": "Feature", "id": 756604757729538048, "properties": {"loc": [-79.4349225, 43.7089351], "screen_name": "tofire", "text": "Alarm Residential - Viewmount Avenue b/w Englemount Avenue / Shermount Avenue, North York (6 Trucks)", "created_at": "Fri Jul 22 21:40:05 +0000 2016", "time": 1469223595.252913, "tid": 756604757729538048, "nei_num": "102"}}, {"geometry": {"type": "Point", "coordinates": [-79.4349225, 43.7089351]}, "type": "Feature", "id": 756604760082505728, "properties": {"loc": [-79.4349225, 43.7089351], "screen_name": "tofireN", "text": "Alarm Residential - Viewmount Avenue b/w Englemount Avenue / Shermount Avenue, North York (6 Trucks)", "created_at": "Fri Jul 22 21:40:06 +0000 2016", "time": 1469223595.469989, "tid": 756604760082505728, "nei_num": "102"}}, {"geometry": {"type": "Point", "coordinates": [-79.4349225, 43.7089351]}, "type": "Feature", "id": 759139205268267009, "properties": {"loc": [-79.4349225, 43.7089351], "screen_name": "tofire", "text": "Alarm Residential - Viewmount Avenue b/w Englemount Avenue / Shermount Avenue, North York (6 Trucks)", "created_at": "Fri Jul 29 21:31:05 +0000 2016", "time": 1469827852.621751, "tid": 759139205268267009, "nei_num": "102"}}, {"geometry": {"type": "Point", "coordinates": [-79.4349225, 43.7089351]}, "type": "Feature", "id": 759139206178410496, "properties": {"loc": [-79.4349225, 43.7089351], "screen_name": "tofireN", "text": "Alarm Residential - Viewmount Avenue b/w Englemount Avenue / Shermount Avenue, North York (6 Trucks)", "created_at": "Fri Jul 29 21:31:05 +0000 2016", "time": 1469827852.836355, "tid": 759139206178410496, "nei_num": "102"}}, {"geometry": {"type": "Point", "coordinates": [-79.4325813, 43.7044191]}, "type": "Feature", "id": 771082098203656194, "properties": {"loc": [-79.4325813, 43.7044191], "screen_name": "tpscalls", "text": "Personal Injury Collision | Old Park Rd &amp; Elm Ridge Dr [13 Div.] 08/31 16:23 #Midtown_Toronto", "created_at": "Wed Aug 31 20:27:52 +0000 2016", "time": 1472675252.327097, "tid": 771082098203656194, "nei_num": "102"}}, {"geometry": {"type": "Point", "coordinates": [-79.4322735, 43.704176]}, "type": "Feature", "id": 766305196720922626, "properties": {"loc": [-79.4322735, 43.704176], "screen_name": "tpscalls", "text": "Unknown Trouble | William R Allen Rd N &amp; Elm Ridge Dr [13 Div.] 08/18 12:01 #Midtown_Toronto", "created_at": "Thu Aug 18 16:06:10 +0000 2016", "time": 1471536353.694018, "tid": 766305196720922626, "nei_num": "102"}}, {"geometry": {"type": "Point", "coordinates": [-79.4279064, 43.6980832]}, "type": "Feature", "id": 767936922991857664, "properties": {"loc": [-79.4279064, 43.6980832], "screen_name": "tpscalls", "text": "Noisy Party | Dewbourne Ave &amp; Ln S Eglinton W Rostrevor [13 Div.] 08/23 00:03 #Midtown_Toronto", "created_at": "Tue Aug 23 04:10:04 +0000 2016", "time": 1471925386.242879, "tid": 767936922991857664, "nei_num": "102"}}, {"geometry": {"type": "Point", "coordinates": [-79.43068031, 43.69994834]}, "type": "Feature", "id": 772332934720266240, "properties": {"loc": [-79.43068031, 43.69994834], "screen_name": "IlMulinoNuovo", "text": "Great surprise in the mail after a busy Saturday night. Thank you City Post for acknowledging\u2026 https://t.co/EHH8L95G9f", "created_at": "Sun Sep 04 07:18:15 +0000 2016", "time": 1472973474.351014, "tid": 772332934720266240, "nei_num": "102"}}, {"geometry": {"type": "Point", "coordinates": [-79.430547, 43.699875]}, "type": "Feature", "id": 754586442299543553, "properties": {"loc": [-79.430547, 43.699875], "screen_name": "eTRiTcom", "text": "Health Solutions, York, ON, M6C 2C6 - https://t.co/uDBNIruYpr\n\n#healthsolutions #chiropractor #reviews", "created_at": "Sun Jul 17 08:00:02 +0000 2016", "time": 1468742392.430926, "tid": 754586442299543553, "nei_num": "102"}}, {"geometry": {"type": "Point", "coordinates": [-79.43007841, 43.70005916]}, "type": "Feature", "id": 752316811484532737, "properties": {"loc": [-79.43007841, 43.70005916], "screen_name": "ScarlettDGreat1", "text": "So I was definitely rooting for #France this game, but hats off to #Portugal for a great game !\u2026 https://t.co/IlAQLhxRFR", "created_at": "Mon Jul 11 01:41:19 +0000 2016", "time": 1468201271.680335, "tid": 752316811484532737, "nei_num": "102"}}, {"geometry": {"type": "Point", "coordinates": [-79.4298846, 43.7000521]}, "type": "Feature", "id": 749830113957711872, "properties": {"loc": [-79.4298846, 43.7000521], "screen_name": "tofire", "text": "Hazmat Level 2 - Eglinton Avenue b/w Camberwell Road / Glen Cedar Road, York (5 Trucks)", "created_at": "Mon Jul 04 05:00:04 +0000 2016", "time": 1467608398.374916, "tid": 749830113957711872, "nei_num": "102"}}, {"geometry": {"type": "Point", "coordinates": [-79.4298846, 43.7000521]}, "type": "Feature", "id": 749830114960089088, "properties": {"loc": [-79.4298846, 43.7000521], "screen_name": "tofireS", "text": "Hazmat Level 2 - Eglinton Avenue b/w Camberwell Road / Glen Cedar Road, York (5 Trucks)", "created_at": "Mon Jul 04 05:00:05 +0000 2016", "time": 1467608398.625635, "tid": 749830114960089088, "nei_num": "102"}}, {"geometry": {"type": "Point", "coordinates": [-79.4298846, 43.7000521]}, "type": "Feature", "id": 751856210740146176, "properties": {"loc": [-79.4298846, 43.7000521], "screen_name": "tofire", "text": "Alarm Commercial/industrial - Eglinton Avenue b/w Camberwell Road / Glen Cedar Road, Toronto (6 Trucks)", "created_at": "Sat Jul 09 19:11:04 +0000 2016", "time": 1468091456.142091, "tid": 751856210740146176, "nei_num": "102"}}, {"geometry": {"type": "Point", "coordinates": [-79.4298846, 43.7000521]}, "type": "Feature", "id": 751856211599953920, "properties": {"loc": [-79.4298846, 43.7000521], "screen_name": "tofireN", "text": "Alarm Commercial/industrial - Eglinton Avenue b/w Camberwell Road / Glen Cedar Road, Toronto (6 Trucks)", "created_at": "Sat Jul 09 19:11:04 +0000 2016", "time": 1468091456.332815, "tid": 751856211599953920, "nei_num": "102"}}, {"geometry": {"type": "Point", "coordinates": [-79.4298846, 43.7000521]}, "type": "Feature", "id": 754035579055181824, "properties": {"loc": [-79.4298846, 43.7000521], "screen_name": "tofire", "text": "Medical (Unconscious) - Eglinton Avenue b/w Camberwell Road / Glen Cedar Road, York (2 Trucks)", "created_at": "Fri Jul 15 19:31:06 +0000 2016", "time": 1468611056.682614, "tid": 754035579055181824, "nei_num": "102"}}, {"geometry": {"type": "Point", "coordinates": [-79.4298846, 43.7000521]}, "type": "Feature", "id": 754035580363767808, "properties": {"loc": [-79.4298846, 43.7000521], "screen_name": "tofireS", "text": "Medical (Unconscious) - Eglinton Avenue b/w Camberwell Road / Glen Cedar Road, York (2 Trucks)", "created_at": "Fri Jul 15 19:31:06 +0000 2016", "time": 1468611056.999341, "tid": 754035580363767808, "nei_num": "102"}}, {"geometry": {"type": "Point", "coordinates": [-79.4298846, 43.7000521]}, "type": "Feature", "id": 769265673608499204, "properties": {"loc": [-79.4298846, 43.7000521], "screen_name": "tofire", "text": "Medical (Unconscious) - Eglinton Avenue b/w Camberwell Road / Glen Cedar Road, York (2 Trucks)", "created_at": "Fri Aug 26 20:10:03 +0000 2016", "time": 1472242184.172748, "tid": 769265673608499204, "nei_num": "102"}}, {"geometry": {"type": "Point", "coordinates": [-79.4298846, 43.7000521]}, "type": "Feature", "id": 769265674501906433, "properties": {"loc": [-79.4298846, 43.7000521], "screen_name": "tofireS", "text": "Medical (Unconscious) - Eglinton Avenue b/w Camberwell Road / Glen Cedar Road, York (2 Trucks)", "created_at": "Fri Aug 26 20:10:03 +0000 2016", "time": 1472242184.446429, "tid": 769265674501906433, "nei_num": "102"}}, {"geometry": {"type": "Point", "coordinates": [-79.42959, 43.70034]}, "type": "Feature", "id": 763532718311403520, "properties": {"loc": [-79.42959, 43.70034], "screen_name": "umamisushi", "text": "The Famous \"tartar Tower\".  Only at Bistro  Grande By Umami Sushi. \n\n#tuna #salmon #avocado.\u2026 https://t.co/eUffLq4aJj", "created_at": "Thu Aug 11 00:29:20 +0000 2016", "time": 1470875344.820314, "tid": 763532718311403520, "nei_num": "102"}}, {"geometry": {"type": "Point", "coordinates": [-79.42847074, 43.70223105]}, "type": "Feature", "id": 768838377122717696, "properties": {"loc": [-79.42847074, 43.70223105], "screen_name": "AndreElijah", "text": "Fucking hell https://t.co/IrHCsfeBkr", "created_at": "Thu Aug 25 15:52:08 +0000 2016", "time": 1472140309.306985, "tid": 768838377122717696, "nei_num": "102"}}, {"geometry": {"type": "Point", "coordinates": [-79.4283766, 43.6992482]}, "type": "Feature", "id": 758364596264640513, "properties": {"loc": [-79.4283766, 43.6992482], "screen_name": "tpscalls", "text": "Industrial Accident | Chiltern Hill Rd &amp; Rostrevor Rd [13 Div.] 07/27 14:06 #Midtown_Toronto", "created_at": "Wed Jul 27 18:13:04 +0000 2016", "time": 1469643172.066767, "tid": 758364596264640513, "nei_num": "102"}}, {"geometry": {"type": "Point", "coordinates": [-79.4277709, 43.7005202]}, "type": "Feature", "id": 758358819533688832, "properties": {"loc": [-79.4277709, 43.7005202], "screen_name": "tofire", "text": "Medical (Personal Injury) - Eglinton Avenue b/w Chiltern Hill Road / Rostrevor Road, York (2 Trucks)", "created_at": "Wed Jul 27 17:50:06 +0000 2016", "time": 1469641794.681167, "tid": 758358819533688832, "nei_num": "102"}}, {"geometry": {"type": "Point", "coordinates": [-79.4277709, 43.7005202]}, "type": "Feature", "id": 758358820326342656, "properties": {"loc": [-79.4277709, 43.7005202], "screen_name": "tofireS", "text": "Medical (Personal Injury) - Eglinton Avenue b/w Chiltern Hill Road / Rostrevor Road, York (2 Trucks)", "created_at": "Wed Jul 27 17:50:07 +0000 2016", "time": 1469641794.885276, "tid": 758358820326342656, "nei_num": "102"}}, {"geometry": {"type": "Point", "coordinates": [-79.42746, 43.70048]}, "type": "Feature", "id": 756239580618067968, "properties": {"loc": [-79.42746, 43.70048], "screen_name": "RunTheSix", "text": "When you're not feeling well but have to get a run in, so you run to the walk-in clinic. Good\u2026 https://t.co/fZKKWWVKTN", "created_at": "Thu Jul 21 21:29:00 +0000 2016", "time": 1469136530.206621, "tid": 756239580618067968, "nei_num": "102"}}, {"geometry": {"type": "Point", "coordinates": [-79.4275801, 43.7005562]}, "type": "Feature", "id": 755475809868058624, "properties": {"loc": [-79.4275801, 43.7005562], "screen_name": "tpscalls", "text": "Impaired Driver | Hilltop Rd &amp; Eglinton Ave W [13 Div.] 07/19 14:48 #Midtown_Toronto", "created_at": "Tue Jul 19 18:54:03 +0000 2016", "time": 1468954433.469373, "tid": 755475809868058624, "nei_num": "102"}}, {"geometry": {"type": "Point", "coordinates": [-79.4275801, 43.7005562]}, "type": "Feature", "id": 758111677871161345, "properties": {"loc": [-79.4275801, 43.7005562], "screen_name": "tpscalls", "text": "Disorderlies | Eglinton Ave W &amp; Ln N Eglinton W Hilltop Rd [13 Div.] 07/26 21:22 #Midtown_Toronto", "created_at": "Wed Jul 27 01:28:03 +0000 2016", "time": 1469582871.691244, "tid": 758111677871161345, "nei_num": "102"}}, {"geometry": {"type": "Point", "coordinates": [-79.4275801, 43.7005562]}, "type": "Feature", "id": 760927234672758785, "properties": {"loc": [-79.4275801, 43.7005562], "screen_name": "tofire", "text": "Medical (Unconscious) - Eglinton Avenue West @ Hilltop Road, Toronto (2 Trucks)", "created_at": "Wed Aug 03 19:56:04 +0000 2016", "time": 1470254150.962137, "tid": 760927234672758785, "nei_num": "102"}}, {"geometry": {"type": "Point", "coordinates": [-79.4275801, 43.7005562]}, "type": "Feature", "id": 760927235771621376, "properties": {"loc": [-79.4275801, 43.7005562], "screen_name": "tofireN", "text": "Medical (Unconscious) - Eglinton Avenue West @ Hilltop Road, Toronto (2 Trucks)", "created_at": "Wed Aug 03 19:56:05 +0000 2016", "time": 1470254151.145975, "tid": 760927235771621376, "nei_num": "102"}}, {"geometry": {"type": "Point", "coordinates": [-79.4275801, 43.7005562]}, "type": "Feature", "id": 766306693886119936, "properties": {"loc": [-79.4275801, 43.7005562], "screen_name": "tpscalls", "text": "Indecent Exposure Just Occurred | Hilltop Rd &amp; Eglinton Ave W [53 Div.] 08/18 12:05 #Midtown_Toronto", "created_at": "Thu Aug 18 16:12:07 +0000 2016", "time": 1471536710.382909, "tid": 766306693886119936, "nei_num": "102"}}, {"geometry": {"type": "Point", "coordinates": [-79.4275801, 43.7005562]}, "type": "Feature", "id": 766312962894270464, "properties": {"loc": [-79.4275801, 43.7005562], "screen_name": "tpscalls", "text": "Indecent Exposure Just Occurred | Hilltop Rd &amp; Eglinton Ave W [13 Div.] 08/18 12:32 #Midtown_Toronto", "created_at": "Thu Aug 18 16:37:02 +0000 2016", "time": 1471538205.022986, "tid": 766312962894270464, "nei_num": "102"}}, {"geometry": {"type": "Point", "coordinates": [-79.4275262, 43.7007209]}, "type": "Feature", "id": 705387532842708993, "properties": {"loc": [-79.4275262, 43.7007209], "screen_name": "tmj_gta_hrta", "text": "Starbucks: Shift Supervisor (CA) https://t.co/6KUrwneuKn #Hospitality #Veterans #Job #Jobs #Hiring #CareerArc", "created_at": "Thu Mar 03 13:41:07 +0000 2016", "time": 1457012468.347767, "tid": 705387532842708993, "nei_num": "102"}}, {"geometry": {"type": "Point", "coordinates": [-79.4275262, 43.7007209]}, "type": "Feature", "id": 706150673931317249, "properties": {"loc": [-79.4275262, 43.7007209], "screen_name": "tmj_gta_hrta", "text": "This #Hospitality #job might be a great fit for you: Barista (CA) - https://t.co/qmm8NjPWJp #Veterans #Hiring #CareerArc", "created_at": "Sat Mar 05 16:13:34 +0000 2016", "time": 1457194415.629685, "tid": 706150673931317249, "nei_num": "102"}}, {"geometry": {"type": "Point", "coordinates": [-79.4275168, 43.7008308]}, "type": "Feature", "id": 750307900665368576, "properties": {"loc": [-79.4275168, 43.7008308], "screen_name": "tmj_gta_hrta", "text": "#Hospitality #Job in Barista (CA) at Starbucks https://t.co/qmm8NjPWJp #Veterans #Jobs #Hiring #CareerArc", "created_at": "Tue Jul 05 12:38:38 +0000 2016", "time": 1467722311.386033, "tid": 750307900665368576, "nei_num": "102"}}, {"geometry": {"type": "Point", "coordinates": [-79.4275168, 43.7008308]}, "type": "Feature", "id": 752132227182366720, "properties": {"loc": [-79.4275168, 43.7008308], "screen_name": "tmj_gta_hrta", "text": "Join the Starbucks team! See our latest #job opening here: https://t.co/6KUrwneuKn #Hospitality #Veterans #Hiring #CareerArc", "created_at": "Sun Jul 10 13:27:51 +0000 2016", "time": 1468157263.582827, "tid": 752132227182366720, "nei_num": "102"}}, {"geometry": {"type": "Point", "coordinates": [-79.4275168, 43.7008308]}, "type": "Feature", "id": 752552766388641792, "properties": {"loc": [-79.4275168, 43.7008308], "screen_name": "tmj_gta_hrta", "text": "This #job might be a great fit for you: Barista (CA) - https://t.co/qmm8NjPWJp #Hospitality #Veterans #Hiring #CareerArc", "created_at": "Mon Jul 11 17:18:55 +0000 2016", "time": 1468257527.540279, "tid": 752552766388641792, "nei_num": "102"}}, {"geometry": {"type": "Point", "coordinates": [-79.4275168, 43.7008308]}, "type": "Feature", "id": 754317193949515776, "properties": {"loc": [-79.4275168, 43.7008308], "screen_name": "tmj_gta_hrta", "text": "Can you recommend anyone for this #job? Shift Supervisor (CA) - https://t.co/6KUrwneuKn #Hospitality #Veterans #Hiring #CareerArc", "created_at": "Sat Jul 16 14:10:08 +0000 2016", "time": 1468678198.755657, "tid": 754317193949515776, "nei_num": "102"}}, {"geometry": {"type": "Point", "coordinates": [-79.4275168, 43.7008308]}, "type": "Feature", "id": 754737835349905408, "properties": {"loc": [-79.4275168, 43.7008308], "screen_name": "tmj_gta_hrta", "text": "See our latest #job and click to apply: Barista (CA) - https://t.co/qmm8NjPWJp #Hospitality #Veterans #Hiring #CareerArc", "created_at": "Sun Jul 17 18:01:36 +0000 2016", "time": 1468778487.227952, "tid": 754737835349905408, "nei_num": "102"}}, {"geometry": {"type": "Point", "coordinates": [-79.4275168, 43.7008308]}, "type": "Feature", "id": 756511622961569793, "properties": {"loc": [-79.4275168, 43.7008308], "screen_name": "tmj_gta_hrta", "text": "Want to work at Starbucks? We're #hiring in ! Click for details: https://t.co/6KUrwneuKn #Job #Hospitality #Veterans #Jobs #CareerArc", "created_at": "Fri Jul 22 15:30:00 +0000 2016", "time": 1469201390.016775, "tid": 756511622961569793, "nei_num": "102"}}, {"geometry": {"type": "Point", "coordinates": [-79.4275168, 43.7008308]}, "type": "Feature", "id": 756933362413998081, "properties": {"loc": [-79.4275168, 43.7008308], "screen_name": "tmj_gta_hrta", "text": "This #job might be a great fit for you: Barista (CA) - https://t.co/qmm8NjPWJp #Hospitality #Veterans #Hiring #CareerArc", "created_at": "Sat Jul 23 19:25:51 +0000 2016", "time": 1469301940.209404, "tid": 756933362413998081, "nei_num": "102"}}, {"geometry": {"type": "Point", "coordinates": [-79.4275168, 43.7008308]}, "type": "Feature", "id": 758715941286842369, "properties": {"loc": [-79.4275168, 43.7008308], "screen_name": "tmj_gta_hrta", "text": "We're #hiring! Read about our latest #job opening here: Shift Supervisor (CA) - https://t.co/6KUrwneuKn #Hospitality #Veterans #CareerArc", "created_at": "Thu Jul 28 17:29:11 +0000 2016", "time": 1469726938.96592, "tid": 758715941286842369, "nei_num": "102"}}, {"geometry": {"type": "Point", "coordinates": [-79.4275168, 43.7008308]}, "type": "Feature", "id": 759132193029402624, "properties": {"loc": [-79.4275168, 43.7008308], "screen_name": "tmj_gta_hrta", "text": "If you're looking for work in , check out this #job: https://t.co/qmm8NjPWJp #Hospitality #Veterans #Hiring #CareerArc", "created_at": "Fri Jul 29 21:03:13 +0000 2016", "time": 1469826180.838599, "tid": 759132193029402624, "nei_num": "102"}}, {"geometry": {"type": "Point", "coordinates": [-79.4275168, 43.7008308]}, "type": "Feature", "id": 760911245012705284, "properties": {"loc": [-79.4275168, 43.7008308], "screen_name": "tmj_gta_hrta", "text": "Can you recommend anyone for this #job? Shift Supervisor (CA) - https://t.co/6KUrwneuKn #Hospitality #Veterans #Hiring #CareerArc", "created_at": "Wed Aug 03 18:52:32 +0000 2016", "time": 1470250338.716902, "tid": 760911245012705284, "nei_num": "102"}}, {"geometry": {"type": "Point", "coordinates": [-79.4275168, 43.7008308]}, "type": "Feature", "id": 761540233607294980, "properties": {"loc": [-79.4275168, 43.7008308], "screen_name": "tmj_gta_hrta", "text": "Interested in a #job near ? This could be a great fit: https://t.co/qmm8NjPWJp #Hospitality #Veterans #Hiring #CareerArc", "created_at": "Fri Aug 05 12:31:55 +0000 2016", "time": 1470400300.802529, "tid": 761540233607294980, "nei_num": "102"}}, {"geometry": {"type": "Point", "coordinates": [-79.4275168, 43.7008308]}, "type": "Feature", "id": 763107780660125696, "properties": {"loc": [-79.4275168, 43.7008308], "screen_name": "tmj_gta_hrta", "text": "This #job might be a great fit for you: Shift Supervisor (CA) - https://t.co/6KUrwneuKn #Hospitality #Veterans #Hiring #CareerArc", "created_at": "Tue Aug 09 20:20:47 +0000 2016", "time": 1470774032.164525, "tid": 763107780660125696, "nei_num": "102"}}, {"geometry": {"type": "Point", "coordinates": [-79.4275168, 43.7008308]}, "type": "Feature", "id": 763740175792902145, "properties": {"loc": [-79.4275168, 43.7008308], "screen_name": "tmj_gta_hrta", "text": "See our latest #job and click to apply: Barista (CA) - https://t.co/qmm8NjPWJp #Hospitality #Veterans #Hiring #CareerArc", "created_at": "Thu Aug 11 14:13:42 +0000 2016", "time": 1470924806.484826, "tid": 763740175792902145, "nei_num": "102"}}, {"geometry": {"type": "Point", "coordinates": [-79.4275168, 43.7008308]}, "type": "Feature", "id": 765303933002616832, "properties": {"loc": [-79.4275168, 43.7008308], "screen_name": "tmj_gta_hrta", "text": "Can you recommend anyone for this #job? Shift Supervisor (CA) - https://t.co/6KUrwneuKn #Hospitality #Veterans #Hiring #CareerArc", "created_at": "Mon Aug 15 21:47:30 +0000 2016", "time": 1471297634.203683, "tid": 765303933002616832, "nei_num": "102"}}, {"geometry": {"type": "Point", "coordinates": [-79.4275168, 43.7008308]}, "type": "Feature", "id": 765930628105641984, "properties": {"loc": [-79.4275168, 43.7008308], "screen_name": "tmj_gta_hrta", "text": "Join the Starbucks team! See our latest #job opening here: https://t.co/qmm8NjPWJp #Hospitality #Veterans #Hiring #CareerArc", "created_at": "Wed Aug 17 15:17:46 +0000 2016", "time": 1471447049.6953, "tid": 765930628105641984, "nei_num": "102"}}, {"geometry": {"type": "Point", "coordinates": [-79.4275168, 43.7008308]}, "type": "Feature", "id": 767705286710730755, "properties": {"loc": [-79.4275168, 43.7008308], "screen_name": "tmj_gta_hrta", "text": "Can you recommend anyone for this #job? https://t.co/6KUrwneuKn #Hospitality #Veterans #Hiring #CareerArc", "created_at": "Mon Aug 22 12:49:38 +0000 2016", "time": 1471870160.008979, "tid": 767705286710730755, "nei_num": "102"}}, {"geometry": {"type": "Point", "coordinates": [-79.4275168, 43.7008308]}, "type": "Feature", "id": 768124277375721472, "properties": {"loc": [-79.4275168, 43.7008308], "screen_name": "tmj_gta_hrta", "text": "We're #hiring! Click to apply: Barista (CA) - https://t.co/qmm8NjPWJp #Job #Hospitality #Veterans #Jobs #CareerArc", "created_at": "Tue Aug 23 16:34:33 +0000 2016", "time": 1471970054.969353, "tid": 768124277375721472, "nei_num": "102"}}, {"geometry": {"type": "Point", "coordinates": [-79.4275168, 43.7008308]}, "type": "Feature", "id": 769915698600521728, "properties": {"loc": [-79.4275168, 43.7008308], "screen_name": "tmj_gta_hrta", "text": "Can you recommend anyone for this #job? https://t.co/6KUrwneuKn #Hospitality #Veterans #Hiring #CareerArc", "created_at": "Sun Aug 28 15:13:01 +0000 2016", "time": 1472397161.850993, "tid": 769915698600521728, "nei_num": "102"}}, {"geometry": {"type": "Point", "coordinates": [-79.4275168, 43.7008308]}, "type": "Feature", "id": 770341298758758400, "properties": {"loc": [-79.4275168, 43.7008308], "screen_name": "tmj_gta_hrta", "text": "If you're looking for work in , check out this #job: https://t.co/qmm8NjPWJp #Hospitality #Veterans #Hiring #CareerArc", "created_at": "Mon Aug 29 19:24:12 +0000 2016", "time": 1472498632.530933, "tid": 770341298758758400, "nei_num": "102"}}, {"geometry": {"type": "Point", "coordinates": [-79.4275168, 43.7008308]}, "type": "Feature", "id": 772127472070434816, "properties": {"loc": [-79.4275168, 43.7008308], "screen_name": "tmj_gta_hrta", "text": "Join the Starbucks team! See our latest #job opening here: https://t.co/6KUrwneuKn #Hospitality #Veterans #Hiring #CareerArc", "created_at": "Sat Sep 03 17:41:49 +0000 2016", "time": 1472924488.369709, "tid": 772127472070434816, "nei_num": "102"}}, {"geometry": {"type": "Point", "coordinates": [-79.4275168, 43.7008308]}, "type": "Feature", "id": 772544647532978176, "properties": {"loc": [-79.4275168, 43.7008308], "screen_name": "tmj_gta_hrta", "text": "Join the Starbucks team! See our latest #job opening here: https://t.co/qmm8NjPWJp #Hospitality #Veterans #Hiring #CareerArc", "created_at": "Sun Sep 04 21:19:31 +0000 2016", "time": 1473023950.438235, "tid": 772544647532978176, "nei_num": "102"}}, {"geometry": {"type": "Point", "coordinates": [-79.4268479, 43.6983106]}, "type": "Feature", "id": 749844497115320320, "properties": {"loc": [-79.4268479, 43.6983106], "screen_name": "tpscalls", "text": "Dispute | Ava Rd &amp; Dewbourne Ave [13 Div.] 07/04 01:53 #Midtown_Toronto", "created_at": "Mon Jul 04 05:57:14 +0000 2016", "time": 1467611827.587247, "tid": 749844497115320320, "nei_num": "102"}}, {"geometry": {"type": "Point", "coordinates": [-79.4268479, 43.6983106]}, "type": "Feature", "id": 754045636924829696, "properties": {"loc": [-79.4268479, 43.6983106], "screen_name": "tofire", "text": "Medical (Allergy) - Chiltern Hill Road b/w Dewbourne Avenue / Lane South Eglinton West Peveril, York (2 Trucks)", "created_at": "Fri Jul 15 20:11:03 +0000 2016", "time": 1468613454.668157, "tid": 754045636924829696, "nei_num": "102"}}, {"geometry": {"type": "Point", "coordinates": [-79.4268479, 43.6983106]}, "type": "Feature", "id": 754045637797306368, "properties": {"loc": [-79.4268479, 43.6983106], "screen_name": "tofireS", "text": "Medical (Allergy) - Chiltern Hill Road b/w Dewbourne Avenue / Lane South Eglinton West Peveril, York (2 Trucks)", "created_at": "Fri Jul 15 20:11:04 +0000 2016", "time": 1468613454.860003, "tid": 754045637797306368, "nei_num": "102"}}, {"geometry": {"type": "Point", "coordinates": [-79.4268479, 43.6983106]}, "type": "Feature", "id": 761774814617014272, "properties": {"loc": [-79.4268479, 43.6983106], "screen_name": "tpscalls", "text": "Unknown Trouble | Ava Rd &amp; Dewbourne Ave [13 Div.] 08/05 23:59 #Midtown_Toronto", "created_at": "Sat Aug 06 04:04:03 +0000 2016", "time": 1470456229.108548, "tid": 761774814617014272, "nei_num": "102"}}, {"geometry": {"type": "Point", "coordinates": [-79.4257903, 43.6985483]}, "type": "Feature", "id": 763736237119303680, "properties": {"loc": [-79.4257903, 43.6985483], "screen_name": "tpscalls", "text": "Dispute | Dewbourne Ave &amp; Ln S Eglinton W Peveril [13 Div.] 08/11 09:52 #Midtown_Toronto", "created_at": "Thu Aug 11 13:58:03 +0000 2016", "time": 1470923867.374851, "tid": 763736237119303680, "nei_num": "102"}}, {"geometry": {"type": "Point", "coordinates": [-79.4257903, 43.6985483]}, "type": "Feature", "id": 763802435546734592, "properties": {"loc": [-79.4257903, 43.6985483], "screen_name": "tofire", "text": "Alarm Residential - Dewbourne Avenue b/w Peveril Hill North / Chiltern Hill Road, York (6 Trucks)", "created_at": "Thu Aug 11 18:21:06 +0000 2016", "time": 1470939650.216709, "tid": 763802435546734592, "nei_num": "102"}}, {"geometry": {"type": "Point", "coordinates": [-79.4257903, 43.6985483]}, "type": "Feature", "id": 763802436310007809, "properties": {"loc": [-79.4257903, 43.6985483], "screen_name": "tofireN", "text": "Alarm Residential - Dewbourne Avenue b/w Peveril Hill North / Chiltern Hill Road, York (6 Trucks)", "created_at": "Thu Aug 11 18:21:06 +0000 2016", "time": 1470939650.408451, "tid": 763802436310007809, "nei_num": "102"}}, {"geometry": {"type": "Point", "coordinates": [-79.4262, 43.7009]}, "type": "Feature", "id": 764203316070850560, "properties": {"loc": [-79.4262, 43.7009], "screen_name": "akosiRheyamie", "text": "#halohalo ala toronto \ud83c\udf67\ud83c\udf67\ud83c\udf67 @ Pampanguena Bakery Inc https://t.co/UY3r4FdVBn", "created_at": "Fri Aug 12 20:54:03 +0000 2016", "time": 1471035227.456442, "tid": 764203316070850560, "nei_num": "102"}}, {"geometry": {"type": "Point", "coordinates": [-79.42602, 43.70189]}, "type": "Feature", "id": 756305171194404864, "properties": {"loc": [-79.42602, 43.70189], "screen_name": "therealbenhardy", "text": "Definitely going to 'enrol' our son at Alive Montessori and Private School! Do they teach\u2026 https://t.co/JRpxvs2T7p", "created_at": "Fri Jul 22 01:49:38 +0000 2016", "time": 1469152168.334216, "tid": 756305171194404864, "nei_num": "102"}}, {"geometry": {"type": "Point", "coordinates": [-79.4259019, 43.703331]}, "type": "Feature", "id": 757262872355475456, "properties": {"loc": [-79.4259019, 43.703331], "screen_name": "tofire", "text": "Alarm Highrise Residential - Bathurst St b/w Vesta Dr / Shallmar Boulevard, Toronto (6 Trucks)", "created_at": "Sun Jul 24 17:15:12 +0000 2016", "time": 1469380501.234744, "tid": 757262872355475456, "nei_num": "102"}}, {"geometry": {"type": "Point", "coordinates": [-79.4259019, 43.703331]}, "type": "Feature", "id": 757262873236271105, "properties": {"loc": [-79.4259019, 43.703331], "screen_name": "tofireN", "text": "Alarm Highrise Residential - Bathurst St b/w Vesta Dr / Shallmar Boulevard, Toronto (6 Trucks)", "created_at": "Sun Jul 24 17:15:12 +0000 2016", "time": 1469380501.522662, "tid": 757262873236271105, "nei_num": "102"}}, {"geometry": {"type": "Point", "coordinates": [-79.4259019, 43.703331]}, "type": "Feature", "id": 762718795454701569, "properties": {"loc": [-79.4259019, 43.703331], "screen_name": "tofire", "text": "Medical (Chest Pains) - Bathurst St b/w Vesta Dr / Shallmar Boulevard, Toronto (2 Trucks)", "created_at": "Mon Aug 08 18:35:06 +0000 2016", "time": 1470681291.0054, "tid": 762718795454701569, "nei_num": "102"}}, {"geometry": {"type": "Point", "coordinates": [-79.4259019, 43.703331]}, "type": "Feature", "id": 762718796360581120, "properties": {"loc": [-79.4259019, 43.703331], "screen_name": "tofireN", "text": "Medical (Chest Pains) - Bathurst St b/w Vesta Dr / Shallmar Boulevard, Toronto (2 Trucks)", "created_at": "Mon Aug 08 18:35:06 +0000 2016", "time": 1470681291.218585, "tid": 762718796360581120, "nei_num": "102"}}, {"geometry": {"type": "Point", "coordinates": [-79.4259019, 43.703331]}, "type": "Feature", "id": 771108074392354817, "properties": {"loc": [-79.4259019, 43.703331], "screen_name": "tofire", "text": "Medical (Check Call) - Bathurst St b/w Vesta Dr / Shallmar Boulevard, Toronto (2 Trucks)", "created_at": "Wed Aug 31 22:11:06 +0000 2016", "time": 1472681445.515277, "tid": 771108074392354817, "nei_num": "102"}}, {"geometry": {"type": "Point", "coordinates": [-79.4259019, 43.703331]}, "type": "Feature", "id": 771108075390599168, "properties": {"loc": [-79.4259019, 43.703331], "screen_name": "tofireN", "text": "Medical (Check Call) - Bathurst St b/w Vesta Dr / Shallmar Boulevard, Toronto (2 Trucks)", "created_at": "Wed Aug 31 22:11:06 +0000 2016", "time": 1472681445.835846, "tid": 771108075390599168, "nei_num": "102"}}, {"geometry": {"type": "Point", "coordinates": [-79.42499539, 43.69907605]}, "type": "Feature", "id": 752640340654321664, "properties": {"loc": [-79.42499539, 43.69907605], "screen_name": "Neeka_Fedyshyn", "text": "A bit of #homemade #padthaishrimp goes a long way @ Bathurst St, https://t.co/SO3zkEbMbL", "created_at": "Mon Jul 11 23:06:55 +0000 2016", "time": 1468278406.870903, "tid": 752640340654321664, "nei_num": "102"}}, {"geometry": {"type": "Point", "coordinates": [-79.42499539, 43.69907605]}, "type": "Feature", "id": 753422995645796352, "properties": {"loc": [-79.42499539, 43.69907605], "screen_name": "Neeka_Fedyshyn", "text": "First attempt at #glutenfree #vegan #chocolate #cupcakes and #glutenfree vanilla cupcakes...\u2026 https://t.co/XHSyva4N73", "created_at": "Thu Jul 14 02:56:54 +0000 2016", "time": 1468465005.84965, "tid": 753422995645796352, "nei_num": "102"}}, {"geometry": {"type": "Point", "coordinates": [-79.42499539, 43.69907605]}, "type": "Feature", "id": 757293077534875648, "properties": {"loc": [-79.42499539, 43.69907605], "screen_name": "Neeka_Fedyshyn", "text": "My version of the #salmon #parchement #package lol mmmmmm #dinnertime #onabudget @ Bathurst St, https://t.co/xogroXYbfr", "created_at": "Sun Jul 24 19:15:14 +0000 2016", "time": 1469387702.777591, "tid": 757293077534875648, "nei_num": "102"}}, {"geometry": {"type": "Point", "coordinates": [-79.42499539, 43.69907605]}, "type": "Feature", "id": 759155754376966144, "properties": {"loc": [-79.42499539, 43.69907605], "screen_name": "Neeka_Fedyshyn", "text": "Who invented the #footpump for #camping? Glad I tested it out before being out in the #woods!\u2026 https://t.co/qUuPfUF6sI", "created_at": "Fri Jul 29 22:36:50 +0000 2016", "time": 1469831798.343043, "tid": 759155754376966144, "nei_num": "102"}}, {"geometry": {"type": "Point", "coordinates": [-79.42499539, 43.69907605]}, "type": "Feature", "id": 766793909871767552, "properties": {"loc": [-79.42499539, 43.69907605], "screen_name": "Pherae_Le_Sann", "text": "Dusk at Bathurst and St Clair ... #torontoartist #canadianart #torontoart @ Bathurst St, https://t.co/SttK8YDx6b", "created_at": "Sat Aug 20 00:28:09 +0000 2016", "time": 1471652871.509267, "tid": 766793909871767552, "nei_num": "102"}}, {"geometry": {"type": "Point", "coordinates": [-79.42499539, 43.69907605]}, "type": "Feature", "id": 766798684105433088, "properties": {"loc": [-79.42499539, 43.69907605], "screen_name": "Pherae_Le_Sann", "text": "Evening Traffic Bathurst St at Eglinton Avenue West ...#torontoart #canadianart #torontoartist\u2026 https://t.co/HEQvZxgSW5", "created_at": "Sat Aug 20 00:47:07 +0000 2016", "time": 1471654009.723291, "tid": 766798684105433088, "nei_num": "102"}}, {"geometry": {"type": "Point", "coordinates": [-79.42499539, 43.69907605]}, "type": "Feature", "id": 766900057614479360, "properties": {"loc": [-79.42499539, 43.69907605], "screen_name": "Pherae_Le_Sann", "text": "Late evening view from the stoop at my abode ... #torontoart #canadianart #torontoartist\u2026 https://t.co/1mg86JzJL0", "created_at": "Sat Aug 20 07:29:56 +0000 2016", "time": 1471678179.099065, "tid": 766900057614479360, "nei_num": "102"}}, {"geometry": {"type": "Point", "coordinates": [-79.42499539, 43.69907605]}, "type": "Feature", "id": 768678153497767936, "properties": {"loc": [-79.42499539, 43.69907605], "screen_name": "Pherae_Le_Sann", "text": "Photo Essay: CN Cycle TO ...#foresthill #bathurst #torontoartist #canada #cntower\u2026 https://t.co/zRp5o863OK", "created_at": "Thu Aug 25 05:15:27 +0000 2016", "time": 1472102108.955312, "tid": 768678153497767936, "nei_num": "102"}}, {"geometry": {"type": "Point", "coordinates": [-79.42499539, 43.69907605]}, "type": "Feature", "id": 768709619963289600, "properties": {"loc": [-79.42499539, 43.69907605], "screen_name": "Pherae_Le_Sann", "text": "Up and Down ... The intersection and traffic flow of Bathurst Street at Eglinton Avenue West ...\u2026 https://t.co/WDVOHZLgli", "created_at": "Thu Aug 25 07:20:29 +0000 2016", "time": 1472109611.126822, "tid": 768709619963289600, "nei_num": "102"}}, {"geometry": {"type": "Point", "coordinates": [-79.42499539, 43.69907605]}, "type": "Feature", "id": 770099396725837824, "properties": {"loc": [-79.42499539, 43.69907605], "screen_name": "Pherae_Le_Sann", "text": "Upper Village Sunny Sunday ... My photo-collage of a glorious Sunday afternoon in late August\u2026 https://t.co/ef4RCd0ioW", "created_at": "Mon Aug 29 03:22:58 +0000 2016", "time": 1472440958.791609, "tid": 770099396725837824, "nei_num": "102"}}, {"geometry": {"type": "Point", "coordinates": [-79.42499539, 43.69907605]}, "type": "Feature", "id": 772931911064821761, "properties": {"loc": [-79.42499539, 43.69907605], "screen_name": "Neeka_Fedyshyn", "text": "Totally #starving \ud83d\ude0d @ Bathurst St, https://t.co/GQOcujTAH1", "created_at": "Mon Sep 05 22:58:22 +0000 2016", "time": 1473116281.010165, "tid": 772931911064821761, "nei_num": "102"}}, {"geometry": {"type": "Point", "coordinates": [-79.42506996, 43.69918798]}, "type": "Feature", "id": 759476351363579904, "properties": {"loc": [-79.42506996, 43.69918798], "screen_name": "Torontohomefind", "text": "My tomato crop is turning red. This is my first cherry tomato of the season.\u2026 https://t.co/EvIy3Ursbr", "created_at": "Sat Jul 30 19:50:47 +0000 2016", "time": 1469908234.311949, "tid": 759476351363579904, "nei_num": "102"}}, {"geometry": {"type": "Point", "coordinates": [-79.42506996, 43.69918798]}, "type": "Feature", "id": 766466531328946176, "properties": {"loc": [-79.42506996, 43.69918798], "screen_name": "Torontohomefind", "text": "My amazing crop of chilies are almost ready for harvest. #chilipeppers #harvest @ Bathurst And\u2026 https://t.co/OU5m4fNvJr", "created_at": "Fri Aug 19 02:47:15 +0000 2016", "time": 1471574818.478146, "tid": 766466531328946176, "nei_num": "102"}}, {"geometry": {"type": "Point", "coordinates": [-79.4247496, 43.6989753]}, "type": "Feature", "id": 766751608944390144, "properties": {"loc": [-79.4247496, 43.6989753], "screen_name": "tpscalls", "text": "Personal Injury Collision | Bathurst St &amp; Dewbourne Ave [HP] 08/19 17:34 #Midtown_Toronto", "created_at": "Fri Aug 19 21:40:03 +0000 2016", "time": 1471642796.419735, "tid": 766751608944390144, "nei_num": "102"}}, {"geometry": {"type": "Point", "coordinates": [-79.425239, 43.700216]}, "type": "Feature", "id": 771504172948676608, "properties": {"loc": [-79.425239, 43.700216], "screen_name": "tpscalls", "text": "Impaired Driver | Bathurst St &amp; Rosemary Lane [13 Div.] 09/01 20:19 #Midtown_Toronto", "created_at": "Fri Sep 02 00:25:03 +0000 2016", "time": 1472775882.592508, "tid": 771504172948676608, "nei_num": "102"}}, {"geometry": {"type": "Point", "coordinates": [-79.4255399, 43.7009956]}, "type": "Feature", "id": 753789200009486340, "properties": {"loc": [-79.4255399, 43.7009956], "screen_name": "tpscalls", "text": "Impaired Driver | Bathurst St &amp; Eglinton Ave W [13 Div.] 07/14 23:06 #Midtown_Toronto", "created_at": "Fri Jul 15 03:12:04 +0000 2016", "time": 1468552315.486857, "tid": 753789200009486340, "nei_num": "102"}}, {"geometry": {"type": "Point", "coordinates": [-79.4255399, 43.7009956]}, "type": "Feature", "id": 757057483399626752, "properties": {"loc": [-79.4255399, 43.7009956], "screen_name": "tpscalls", "text": "Impaired Driver | Eglinton Ave W &amp; Bathurst St [13 Div.] 07/23 23:35 #Midtown_Toronto", "created_at": "Sun Jul 24 03:39:04 +0000 2016", "time": 1469331532.827517, "tid": 757057483399626752, "nei_num": "102"}}, {"geometry": {"type": "Point", "coordinates": [-79.4255399, 43.7009956]}, "type": "Feature", "id": 759731850269122560, "properties": {"loc": [-79.4255399, 43.7009956], "screen_name": "tpscalls", "text": "Impaired Driver | Eglinton Ave W &amp; Bathurst St [53 Div.] 07/31 08:40 #Midtown_Toronto", "created_at": "Sun Jul 31 12:46:02 +0000 2016", "time": 1469969149.810096, "tid": 759731850269122560, "nei_num": "102"}}, {"geometry": {"type": "Point", "coordinates": [-79.4255399, 43.7009956]}, "type": "Feature", "id": 759732607017951232, "properties": {"loc": [-79.4255399, 43.7009956], "screen_name": "tpscalls", "text": "Impaired Driver | Eglinton Ave W &amp; Bathurst St [13 Div.] 07/31 08:42 #Midtown_Toronto", "created_at": "Sun Jul 31 12:49:03 +0000 2016", "time": 1469969330.273842, "tid": 759732607017951232, "nei_num": "102"}}, {"geometry": {"type": "Point", "coordinates": [-79.4255399, 43.7009956]}, "type": "Feature", "id": 760059508156760065, "properties": {"loc": [-79.4255399, 43.7009956], "screen_name": "tpscalls", "text": "Fight | Eglinton Ave W &amp; Bathurst St [13 Div.] 08/01 06:21 #Midtown_Toronto", "created_at": "Mon Aug 01 10:28:02 +0000 2016", "time": 1470047269.304373, "tid": 760059508156760065, "nei_num": "102"}}, {"geometry": {"type": "Point", "coordinates": [-79.4255399, 43.7009956]}, "type": "Feature", "id": 768282447373107200, "properties": {"loc": [-79.4255399, 43.7009956], "screen_name": "tpscalls", "text": "Dispute | Bathurst St &amp; Eglinton Ave W [13 Div.] 08/23 22:58 #Midtown_Toronto", "created_at": "Wed Aug 24 03:03:04 +0000 2016", "time": 1472007765.499976, "tid": 768282447373107200, "nei_num": "102"}}, {"geometry": {"type": "Point", "coordinates": [-79.4255399, 43.7009956]}, "type": "Feature", "id": 770436638736576513, "properties": {"loc": [-79.4255399, 43.7009956], "screen_name": "tpscalls", "text": "Disorderlies | Bathurst St &amp; Eglinton Ave W [13 Div.] 08/29 21:37 #Midtown_Toronto", "created_at": "Tue Aug 30 01:43:03 +0000 2016", "time": 1472521363.266107, "tid": 770436638736576513, "nei_num": "102"}}, {"geometry": {"type": "Point", "coordinates": [-79.4231205, 43.7015189]}, "type": "Feature", "id": 768519753967296512, "properties": {"loc": [-79.4231205, 43.7015189], "screen_name": "tpscalls", "text": "Hazard | Old Forest Hill Rd &amp; Eglinton Ave W [13 Div.] 08/24 14:39 #Midtown_Toronto", "created_at": "Wed Aug 24 18:46:02 +0000 2016", "time": 1472064343.691845, "tid": 768519753967296512, "nei_num": "102"}}, {"geometry": {"type": "Point", "coordinates": [-79.4231205, 43.7015189]}, "type": "Feature", "id": 771756333355917312, "properties": {"loc": [-79.4231205, 43.7015189], "screen_name": "tpscalls", "text": "Dispute | Old Forest Hill Rd &amp; Eglinton Ave W [13 Div.] 09/02 13:00 #Midtown_Toronto", "created_at": "Fri Sep 02 17:07:03 +0000 2016", "time": 1472836002.227474, "tid": 771756333355917312, "nei_num": "102"}}, {"geometry": {"type": "Point", "coordinates": [-79.42291321, 43.7013987]}, "type": "Feature", "id": 756340842978156544, "properties": {"loc": [-79.42291321, 43.7013987], "screen_name": "medusaeditions", "text": "oh just trespassing on #soreletrog property takin' in the\u2026 https://t.co/Dsw5tB5Kml", "created_at": "Fri Jul 22 04:11:23 +0000 2016", "time": 1469160672.937097, "tid": 756340842978156544, "nei_num": "102"}}, {"geometry": {"type": "Point", "coordinates": [-79.42291321, 43.7013987]}, "type": "Feature", "id": 756700030283767810, "properties": {"loc": [-79.42291321, 43.7013987], "screen_name": "Pherae_Le_Sann", "text": "July afternoon sun hang over Upper Village ... #torontoart @ Old Forest Hill https://t.co/4pl0WjuxfI", "created_at": "Sat Jul 23 03:58:40 +0000 2016", "time": 1469246309.607176, "tid": 756700030283767810, "nei_num": "102"}}, {"geometry": {"type": "Point", "coordinates": [-79.42291321, 43.7013987]}, "type": "Feature", "id": 757129047134593024, "properties": {"loc": [-79.42291321, 43.7013987], "screen_name": "Pherae_Le_Sann", "text": "July afternoon sun over Upper Village ... #torontoart @ Old Forest Hill https://t.co/4pl0WjuxfI", "created_at": "Sun Jul 24 08:23:26 +0000 2016", "time": 1469348594.940075, "tid": 757129047134593024, "nei_num": "102"}}, {"geometry": {"type": "Point", "coordinates": [-79.42291321, 43.7013987]}, "type": "Feature", "id": 757493672967540736, "properties": {"loc": [-79.42291321, 43.7013987], "screen_name": "Pherae_Le_Sann", "text": "Summer hair, dress, earrings and sandals ... @ Old Forest Hill https://t.co/oXE10RSWTU", "created_at": "Mon Jul 25 08:32:19 +0000 2016", "time": 1469435528.248211, "tid": 757493672967540736, "nei_num": "102"}}, {"geometry": {"type": "Point", "coordinates": [-79.42291321, 43.7013987]}, "type": "Feature", "id": 758144743834550272, "properties": {"loc": [-79.42291321, 43.7013987], "screen_name": "Pherae_Le_Sann", "text": "Eglinton Way on a bright July evening ... @ Old Forest Hill https://t.co/ihQW4rPoKn", "created_at": "Wed Jul 27 03:39:27 +0000 2016", "time": 1469590755.268485, "tid": 758144743834550272, "nei_num": "102"}}, {"geometry": {"type": "Point", "coordinates": [-79.42291321, 43.7013987]}, "type": "Feature", "id": 758935654881386497, "properties": {"loc": [-79.42291321, 43.7013987], "screen_name": "Pherae_Le_Sann", "text": "Construction pylons, traffic lights and the early night blue sky putting on the \"ritz\" for Upper\u2026 https://t.co/E2YSQwYoe1", "created_at": "Fri Jul 29 08:02:15 +0000 2016", "time": 1469779322.592029, "tid": 758935654881386497, "nei_num": "102"}}, {"geometry": {"type": "Point", "coordinates": [-79.42291321, 43.7013987]}, "type": "Feature", "id": 759646905215442944, "properties": {"loc": [-79.42291321, 43.7013987], "screen_name": "Pherae_Le_Sann", "text": "Wearing my faves especially the Canadian made Truth Belt I bought in University ... Love the\u2026 https://t.co/Brtj8sAZnU", "created_at": "Sun Jul 31 07:08:30 +0000 2016", "time": 1469948897.392295, "tid": 759646905215442944, "nei_num": "102"}}, {"geometry": {"type": "Point", "coordinates": [-79.42291321, 43.7013987]}, "type": "Feature", "id": 760036109388767232, "properties": {"loc": [-79.42291321, 43.7013987], "screen_name": "Pherae_Le_Sann", "text": "Last evening of July 2016 gorgeous as ever ... Sky over Upper Village in Toronto, Ontario,\u2026 https://t.co/brGoSWTjBL", "created_at": "Mon Aug 01 08:55:03 +0000 2016", "time": 1470041690.661661, "tid": 760036109388767232, "nei_num": "102"}}, {"geometry": {"type": "Point", "coordinates": [-79.42291321, 43.7013987]}, "type": "Feature", "id": 760686371916906496, "properties": {"loc": [-79.42291321, 43.7013987], "screen_name": "Pherae_Le_Sann", "text": "Walk up to Forest Hill North ...#ontarioartist @ Old Forest Hill https://t.co/NVYHk6P6HG", "created_at": "Wed Aug 03 03:58:58 +0000 2016", "time": 1470196724.982106, "tid": 760686371916906496, "nei_num": "102"}}, {"geometry": {"type": "Point", "coordinates": [-79.42291321, 43.7013987]}, "type": "Feature", "id": 760688131725258753, "properties": {"loc": [-79.42291321, 43.7013987], "screen_name": "Pherae_Le_Sann", "text": "Summer flowerbeds guarding the War Memorial at Vesta near Forest Hill Public Library ... @ Old\u2026 https://t.co/OO1zEpXVIw", "created_at": "Wed Aug 03 04:05:58 +0000 2016", "time": 1470197144.534137, "tid": 760688131725258753, "nei_num": "102"}}, {"geometry": {"type": "Point", "coordinates": [-79.42291321, 43.7013987]}, "type": "Feature", "id": 760689147908595712, "properties": {"loc": [-79.42291321, 43.7013987], "screen_name": "Pherae_Le_Sann", "text": "Lovely summer berries near Forest Hill Public Library ... #torontoart @ Old Forest Hill https://t.co/AuqXbzDl4W", "created_at": "Wed Aug 03 04:10:00 +0000 2016", "time": 1470197386.738822, "tid": 760689147908595712, "nei_num": "102"}}, {"geometry": {"type": "Point", "coordinates": [-79.42291321, 43.7013987]}, "type": "Feature", "id": 761078330409922560, "properties": {"loc": [-79.42291321, 43.7013987], "screen_name": "Pherae_Le_Sann", "text": "Late evening sun near Memorial Park and the Kay Gardner Beltline ... @ Old Forest Hill https://t.co/6TIrVNvOkm", "created_at": "Thu Aug 04 05:56:28 +0000 2016", "time": 1470290174.862849, "tid": 761078330409922560, "nei_num": "102"}}, {"geometry": {"type": "Point", "coordinates": [-79.42291321, 43.7013987]}, "type": "Feature", "id": 761283365974585344, "properties": {"loc": [-79.42291321, 43.7013987], "screen_name": "barryallenklupt", "text": "Just Listed. 16 Rosemary Ln. Forest Hill. I captured the morning beauty with my IPhone 6\u2026 https://t.co/qZ0NChixFz", "created_at": "Thu Aug 04 19:31:13 +0000 2016", "time": 1470339059.226604, "tid": 761283365974585344, "nei_num": "102"}}, {"geometry": {"type": "Point", "coordinates": [-79.42291321, 43.7013987]}, "type": "Feature", "id": 762206926222528512, "properties": {"loc": [-79.42291321, 43.7013987], "screen_name": "Pherae_Le_Sann", "text": "Gothic self-portrait I worked on ...#ontarioartist #torontoart @ Old Forest Hill https://t.co/4KC9S8GifG", "created_at": "Sun Aug 07 08:41:06 +0000 2016", "time": 1470559252.321317, "tid": 762206926222528512, "nei_num": "102"}}, {"geometry": {"type": "Point", "coordinates": [-79.42291321, 43.7013987]}, "type": "Feature", "id": 762208127664197632, "properties": {"loc": [-79.42291321, 43.7013987], "screen_name": "Pherae_Le_Sann", "text": "New August moon ... #torontoart #ontarioartist @ Old Forest Hill https://t.co/0cgAK25lOF", "created_at": "Sun Aug 07 08:45:53 +0000 2016", "time": 1470559538.784647, "tid": 762208127664197632, "nei_num": "102"}}, {"geometry": {"type": "Point", "coordinates": [-79.42291321, 43.7013987]}, "type": "Feature", "id": 763980849855336448, "properties": {"loc": [-79.42291321, 43.7013987], "screen_name": "Pherae_Le_Sann", "text": "August 2016: Following the traffic lights around Upper Village as the construction works its way\u2026 https://t.co/pwFsOAnSxb", "created_at": "Fri Aug 12 06:10:03 +0000 2016", "time": 1470982187.437961, "tid": 763980849855336448, "nei_num": "102"}}, {"geometry": {"type": "Point", "coordinates": [-79.42291321, 43.7013987]},