{"type": "FeatureCollection", "features": [{"geometry": {"type": "Point", "coordinates": [-79.4662094, 43.6652946]}, "type": "Feature", "id": 705066667471200256, "properties": {"loc": [-79.4662094, 43.6652946], "centroid": [-79.4385469194607, 43.746314587303544], "screen_name": "cutthecheeseTO", "time": 1456953967.0, "tid": 705066667471200256, "text": "We wish you could taste this from your phone cause its pretty bonkers! Guess you'll have to come\u2026 https://t.co/hz5ZQ9y2eR", "created_at": "Wed Mar 02 16:26:07 +0000 2016", "klabel": 108}}, {"geometry": {"type": "Point", "coordinates": [-79.4793396, 43.6749306]}, "type": "Feature", "id": 705075597077307392, "properties": {"loc": [-79.4793396, 43.6749306], "centroid": [-79.4385469194607, 43.746314587303544], "screen_name": "JulieDaniluk", "time": 1456956096.0, "tid": 705075597077307392, "text": "Come learn all about remedies for sleep like these wonderful homemade milks on periscope - my\u2026 https://t.co/hcPA9EyL0j", "created_at": "Wed Mar 02 17:01:36 +0000 2016", "klabel": 108}}, {"geometry": {"type": "Point", "coordinates": [-79.4582897, 43.66599882]}, "type": "Feature", "id": 705104010500554753, "properties": {"loc": [-79.4582897, 43.66599882], "centroid": [-79.4385469194607, 43.746314587303544], "screen_name": "MrTobiasA", "time": 1456962870.0, "tid": 705104010500554753, "text": "\ud83d\ude02 https://t.co/LszwBk1lOf", "created_at": "Wed Mar 02 18:54:30 +0000 2016", "klabel": 108}}, {"geometry": {"type": "Point", "coordinates": [-79.45824561, 43.66599035]}, "type": "Feature", "id": 705146101242990593, "properties": {"loc": [-79.45824561, 43.66599035], "centroid": [-79.4385469194607, 43.746314587303544], "screen_name": "MrTobiasA", "time": 1456972906.0, "tid": 705146101242990593, "text": "Just kill me now.", "created_at": "Wed Mar 02 21:41:46 +0000 2016", "klabel": 108}}, {"geometry": {"type": "Point", "coordinates": [-79.45822785, 43.66598693]}, "type": "Feature", "id": 705146349650464769, "properties": {"loc": [-79.45822785, 43.66598693], "centroid": [-79.4385469194607, 43.746314587303544], "screen_name": "MrTobiasA", "time": 1456972965.0, "tid": 705146349650464769, "text": "Like just throw me off a bridge.", "created_at": "Wed Mar 02 21:42:45 +0000 2016", "klabel": 108}}, {"geometry": {"type": "Point", "coordinates": [-79.4681432, 43.6724864]}, "type": "Feature", "id": 705181069507559424, "properties": {"loc": [-79.4681432, 43.6724864], "centroid": [-79.4385469194607, 43.746314587303544], "screen_name": "VitapathCareers", "time": 1456981243.0, "tid": 705181069507559424, "text": "#Toronto, ON #Retail #Job: Health Enthusiast Part-Time at Vitapath https://t.co/6fsPBjFUR0 #Jobs #Hiring", "created_at": "Thu Mar 03 00:00:43 +0000 2016", "klabel": 108}}, {"geometry": {"type": "Point", "coordinates": [-79.46827, 43.66566]}, "type": "Feature", "id": 705198231773421568, "properties": {"loc": [-79.46827, 43.66566], "centroid": [-79.4385469194607, 43.746314587303544], "screen_name": "runsmilerepeat", "time": 1456985335.0, "tid": 705198231773421568, "text": "The only thing I wanted to lift today, was food to my face. I know I would have regretted not\u2026 https://t.co/7KzJ4kH453", "created_at": "Thu Mar 03 01:08:55 +0000 2016", "klabel": 108}}, {"geometry": {"type": "Point", "coordinates": [-79.4678361, 43.6642703]}, "type": "Feature", "id": 705199707115622401, "properties": {"loc": [-79.4678361, 43.6642703], "centroid": [-79.4385469194607, 43.746314587303544], "screen_name": "ohnosimon", "time": 1456985686.0, "tid": 705199707115622401, "text": "Toronto coffee job posting trends: \"3-5 years barista experience, open availability, start time 0530, minimum + weekly tips\". Gtfo.", "created_at": "Thu Mar 03 01:14:46 +0000 2016", "klabel": 108}}, {"geometry": {"type": "Point", "coordinates": [-79.47414415, 43.6656173]}, "type": "Feature", "id": 705205300681383936, "properties": {"loc": [-79.47414415, 43.6656173], "centroid": [-79.4385469194607, 43.746314587303544], "screen_name": "BIGsiscloset", "time": 1456987020.0, "tid": 705205300681383936, "text": "Style and beauty is *NOT* about size!!! It\u2019s about the way you express yourself, the confidence\u2026 https://t.co/Y3t1C2Lf7r", "created_at": "Thu Mar 03 01:37:00 +0000 2016", "klabel": 108}}, {"geometry": {"type": "Point", "coordinates": [-79.4651, 43.6654]}, "type": "Feature", "id": 705223935911182336, "properties": {"loc": [-79.4651, 43.6654], "centroid": [-79.4385469194607, 43.746314587303544], "screen_name": "sousedbergin", "time": 1456991463.0, "tid": 705223935911182336, "text": "Drinking a CONDUCTOR'S CRAFT ALE by @JUNCTION_CRAFT at @holeinthewallto \u2014 https://t.co/kdVymAIm2S #photo", "created_at": "Thu Mar 03 02:51:03 +0000 2016", "klabel": 108}}, {"geometry": {"type": "Point", "coordinates": [-79.47016295, 43.67386706]}, "type": "Feature", "id": 705427751935860736, "properties": {"loc": [-79.47016295, 43.67386706], "centroid": [-79.4385469194607, 43.746314587303544], "screen_name": "malaikateee", "time": 1457040056.0, "tid": 705427751935860736, "text": "I stay repping my favourite team \u2764\ufe0f #tbt @ The Stockyards https://t.co/qQaPPGsuxz", "created_at": "Thu Mar 03 16:20:56 +0000 2016", "klabel": 108}}, {"geometry": {"type": "Point", "coordinates": [-79.4613571, 43.6650581]}, "type": "Feature", "id": 705433753775005696, "properties": {"loc": [-79.4613571, 43.6650581], "centroid": [-79.4385469194607, 43.746314587303544], "screen_name": "JunctionGuitars", "time": 1457041487.0, "tid": 705433753775005696, "text": "#gretsch #blackfalcon 2005 it could be yours for $3000 cash #junctionguitars @ Junction Guitars https://t.co/9wdKqC2XN9", "created_at": "Thu Mar 03 16:44:47 +0000 2016", "klabel": 108}}, {"geometry": {"type": "Point", "coordinates": [-79.4681432, 43.6724864]}, "type": "Feature", "id": 705513777244975105, "properties": {"loc": [-79.4681432, 43.6724864], "centroid": [-79.4385469194607, 43.746314587303544], "screen_name": "tmj_gta_retail", "time": 1457060566.0, "tid": 705513777244975105, "text": "#CareerArc #Retail #Job alert: Assistant Store Manager | Vitapath | #Toronto, ON https://t.co/J98MlgkjZ0 #Jobs #Hiring", "created_at": "Thu Mar 03 22:02:46 +0000 2016", "klabel": 108}}, {"geometry": {"type": "Point", "coordinates": [-79.4707031, 43.6656914]}, "type": "Feature", "id": 705539038208507905, "properties": {"loc": [-79.4707031, 43.6656914], "centroid": [-79.4385469194607, 43.746314587303544], "screen_name": "junctionette", "time": 1457066589.0, "tid": 705539038208507905, "text": "A certain kidlet adores Rose Tyler \ud83d\udc95 #doctorwho @ Priv\u00e9 Hair Gallery https://t.co/N8qj7t1DX3", "created_at": "Thu Mar 03 23:43:09 +0000 2016", "klabel": 108}}, {"geometry": {"type": "Point", "coordinates": [-79.47869113, 43.66915714]}, "type": "Feature", "id": 705543400729288705, "properties": {"loc": [-79.47869113, 43.66915714], "centroid": [-79.4385469194607, 43.746314587303544], "screen_name": "fiche23", "time": 1457067629.0, "tid": 705543400729288705, "text": "My little boy @ Desperately Seeking Housemaid Inc. https://t.co/Qc00JQUrlK", "created_at": "Fri Mar 04 00:00:29 +0000 2016", "klabel": 108}}, {"geometry": {"type": "Point", "coordinates": [-79.47364275, 43.67165582]}, "type": "Feature", "id": 705613779300687873, "properties": {"loc": [-79.47364275, 43.67165582], "centroid": [-79.4385469194607, 43.746314587303544], "screen_name": "YusufOguuz", "time": 1457084409.0, "tid": 705613779300687873, "text": "We are old, they are new anymore!\nWhen I first steped to Toronto, it\u2026 https://t.co/XMjO913cFY", "created_at": "Fri Mar 04 04:40:09 +0000 2016", "klabel": 108}}, {"geometry": {"type": "Point", "coordinates": [-79.47414415, 43.6656173]}, "type": "Feature", "id": 705736148614836225, "properties": {"loc": [-79.47414415, 43.6656173], "centroid": [-79.4385469194607, 43.746314587303544], "screen_name": "BIGsiscloset", "time": 1457113584.0, "tid": 705736148614836225, "text": "THIS Lilac Tulip Dress JUST arrived at my store!!! \ud83d\udc9c\ud83d\udc9c\ud83d\udc9c I am absolutely LOVING this colour, cut,\u2026 https://t.co/8jncJdaA3a", "created_at": "Fri Mar 04 12:46:24 +0000 2016", "klabel": 108}}, {"geometry": {"type": "Point", "coordinates": [-79.46903, 43.66575]}, "type": "Feature", "id": 705744247832489985, "properties": {"loc": [-79.46903, 43.66575], "centroid": [-79.4385469194607, 43.746314587303544], "screen_name": "LaVizziata", "time": 1457115515.0, "tid": 705744247832489985, "text": "#dolcefarniente #homemade #justlikehome #italianflavours #allnatural #vegan #realfruit\u2026 https://t.co/ILwUX4LNpj", "created_at": "Fri Mar 04 13:18:35 +0000 2016", "klabel": 108}}, {"geometry": {"type": "Point", "coordinates": [-79.47106, 43.66267]}, "type": "Feature", "id": 705753542460579840, "properties": {"loc": [-79.47106, 43.66267], "centroid": [-79.4385469194607, 43.746314587303544], "screen_name": "GoonTherapy", "time": 1457117731.0, "tid": 705753542460579840, "text": "The Pop Fiends Breakfast. @ The Good Neighbour Espresso Bar https://t.co/QoqwUQ3FVD", "created_at": "Fri Mar 04 13:55:31 +0000 2016", "klabel": 108}}, {"geometry": {"type": "Point", "coordinates": [-79.47414415, 43.6656173]}, "type": "Feature", "id": 705760170824093696, "properties": {"loc": [-79.47414415, 43.6656173], "centroid": [-79.4385469194607, 43.746314587303544], "screen_name": "BIGsiscloset", "time": 1457119311.0, "tid": 705760170824093696, "text": "*THIS* is a must have staple in your wardrobe!!! \ud83d\ude0d\ud83d\ude0d\ud83d\ude0d This Black Lace Skater Dress with Beaded\u2026 https://t.co/2XWYoA7cmM", "created_at": "Fri Mar 04 14:21:51 +0000 2016", "klabel": 108}}, {"geometry": {"type": "Point", "coordinates": [-79.47414415, 43.6656173]}, "type": "Feature", "id": 705788068008239104, "properties": {"loc": [-79.47414415, 43.6656173], "centroid": [-79.4385469194607, 43.746314587303544], "screen_name": "BIGsiscloset", "time": 1457125962.0, "tid": 705788068008239104, "text": "Who wants this super cute Floral Swing Dress??? \ud83d\ude0d\ud83d\ude0d\ud83d\ude0d It\u2019s the perfect Spring dress, with such a\u2026 https://t.co/nJYQ5jwwTQ", "created_at": "Fri Mar 04 16:12:42 +0000 2016", "klabel": 108}}, {"geometry": {"type": "Point", "coordinates": [-79.47414415, 43.6656173]}, "type": "Feature", "id": 705816279714758657, "properties": {"loc": [-79.47414415, 43.6656173], "centroid": [-79.4385469194607, 43.746314587303544], "screen_name": "BIGsiscloset", "time": 1457132689.0, "tid": 705816279714758657, "text": "I LOOOOVE this new Floral Maxi Dress!!! \ud83d\ude0d\ud83d\ude0d\ud83d\ude0d Look how flowy it is!!! There\u2019s also BUTTERFLIES on\u2026 https://t.co/qVgEf3gRaX", "created_at": "Fri Mar 04 18:04:49 +0000 2016", "klabel": 108}}, {"geometry": {"type": "Point", "coordinates": [-79.47869113, 43.66915714]}, "type": "Feature", "id": 705825648552624128, "properties": {"loc": [-79.47869113, 43.66915714], "centroid": [-79.4385469194607, 43.746314587303544], "screen_name": "fiche23", "time": 1457134922.0, "tid": 705825648552624128, "text": "My new wheels! @ Desperately Seeking Housemaid Inc. https://t.co/yUfnSsSJdT", "created_at": "Fri Mar 04 18:42:02 +0000 2016", "klabel": 108}}, {"geometry": {"type": "Point", "coordinates": [-79.4681432, 43.6724864]}, "type": "Feature", "id": 705863572585213952, "properties": {"loc": [-79.4681432, 43.6724864], "centroid": [-79.4385469194607, 43.746314587303544], "screen_name": "tmj_gta_retail", "time": 1457143964.0, "tid": 705863572585213952, "text": "Store Manager - Vitapath: (#Toronto, ON) https://t.co/rrP2sYQsWZ #Retail #Job #Jobs #Hiring #CareerArc", "created_at": "Fri Mar 04 21:12:44 +0000 2016", "klabel": 108}}, {"geometry": {"type": "Point", "coordinates": [-79.4654, 43.6655]}, "type": "Feature", "id": 705913924122767360, "properties": {"loc": [-79.4654, 43.6655], "centroid": [-79.4385469194607, 43.746314587303544], "screen_name": "junctionette", "time": 1457155969.0, "tid": 705913924122767360, "text": "#friday - Drinking a Broken Hipster by @indiealehouse at @indiealehouse  \u2014 https://t.co/l13pQN1doC", "created_at": "Sat Mar 05 00:32:49 +0000 2016", "klabel": 108}}, {"geometry": {"type": "Point", "coordinates": [-79.47414415, 43.6656173]}, "type": "Feature", "id": 705924709616115712, "properties": {"loc": [-79.47414415, 43.6656173], "centroid": [-79.4385469194607, 43.746314587303544], "screen_name": "BIGsiscloset", "time": 1457158540.0, "tid": 705924709616115712, "text": "I\u2019m definitely feeling like the Irish Lass that I am in this Mint Lace Skater Dress with Beaded\u2026 https://t.co/tkqARjRHkv", "created_at": "Sat Mar 05 01:15:40 +0000 2016", "klabel": 108}}, {"geometry": {"type": "Point", "coordinates": [-79.46903, 43.66575]}, "type": "Feature", "id": 705943352781381632, "properties": {"loc": [-79.46903, 43.66575], "centroid": [-79.4385469194607, 43.746314587303544], "screen_name": "LaVizziata", "time": 1457162985.0, "tid": 705943352781381632, "text": "Waffles on a Friday night #datenight #girlsnightout #fridaynight #Junctionto #foodies #nomnom\u2026 https://t.co/iwcOTGjBho", "created_at": "Sat Mar 05 02:29:45 +0000 2016", "klabel": 108}}, {"geometry": {"type": "Point", "coordinates": [-79.46955185, 43.67109471]}, "type": "Feature", "id": 705947125851402240, "properties": {"loc": [-79.46955185, 43.67109471], "centroid": [-79.4385469194607, 43.746314587303544], "screen_name": "giver110", "time": 1457163885.0, "tid": 705947125851402240, "text": "Just a wild-ass Friday night at #homedepot \ud83d\ude06 @ Home Depot https://t.co/v0N6CXTVWv", "created_at": "Sat Mar 05 02:44:45 +0000 2016", "klabel": 108}}, {"geometry": {"type": "Point", "coordinates": [-79.47414415, 43.6656173]}, "type": "Feature", "id": 705956578919231488, "properties": {"loc": [-79.47414415, 43.6656173], "centroid": [-79.4385469194607, 43.746314587303544], "screen_name": "BIGsiscloset", "time": 1457166139.0, "tid": 705956578919231488, "text": "Feeling very MADMEN in this gorgeous new Black Peplum Suit!!! \ud83d\udc84\ud83d\udc44\ud83d\udc8b It\u2019s perfect for work, or a\u2026 https://t.co/MUfSMGL1jE", "created_at": "Sat Mar 05 03:22:19 +0000 2016", "klabel": 108}}, {"geometry": {"type": "Point", "coordinates": [-79.47414415, 43.6656173]}, "type": "Feature", "id": 705996673378607105, "properties": {"loc": [-79.47414415, 43.6656173], "centroid": [-79.4385469194607, 43.746314587303544], "screen_name": "BIGsiscloset", "time": 1457175698.0, "tid": 705996673378607105, "text": "*THIS* is another wardrobe staple!!! \ud83d\ude0d\ud83d\ude0d\ud83d\ude0d This stylish, comfy and easy to wear dress can be worn\u2026 https://t.co/82PPIyhnvy", "created_at": "Sat Mar 05 06:01:38 +0000 2016", "klabel": 108}}, {"geometry": {"type": "Point", "coordinates": [-79.47414415, 43.6656173]}, "type": "Feature", "id": 706125950698852353, "properties": {"loc": [-79.47414415, 43.6656173], "centroid": [-79.4385469194607, 43.746314587303544], "screen_name": "BIGsiscloset", "time": 1457206520.0, "tid": 706125950698852353, "text": "Have you guys seen this new regal AF maxi dress??? \ud83d\udc9c\ud83d\udc9c\ud83d\udc9c It JUST came in, along with a BUNCH of\u2026 https://t.co/kWKvSADefn", "created_at": "Sat Mar 05 14:35:20 +0000 2016", "klabel": 108}}, {"geometry": {"type": "Point", "coordinates": [-79.4681432, 43.6724864]}, "type": "Feature", "id": 706147313073283073, "properties": {"loc": [-79.4681432, 43.6724864], "centroid": [-79.4385469194607, 43.746314587303544], "screen_name": "VitapathCareers", "time": 1457211613.0, "tid": 706147313073283073, "text": "This #Retail #job might be a great fit for you: Nutritionist - https://t.co/8MjeFNkmXf #Toronto, ON #Hiring", "created_at": "Sat Mar 05 16:00:13 +0000 2016", "klabel": 108}}, {"geometry": {"type": "Point", "coordinates": [-79.459402, 43.6645994]}, "type": "Feature", "id": 706152588106997761, "properties": {"loc": [-79.459402, 43.6645994], "centroid": [-79.4385469194607, 43.746314587303544], "screen_name": "tmj_gta_itpm", "time": 1457212871.0, "tid": 706152588106997761, "text": "This #ProjectMgmt #job might be a great fit for you: Senior Mainframe Developer (Future Opportunity) - https://t.co/yPDC4C5KSe #Hiring", "created_at": "Sat Mar 05 16:21:11 +0000 2016", "klabel": 108}}, {"geometry": {"type": "Point", "coordinates": [-79.4681432, 43.6724864]}, "type": "Feature", "id": 706171436403073024, "properties": {"loc": [-79.4681432, 43.6724864], "centroid": [-79.4385469194607, 43.746314587303544], "screen_name": "tmj_gta_retail", "time": 1457217365.0, "tid": 706171436403073024, "text": "We're #hiring! Read about our latest #job opening here: Key Holder - https://t.co/nVa2oqPA5C #Toronto, ON #Retail #CareerArc", "created_at": "Sat Mar 05 17:36:05 +0000 2016", "klabel": 108}}, {"geometry": {"type": "Point", "coordinates": [-79.47414415, 43.6656173]}, "type": "Feature", "id": 707617795161329664, "properties": {"loc": [-79.47414415, 43.6656173], "centroid": [-79.4385469194607, 43.746314587303544], "screen_name": "BIGsiscloset", "time": 1457562203.0, "tid": 707617795161329664, "text": "I LOOOVE this dress!!!!!! \ud83d\ude0d\ud83d\ude0d\ud83d\ude0d\ud83d\ude0d The colour is absolutely brilliant, the quality of the lace and\u2026 https://t.co/URceZuCoiH", "created_at": "Wed Mar 09 17:23:23 +0000 2016", "klabel": 108}}, {"geometry": {"type": "Point", "coordinates": [-79.4706249, 43.6706338]}, "type": "Feature", "id": 707629539929825287, "properties": {"loc": [-79.4706249, 43.6706338], "centroid": [-79.4385469194607, 43.746314587303544], "screen_name": "tpscalls", "time": 1457565004.0, "tid": 707629539929825287, "text": "Indecent Exposure Just Occurred | Weston Rd &amp; Old Stock Yards Rd [12 Div.] 03/09 13:03 #Stockyards_District #Toronto", "created_at": "Wed Mar 09 18:10:04 +0000 2016", "klabel": 108}}, {"geometry": {"type": "Point", "coordinates": [-79.4665603, 43.6598219]}, "type": "Feature", "id": 749797610664394752, "properties": {"loc": [-79.4665603, 43.6598219], "centroid": [-79.4385469194607, 43.746314587303544], "screen_name": "ruebot", "time": 1467618655.0, "tid": 749797610664394752, "text": "@cm_harlow your cats are super into ActiveFedora too!?", "created_at": "Mon Jul 04 02:50:55 +0000 2016", "klabel": 108}}, {"geometry": {"type": "Point", "coordinates": [-79.4681432, 43.6724864]}, "type": "Feature", "id": 749981120599429120, "properties": {"loc": [-79.4681432, 43.6724864], "centroid": [-79.4385469194607, 43.746314587303544], "screen_name": "VitapathCareers", "time": 1467662407.0, "tid": 749981120599429120, "text": "Vitapath #Retail #Job: Key Holder (#Toronto, ON) https://t.co/doLjYgB96x #Jobs #Hiring", "created_at": "Mon Jul 04 15:00:07 +0000 2016", "klabel": 108}}, {"geometry": {"type": "Point", "coordinates": [-79.474724, 43.6768905]}, "type": "Feature", "id": 749998726333206528, "properties": {"loc": [-79.474724, 43.6768905], "centroid": [-79.4385469194607, 43.746314587303544], "screen_name": "tpscalls", "time": 1467666605.0, "tid": 749998726333206528, "text": "Break &amp; Enter | Ln E Lapp N Mccormack &amp; Lapp St [12 Div.] 07/04 12:04 #Rockcliffe_Smythe #Toronto", "created_at": "Mon Jul 04 16:10:05 +0000 2016", "klabel": 108}}, {"geometry": {"type": "Point", "coordinates": [-79.4603092, 43.6695434]}, "type": "Feature", "id": 750010546645299200, "properties": {"loc": [-79.4603092, 43.6695434], "centroid": [-79.4385469194607, 43.746314587303544], "screen_name": "tpscalls", "time": 1467669423.0, "tid": 750010546645299200, "text": "Found Property | Osler St &amp; Miller St [11 Div.] 07/04 12:51 #Carleton_Village #Toronto", "created_at": "Mon Jul 04 16:57:03 +0000 2016", "klabel": 108}}, {"geometry": {"type": "Point", "coordinates": [-79.4681432, 43.6724864]}, "type": "Feature", "id": 750015112723836928, "properties": {"loc": [-79.4681432, 43.6724864], "centroid": [-79.4385469194607, 43.746314587303544], "screen_name": "tmj_gta_retail", "time": 1467670512.0, "tid": 750015112723836928, "text": "Assistant Store Manager - Vitapath: (#Toronto, ON) https://t.co/J98MlgkjZ0 #Retail #Job #Jobs #Hiring #CareerArc", "created_at": "Mon Jul 04 17:15:12 +0000 2016", "klabel": 108}}, {"geometry": {"type": "Point", "coordinates": [-79.4629474, 43.673226]}, "type": "Feature", "id": 750029423932534784, "properties": {"loc": [-79.4629474, 43.673226], "centroid": [-79.4385469194607, 43.746314587303544], "screen_name": "tpscalls", "time": 1467673924.0, "tid": 750029423932534784, "text": "See Ambulance | Old Weston Rd &amp; C N R / C P R [11 Div.] 07/04 14:07 #Toronto", "created_at": "Mon Jul 04 18:12:04 +0000 2016", "klabel": 108}}, {"geometry": {"type": "Point", "coordinates": [-79.4675428, 43.6724908]}, "type": "Feature", "id": 750050562700345344, "properties": {"loc": [-79.4675428, 43.6724908], "centroid": [-79.4385469194607, 43.746314587303544], "screen_name": "tpscalls", "time": 1467678964.0, "tid": 750050562700345344, "text": "Arrest | Keele St &amp; St Clair Ave W [11 Div.] 07/04 15:32 #The_Junction #Toronto", "created_at": "Mon Jul 04 19:36:04 +0000 2016", "klabel": 108}}, {"geometry": {"type": "Point", "coordinates": [-79.4681432, 43.6724864]}, "type": "Feature", "id": 750051955603415041, "properties": {"loc": [-79.4681432, 43.6724864], "centroid": [-79.4385469194607, 43.746314587303544], "screen_name": "tmj_gta_retail", "time": 1467679296.0, "tid": 750051955603415041, "text": "Vitapath: Store Manager (#Toronto, ON) https://t.co/rrP2sYQsWZ #Retail #Job #Jobs #Hiring #CareerArc", "created_at": "Mon Jul 04 19:41:36 +0000 2016", "klabel": 108}}, {"geometry": {"type": "Point", "coordinates": [-79.47414415, 43.6656173]}, "type": "Feature", "id": 750062864719904773, "properties": {"loc": [-79.47414415, 43.6656173], "centroid": [-79.4385469194607, 43.746314587303544], "screen_name": "BIGsiscloset", "time": 1467681897.0, "tid": 750062864719904773, "text": "OK!!! \ud83d\ude4c\ud83d\ude4c\ud83d\ude4c *THIS* is my favourite one-piece bathing suit in the store right now!!! \ud83d\ude0d\ud83d\ude0d\ud83d\ude0d Retro\u2026 https://t.co/GB02fuFI49", "created_at": "Mon Jul 04 20:24:57 +0000 2016", "klabel": 108}}, {"geometry": {"type": "Point", "coordinates": [-79.4677029, 43.6726016]}, "type": "Feature", "id": 750096619094310913, "properties": {"loc": [-79.4677029, 43.6726016], "centroid": [-79.4385469194607, 43.746314587303544], "screen_name": "tpscalls", "time": 1467689944.0, "tid": 750096619094310913, "text": "Personal Injury Collision | Keele St &amp; Weston Rd [HP] 07/04 18:34 #Harwood #Toronto", "created_at": "Mon Jul 04 22:39:04 +0000 2016", "klabel": 108}}, {"geometry": {"type": "Point", "coordinates": [-79.47414415, 43.6656173]}, "type": "Feature", "id": 750103586487566336, "properties": {"loc": [-79.47414415, 43.6656173], "centroid": [-79.4385469194607, 43.746314587303544], "screen_name": "BIGsiscloset", "time": 1467691605.0, "tid": 750103586487566336, "text": "Of all the bikinis, this one is my favourite!!! \ud83d\ude0d\ud83d\ude0d\ud83d\ude0d I just love the colour and print, and it\u2019s\u2026 https://t.co/lUTLv8hv6m", "created_at": "Mon Jul 04 23:06:45 +0000 2016", "klabel": 108}}, {"geometry": {"type": "Point", "coordinates": [-79.47414415, 43.6656173]}, "type": "Feature", "id": 750119627167043584, "properties": {"loc": [-79.47414415, 43.6656173], "centroid": [-79.4385469194607, 43.746314587303544], "screen_name": "BIGsiscloset", "time": 1467695430.0, "tid": 750119627167043584, "text": "How ADORABLE is this retro style bathing suit???!!! \ud83d\ude0d\ud83d\ude0d\ud83d\ude0d It features all the bells and whistles,\u2026 https://t.co/Jscr3gdJc7", "created_at": "Tue Jul 05 00:10:30 +0000 2016", "klabel": 108}}, {"geometry": {"type": "Point", "coordinates": [-79.47414415, 43.6656173]}, "type": "Feature", "id": 750159683571347456, "properties": {"loc": [-79.47414415, 43.6656173], "centroid": [-79.4385469194607, 43.746314587303544], "screen_name": "BIGsiscloset", "time": 1467704980.0, "tid": 750159683571347456, "text": "OK!!! \ud83d\ude4c\ud83d\ude4c\ud83d\ude4c *THIS* is my favourite one-piece bathing suit in the store right now!!! \ud83d\ude0d\ud83d\ude0d\ud83d\ude0d Retro\u2026 https://t.co/lpxItgs0pj", "created_at": "Tue Jul 05 02:49:40 +0000 2016", "klabel": 108}}, {"geometry": {"type": "Point", "coordinates": [-79.4603092, 43.6695434]}, "type": "Feature", "id": 750169097263058944, "properties": {"loc": [-79.4603092, 43.6695434], "centroid": [-79.4385469194607, 43.746314587303544], "screen_name": "tpscalls", "time": 1467707224.0, "tid": 750169097263058944, "text": "Arrest | Osler St &amp; Miller St [11 Div.] 07/04 23:22 #Carleton_Village #Toronto", "created_at": "Tue Jul 05 03:27:04 +0000 2016", "klabel": 108}}, {"geometry": {"type": "Point", "coordinates": [-79.47414415, 43.6656173]}, "type": "Feature", "id": 750180504746491905, "properties": {"loc": [-79.47414415, 43.6656173], "centroid": [-79.4385469194607, 43.746314587303544], "screen_name": "BIGsiscloset", "time": 1467709944.0, "tid": 750180504746491905, "text": "I LOVE POLKA DOTS!!! \ud83d\ude06\ud83d\ude06\ud83d\ude06 Especially on such a sultry and retro style bikini!!! \ud83d\ude0d\ud83d\ude0d\ud83d\ude0d It also has\u2026 https://t.co/cD5bL18ujt", "created_at": "Tue Jul 05 04:12:24 +0000 2016", "klabel": 108}}, {"geometry": {"type": "Point", "coordinates": [-79.475567, 43.66958397]}, "type": "Feature", "id": 750296231491072000, "properties": {"loc": [-79.475567, 43.66958397], "centroid": [-79.4385469194607, 43.746314587303544], "screen_name": "_aishasheikh", "time": 1467737536.0, "tid": 750296231491072000, "text": "This is before slaughter.\n\nThey go through so much pain and suffering.\n\nThis is the inevitable\u2026 https://t.co/jov4CdnNbO", "created_at": "Tue Jul 05 11:52:16 +0000 2016", "klabel": 108}}, {"geometry": {"type": "Point", "coordinates": [-79.4705053, 43.6737871]}, "type": "Feature", "id": 750337454348001280, "properties": {"loc": [-79.4705053, 43.6737871], "centroid": [-79.4385469194607, 43.746314587303544], "screen_name": "tmj_gta_retail", "time": 1467747364.0, "tid": 750337454348001280, "text": "Want to work at TJX Canada? We're #hiring in #Toronto, ON! Click for details: https://t.co/oOgiNKGX52 #Retail #Job #Jobs #CareerArc", "created_at": "Tue Jul 05 14:36:04 +0000 2016", "klabel": 108}}, {"geometry": {"type": "Point", "coordinates": [-79.4681432, 43.6724864]}, "type": "Feature", "id": 750343512382517248, "properties": {"loc": [-79.4681432, 43.6724864], "centroid": [-79.4385469194607, 43.746314587303544], "screen_name": "VitapathCareers", "time": 1467748808.0, "tid": 750343512382517248, "text": "Want to work in #Toronto, ON? View our latest opening: https://t.co/lsMzeQDeUO #Retail #Job #Jobs #Hiring", "created_at": "Tue Jul 05 15:00:08 +0000 2016", "klabel": 108}}, {"geometry": {"type": "Point", "coordinates": [-79.4656036, 43.6653384]}, "type": "Feature", "id": 751228557658054657, "properties": {"loc": [-79.4656036, 43.6653384], "centroid": [-79.4385469194607, 43.746314587303544], "screen_name": "ruebot", "time": 1467959819.0, "tid": 751228557658054657, "text": "@cm_harlow @bibfart something something dodo birds.", "created_at": "Fri Jul 08 01:36:59 +0000 2016", "klabel": 108}}, {"geometry": {"type": "Point", "coordinates": [-79.47414415, 43.6656173]}, "type": "Feature", "id": 751237167977037824, "properties": {"loc": [-79.47414415, 43.6656173], "centroid": [-79.4385469194607, 43.746314587303544], "screen_name": "BIGsiscloset", "time": 1467961872.0, "tid": 751237167977037824, "text": "Alright, I'm taking bets now on how fast this dress is gonna sell out, LOL! \ud83d\ude02 @ Your Big\u2026 https://t.co/F9DmXy8Zf3", "created_at": "Fri Jul 08 02:11:12 +0000 2016", "klabel": 108}}, {"geometry": {"type": "Point", "coordinates": [-79.4655335, 43.6653388]}, "type": "Feature", "id": 751238821103144960, "properties": {"loc": [-79.4655335, 43.6653388], "centroid": [-79.4385469194607, 43.746314587303544], "screen_name": "ruebot", "time": 1467962266.0, "tid": 751238821103144960, "text": "@cm_harlow @bibfart there is a better future in that, than in libraries!", "created_at": "Fri Jul 08 02:17:46 +0000 2016", "klabel": 108}}, {"geometry": {"type": "Point", "coordinates": [-79.4655335, 43.6653388]}, "type": "Feature", "id": 751239596495740928, "properties": {"loc": [-79.4655335, 43.6653388], "centroid": [-79.4385469194607, 43.746314587303544], "screen_name": "ruebot", "time": 1467962451.0, "tid": 751239596495740928, "text": "@cm_harlow @bibfart https://t.co/5I4QY6Boy5", "created_at": "Fri Jul 08 02:20:51 +0000 2016", "klabel": 108}}, {"geometry": {"type": "Point", "coordinates": [-79.4681088, 43.66506176]}, "type": "Feature", "id": 751764830940528641, "properties": {"loc": [-79.4681088, 43.66506176], "centroid": [-79.4385469194607, 43.746314587303544], "screen_name": "mnandipies", "time": 1468087677.0, "tid": 751764830940528641, "text": "We are @junctionmarket today. We will be here until 1pm serving out our delicious\u2026 https://t.co/GA9IzcLbXj", "created_at": "Sat Jul 09 13:07:57 +0000 2016", "klabel": 108}}, {"geometry": {"type": "Point", "coordinates": [-79.466581, 43.6598467]}, "type": "Feature", "id": 751772035706003456, "properties": {"loc": [-79.466581, 43.6598467], "centroid": [-79.4385469194607, 43.746314587303544], "screen_name": "ruebot", "time": 1468089395.0, "tid": 751772035706003456, "text": "@edsu you coming to Toronto? \ud83d\ude03", "created_at": "Sat Jul 09 13:36:35 +0000 2016", "klabel": 108}}, {"geometry": {"type": "Point", "coordinates": [-79.47012246, 43.67388609]}, "type": "Feature", "id": 751777932918620161, "properties": {"loc": [-79.47012246, 43.67388609], "centroid": [-79.4385469194607, 43.746314587303544], "screen_name": "scrambledmegs17", "time": 1468090801.0, "tid": 751777932918620161, "text": "happy birthday Mas! miss you &amp; our rooftop sittin'\u2764\ufe0f @ The Stockyards https://t.co/mNofdcFix9", "created_at": "Sat Jul 09 14:00:01 +0000 2016", "klabel": 108}}, {"geometry": {"type": "Point", "coordinates": [-79.47414415, 43.6656173]}, "type": "Feature", "id": 751783269969068032, "properties": {"loc": [-79.47414415, 43.6656173], "centroid": [-79.4385469194607, 43.746314587303544], "screen_name": "BIGsiscloset", "time": 1468092073.0, "tid": 751783269969068032, "text": "What do you guys think about this one? \ud83d\ude04 @ Your Big Sister's Closet https://t.co/ZsOjHgWtIE", "created_at": "Sat Jul 09 14:21:13 +0000 2016", "klabel": 108}}, {"geometry": {"type": "Point", "coordinates": [-79.4681432, 43.6724864]}, "type": "Feature", "id": 751830715243728896, "properties": {"loc": [-79.4681432, 43.6724864], "centroid": [-79.4385469194607, 43.746314587303544], "screen_name": "tmj_gta_retail", "time": 1468103385.0, "tid": 751830715243728896, "text": "We're #hiring! Click to apply: Nutritionist - https://t.co/O2UX1MEe0R #Job #Retail #Toronto, ON #Jobs #CareerArc", "created_at": "Sat Jul 09 17:29:45 +0000 2016", "klabel": 108}}, {"geometry": {"type": "Point", "coordinates": [-79.46051953, 43.66981052]}, "type": "Feature", "id": 751832134420168704, "properties": {"loc": [-79.46051953, 43.66981052], "centroid": [-79.4385469194607, 43.746314587303544], "screen_name": "negarraakili", "time": 1468103723.0, "tid": 751832134420168704, "text": "I'm at Katzman Contemporary - @katzmancontemp in Toronto, Ontario https://t.co/trAfX0C7dm", "created_at": "Sat Jul 09 17:35:23 +0000 2016", "klabel": 108}}, {"geometry": {"type": "Point", "coordinates": [-79.4725023, 43.6739213]}, "type": "Feature", "id": 751832300963454976, "properties": {"loc": [-79.4725023, 43.6739213], "centroid": [-79.4385469194607, 43.746314587303544], "screen_name": "tpscalls", "time": 1468103763.0, "tid": 751832300963454976, "text": "Arrest | Keele St &amp; Gunns Rd [11 Div.] 07/09 13:30 #Stockyards_District #Toronto", "created_at": "Sat Jul 09 17:36:03 +0000 2016", "klabel": 108}}, {"geometry": {"type": "Point", "coordinates": [-79.47414415, 43.6656173]}, "type": "Feature", "id": 751850748674207744, "properties": {"loc": [-79.47414415, 43.6656173], "centroid": [-79.4385469194607, 43.746314587303544], "screen_name": "BIGsiscloset", "time": 1468108161.0, "tid": 751850748674207744, "text": "Kinda obsessed with this Maxi dress right now, not gonna lie \ud83d\ude04 @ Your Big Sister's Closet https://t.co/Wjfe8obspj", "created_at": "Sat Jul 09 18:49:21 +0000 2016", "klabel": 108}}, {"geometry": {"type": "Point", "coordinates": [-79.463888, 43.665455]}, "type": "Feature", "id": 751859692280942592, "properties": {"loc": [-79.463888, 43.665455], "centroid": [-79.4385469194607, 43.746314587303544], "screen_name": "Casey_ONeill", "time": 1468110294.0, "tid": 751859692280942592, "text": "Prints and originals showcased and available at Made By Madrigal. Open today till 6 and Sunday\u2026 https://t.co/JcYvNUCG0A", "created_at": "Sat Jul 09 19:24:54 +0000 2016", "klabel": 108}}, {"geometry": {"type": "Point", "coordinates": [-79.4730311, 43.6707537]}, "type": "Feature", "id": 751860329915650048, "properties": {"loc": [-79.4730311, 43.6707537], "centroid": [-79.4385469194607, 43.746314587303544], "screen_name": "tmj_gta_hrta", "time": 1468110446.0, "tid": 751860329915650048, "text": "See our latest #job and click to apply: Shift Supervisor (CA) - https://t.co/u9vfURwqzT #Hospitality #Veterans #Hiring #CareerArc", "created_at": "Sat Jul 09 19:27:26 +0000 2016", "klabel": 108}}, {"geometry": {"type": "Point", "coordinates": [-79.46472211, 43.66671734]}, "type": "Feature", "id": 751860838022123521, "properties": {"loc": [-79.46472211, 43.66671734], "centroid": [-79.4385469194607, 43.746314587303544], "screen_name": "jsquaredink", "time": 1468110567.0, "tid": 751860838022123521, "text": "Buddha Roll @rohouserolls #vietnamese #vietnamesefood #authentic #simple #fresh #delicious\u2026 https://t.co/lYjYTLmY4h", "created_at": "Sat Jul 09 19:29:27 +0000 2016", "klabel": 108}}, {"geometry": {"type": "Point", "coordinates": [-79.47414415, 43.6656173]}, "type": "Feature", "id": 751874720233033728, "properties": {"loc": [-79.47414415, 43.6656173], "centroid": [-79.4385469194607, 43.746314587303544], "screen_name": "BIGsiscloset", "time": 1468113877.0, "tid": 751874720233033728, "text": "I know a lot of you guys were really disappointed that you didn't get a chance to get this\u2026 https://t.co/GV2O9kgzMV", "created_at": "Sat Jul 09 20:24:37 +0000 2016", "klabel": 108}}, {"geometry": {"type": "Point", "coordinates": [-79.4665701, 43.6598734]}, "type": "Feature", "id": 751876050456424448, "properties": {"loc": [-79.4665701, 43.6598734], "centroid": [-79.4385469194607, 43.746314587303544], "screen_name": "ruebot", "time": 1468114194.0, "tid": 751876050456424448, "text": "@bibfart they make my brain hurt, and make me question my own sanity.", "created_at": "Sat Jul 09 20:29:54 +0000 2016", "klabel": 108}}, {"geometry": {"type": "Point", "coordinates": [-79.471128, 43.6718372]}, "type": "Feature", "id": 751892460238938113, "properties": {"loc": [-79.471128, 43.6718372], "centroid": [-79.4385469194607, 43.746314587303544], "screen_name": "tofireW", "time": 1468118106.0, "tid": 751892460238938113, "text": "Vehicle (Personal Injury) - St Clair Avenue West @ Gunns Road, Toronto (2 Trucks)", "created_at": "Sat Jul 09 21:35:06 +0000 2016", "klabel": 108}}, {"geometry": {"type": "Point", "coordinates": [-79.471128, 43.6718372]}, "type": "Feature", "id": 751892458917756928, "properties": {"loc": [-79.471128, 43.6718372], "centroid": [-79.4385469194607, 43.746314587303544], "screen_name": "tofire", "time": 1468118106.0, "tid": 751892458917756928, "text": "Vehicle (Personal Injury) - St Clair Avenue West @ Gunns Road, Toronto (2 Trucks)", "created_at": "Sat Jul 09 21:35:06 +0000 2016", "klabel": 108}}, {"geometry": {"type": "Point", "coordinates": [-79.4652283, 43.6575925]}, "type": "Feature", "id": 751899998984478720, "properties": {"loc": [-79.4652283, 43.6575925], "centroid": [-79.4385469194607, 43.746314587303544], "screen_name": "tofire", "time": 1468119904.0, "tid": 751899998984478720, "text": "Check Call - Glenlake Avenue b/w Pacific Avenue / High Park Avenue, Toronto (2 Trucks)", "created_at": "Sat Jul 09 22:05:04 +0000 2016", "klabel": 108}}, {"geometry": {"type": "Point", "coordinates": [-79.4652283, 43.6575925]}, "type": "Feature", "id": 751899999781449728, "properties": {"loc": [-79.4652283, 43.6575925], "centroid": [-79.4385469194607, 43.746314587303544], "screen_name": "tofireW", "time": 1468119904.0, "tid": 751899999781449728, "text": "Check Call - Glenlake Avenue b/w Pacific Avenue / High Park Avenue, Toronto (2 Trucks)", "created_at": "Sat Jul 09 22:05:04 +0000 2016", "klabel": 108}}, {"geometry": {"type": "Point", "coordinates": [-79.46888, 43.6657]}, "type": "Feature", "id": 751918117912207360, "properties": {"loc": [-79.46888, 43.6657], "centroid": [-79.4385469194607, 43.746314587303544], "screen_name": "itsAfeeling", "time": 1468124223.0, "tid": 751918117912207360, "text": "Summer toes and pretty floor times alpastor_ca \n\n#JunctjonTO #floorART #mexican #toronto\u2026 https://t.co/oFAedhFIId", "created_at": "Sat Jul 09 23:17:03 +0000 2016", "klabel": 108}}, {"geometry": {"type": "Point", "coordinates": [-79.46888, 43.6657]}, "type": "Feature", "id": 751919164898574336, "properties": {"loc": [-79.46888, 43.6657], "centroid": [-79.4385469194607, 43.746314587303544], "screen_name": "itsAfeeling", "time": 1468124473.0, "tid": 751919164898574336, "text": "Baby model for alpastor_ca LOL! @ Al Pastor Authentic Mexican Taqueria https://t.co/XztIaMSMwM", "created_at": "Sat Jul 09 23:21:13 +0000 2016", "klabel": 108}}, {"geometry": {"type": "Point", "coordinates": [-79.4651, 43.6654]}, "type": "Feature", "id": 751923362335719424, "properties": {"loc": [-79.4651, 43.6654], "centroid": [-79.4385469194607, 43.746314587303544], "screen_name": "sousedbergin", "time": 1468125474.0, "tid": 751923362335719424, "text": "Drinking a St-Ambroise Oatmeal Stout (Noire \u00e0 l\u2019avoine) by @bierestambroise at @holeinthewallto \u2014 https://t.co/ELdSMfLtvw #photo", "created_at": "Sat Jul 09 23:37:54 +0000 2016", "klabel": 108}}, {"geometry": {"type": "Point", "coordinates": [-79.4786, 43.6728]}, "type": "Feature", "id": 751923836891914240, "properties": {"loc": [-79.4786, 43.6728], "centroid": [-79.4385469194607, 43.746314587303544], "screen_name": "Unforseen", "time": 1468125587.0, "tid": 751923836891914240, "text": "Still love it - Drinking a Nosbeeratu by @RainhardBrewing at @rainhardbrewing  \u2014 https://t.co/nyaParXqpi #photo", "created_at": "Sat Jul 09 23:39:47 +0000 2016", "klabel": 108}}, {"geometry": {"type": "Point", "coordinates": [-79.4786, 43.6728]}, "type": "Feature", "id": 751923882819481600, "properties": {"loc": [-79.4786, 43.6728], "centroid": [-79.4385469194607, 43.746314587303544], "screen_name": "gardinerchris", "time": 1468125598.0, "tid": 751923882819481600, "text": "Rye to start, spicy finish - Drinking a Broggen Dreams at @rainhardbrewing - https://t.co/Mp4cjKZzrX #photo", "created_at": "Sat Jul 09 23:39:58 +0000 2016", "klabel": 108}}, {"geometry": {"type": "Point", "coordinates": [-79.4786, 43.6728]}, "type": "Feature", "id": 751924906414211072, "properties": {"loc": [-79.4786, 43.6728], "centroid": [-79.4385469194607, 43.746314587303544], "screen_name": "gardinerchris", "time": 1468125842.0, "tid": 751924906414211072, "text": "Big malty nose.  Bitterness drawn across the rich malt palate almost creami... (Nosbeeratu) https://t.co/gWIM5gfPp1 #photo", "created_at": "Sat Jul 09 23:44:02 +0000 2016", "klabel": 108}}, {"geometry": {"type": "Point", "coordinates": [-79.46532869, 43.65637113]}, "type": "Feature", "id": 751939247750389760, "properties": {"loc": [-79.46532869, 43.65637113], "centroid": [-79.4385469194607, 43.746314587303544], "screen_name": "coryleemusic", "time": 1468129261.0, "tid": 751939247750389760, "text": "Dark and stormy #416 @ High Park Village https://t.co/IWjmbn4rg5", "created_at": "Sun Jul 10 00:41:01 +0000 2016", "klabel": 108}}, {"geometry": {"type": "Point", "coordinates": [-79.46888, 43.6657]}, "type": "Feature", "id": 752010408341409792, "properties": {"loc": [-79.46888, 43.6657], "centroid": [-79.4385469194607, 43.746314587303544], "screen_name": "itsAfeeling", "time": 1468146227.0, "tid": 752010408341409792, "text": "4 for $10 Tacos al Pastor,\nPork shoulder marinated in achiote, garlic, onions, dry Mexican\u2026 https://t.co/ro4zgFyKSn", "created_at": "Sun Jul 10 05:23:47 +0000 2016", "klabel": 108}}, {"geometry": {"type": "Point", "coordinates": [-79.46888, 43.6657]}, "type": "Feature", "id": 752011636517511168, "properties": {"loc": [-79.46888, 43.6657], "centroid": [-79.4385469194607, 43.746314587303544], "screen_name": "itsAfeeling", "time": 1468146520.0, "tid": 752011636517511168, "text": "Tacos Campechanos\nBraised beef brisket cooked in its own juice with chorizo, bay leave, and\u2026 https://t.co/dNjwwMTNWb", "created_at": "Sun Jul 10 05:28:40 +0000 2016", "klabel": 108}}, {"geometry": {"type": "Point", "coordinates": [-79.47275, 43.6657]}, "type": "Feature", "id": 752012301243408384, "properties": {"loc": [-79.47275, 43.6657], "centroid": [-79.4385469194607, 43.746314587303544], "screen_name": "itsAfeeling", "time": 1468146678.0, "tid": 752012301243408384, "text": "Cute and Truth. beauandbumble #junctionTO #toronto #dress #store #loveTO #boutique @ The Beau &amp;\u2026 https://t.co/LZYnk6KYRf", "created_at": "Sun Jul 10 05:31:18 +0000 2016", "klabel": 108}}, {"geometry": {"type": "Point", "coordinates": [-79.4786, 43.6728]}, "type": "Feature", "id": 752117508799401984, "properties": {"loc": [-79.4786, 43.6728], "centroid": [-79.4385469194607, 43.746314587303544], "screen_name": "Unforseen", "time": 1468171762.0, "tid": 752117508799401984, "text": "Drinking a Broggen Dreams by @RainhardBrewing/@beausallnatural at @rainhardbrewing \u2014 https://t.co/iUrcndlEfH", "created_at": "Sun Jul 10 12:29:22 +0000 2016", "klabel": 108}}, {"geometry": {"type": "Point", "coordinates": [-79.47414415, 43.6656173]}, "type": "Feature", "id": 752132156143575040, "properties": {"loc": [-79.47414415, 43.6656173], "centroid": [-79.4385469194607, 43.746314587303544], "screen_name": "BIGsiscloset", "time": 1468175254.0, "tid": 752132156143575040, "text": "Am I allowed to have more than one favourite dress? \ud83d\ude04 @ Your Big Sister's Closet https://t.co/daadcOdGvl", "created_at": "Sun Jul 10 13:27:34 +0000 2016", "klabel": 108}}, {"geometry": {"type": "Point", "coordinates": [-79.4681432, 43.6724864]}, "type": "Feature", "id": 752155447193276419, "properties": {"loc": [-79.4681432, 43.6724864], "centroid": [-79.4385469194607, 43.746314587303544], "screen_name": "VitapathCareers", "time": 1468180807.0, "tid": 752155447193276419, "text": "Can you recommend anyone for this #job? https://t.co/lsMzeQDeUO #Retail #Toronto, ON #Hiring", "created_at": "Sun Jul 10 15:00:07 +0000 2016", "klabel": 108}}, {"geometry": {"type": "Point", "coordinates": [-79.459402, 43.6645994]}, "type": "Feature", "id": 752158089999052802, "properties": {"loc": [-79.459402, 43.6645994], "centroid": [-79.4385469194607, 43.746314587303544], "screen_name": "tmj_gta_itpm", "time": 1468181437.0, "tid": 752158089999052802, "text": "Can you recommend anyone for this #job? https://t.co/yPDC4BO9tE #ProjectMgmt #GreaterTorontoArea, ON #Hiring #CareerArc", "created_at": "Sun Jul 10 15:10:37 +0000 2016", "klabel": 108}}, {"geometry": {"type": "Point", "coordinates": [-79.463888, 43.665455]}, "type": "Feature", "id": 752190538707787776, "properties": {"loc": [-79.463888, 43.665455], "centroid": [-79.4385469194607, 43.746314587303544], "screen_name": "Casey_ONeill", "time": 1468189174.0, "tid": 752190538707787776, "text": "Crossing Flatiron, 2016\nAcrylic on Canvas\n30\"x40\"\n\nShowcased &amp; available at Made By Madrigal or\u2026 https://t.co/X0k4kg3btG", "created_at": "Sun Jul 10 17:19:34 +0000 2016", "klabel": 108}}, {"geometry": {"type": "Point", "coordinates": [-79.4647519, 43.6663567]}, "type": "Feature", "id": 752222792414851072, "properties": {"loc": [-79.4647519, 43.6663567], "centroid": [-79.4385469194607, 43.746314587303544], "screen_name": "Pharaoness", "time": 1468196863.0, "tid": 752222792414851072, "text": "This should come as no surprise but the York Observatory is a #Pokestop. Just saying \ud83d\ude09\ud83d\udd2d\u2026 https://t.co/LXZIlo5OLz", "created_at": "Sun Jul 10 19:27:43 +0000 2016", "klabel": 108}}, {"geometry": {"type": "Point", "coordinates": [-79.4681432, 43.6724864]}, "type": "Feature", "id": 752225003559456769, "properties": {"loc": [-79.4681432, 43.6724864], "centroid": [-79.4385469194607, 43.746314587303544], "screen_name": "tmj_gta_retail", "time": 1468197391.0, "tid": 752225003559456769, "text": "Join the Vitapath team! See our latest #job opening here: https://t.co/J98MlgkjZ0 #Retail #Toronto, ON #Hiring #CareerArc", "created_at": "Sun Jul 10 19:36:31 +0000 2016", "klabel": 108}}, {"geometry": {"type": "Point", "coordinates": [-79.47245, 43.66575]}, "type": "Feature", "id": 752226254229794819, "properties": {"loc": [-79.47245, 43.66575], "centroid": [-79.4385469194607, 43.746314587303544], "screen_name": "daniellagold18", "time": 1468197689.0, "tid": 752226254229794819, "text": "Healthy and delicious lunch @GrasshopperRest on Dundas. #happysunday\ud83d\ude0e #thejunction #toronto @\u2026 https://t.co/pmyRPfOto8", "created_at": "Sun Jul 10 19:41:29 +0000 2016", "klabel": 108}}, {"geometry": {"type": "Point", "coordinates": [-79.4681432, 43.6724864]}, "type": "Feature", "id": 752248094897557504, "properties": {"loc": [-79.4681432, 43.6724864], "centroid": [-79.4385469194607, 43.746314587303544], "screen_name": "tmj_gta_retail", "time": 1468202896.0, "tid": 752248094897557504, "text": "Can you recommend anyone for this #job? https://t.co/rrP2sYQsWZ #Retail #Toronto, ON #Hiring #CareerArc", "created_at": "Sun Jul 10 21:08:16 +0000 2016", "klabel": 108}}, {"geometry": {"type": "Point", "coordinates": [-79.47414415, 43.6656173]}, "type": "Feature", "id": 752249068257218560, "properties": {"loc": [-79.47414415, 43.6656173], "centroid": [-79.4385469194607, 43.746314587303544], "screen_name": "BIGsiscloset", "time": 1468203128.0, "tid": 752249068257218560, "text": "Just me, doing my thing in my happy dress \ud83d\ude04 @ Your Big Sister's Closet https://t.co/ZltvwOhejp", "created_at": "Sun Jul 10 21:12:08 +0000 2016", "klabel": 108}}, {"geometry": {"type": "Point", "coordinates": [-79.4629474, 43.673226]}, "type": "Feature", "id": 752254331907350528, "properties": {"loc": [-79.4629474, 43.673226], "centroid": [-79.4385469194607, 43.746314587303544], "screen_name": "tpscalls", "time": 1468204383.0, "tid": 752254331907350528, "text": "See Ambulance | Old Weston Rd &amp; C N R / C P R [11 Div.] 07/10 17:28 #Toronto", "created_at": "Sun Jul 10 21:33:03 +0000 2016", "klabel": 108}}, {"geometry": {"type": "Point", "coordinates": [-79.466585, 43.6598397]}, "type": "Feature", "id": 752254425041809408, "properties": {"loc": [-79.466585, 43.6598397], "centroid": [-79.4385469194607, 43.746314587303544], "screen_name": "ruebot", "time": 1468204405.0, "tid": 752254425041809408, "text": "Toronto is going to erupt.", "created_at": "Sun Jul 10 21:33:25 +0000 2016", "klabel": 108}}, {"geometry": {"type": "Point", "coordinates": [-79.47749, 43.66861]}, "type": "Feature", "id": 752254497766989824, "properties": {"loc": [-79.47749, 43.66861], "centroid": [-79.4385469194607, 43.746314587303544], "screen_name": "fiche23", "time": 1468204423.0, "tid": 752254497766989824, "text": "Perfect @ George Bell Arena https://t.co/PvmMP5Ln1i", "created_at": "Sun Jul 10 21:33:43 +0000 2016", "klabel": 108}}, {"geometry": {"type": "Point", "coordinates": [-79.467496, 43.672439]}, "type": "Feature", "id": 752275604368527360, "properties": {"loc": [-79.467496, 43.672439], "centroid": [-79.4385469194607, 43.746314587303544], "screen_name": "lotsofolives", "time": 1468209455.0, "tid": 752275604368527360, "text": "Every #Portuguese person in the greatest city in the world #Toronto celebrating the amazing\u2026 https://t.co/O1BOT4pagY", "created_at": "Sun Jul 10 22:57:35 +0000 2016", "klabel": 108}}, {"geometry": {"type": "Point", "coordinates": [-79.47062, 43.67221]}, "type": "Feature", "id": 752276455351025664, "properties": {"loc": [-79.47062, 43.67221], "centroid": [-79.4385469194607, 43.746314587303544], "screen_name": "fiche23", "time": 1468209658.0, "tid": 752276455351025664, "text": "St. Clair celebration @ Shoeless Joe's Stockyards - Toronto https://t.co/BgiHFDR1Aq", "created_at": "Sun Jul 10 23:00:58 +0000 2016", "klabel": 108}}, {"geometry": {"type": "Point", "coordinates": [-79.45852329, 43.67462948]}, "type": "Feature", "id": 752280337917546497, "properties": {"loc": [-79.45852329, 43.67462948], "centroid": [-79.4385469194607, 43.746314587303544], "screen_name": "shvxvxo_", "time": 1468210583.0, "tid": 752280337917546497, "text": "Proud porkchop over here \ud83c\uddf5\ud83c\uddf9 @ Saint Clair Ave West https://t.co/2C8WO3blS1", "created_at": "Sun Jul 10 23:16:23 +0000 2016", "klabel": 108}}, {"geometry": {"type": "Point", "coordinates": [-79.467496, 43.672439]}, "type": "Feature", "id": 752281553615466496, "properties": {"loc": [-79.467496, 43.672439], "centroid": [-79.4385469194607, 43.746314587303544], "screen_name": "lotsofolives", "time": 1468210873.0, "tid": 752281553615466496, "text": "#crazy #party celebrating the #Portugal Win #Euro2016 in  #Toronto @ St Clair Toronto https://t.co/NdQSs5e8Ts", "created_at": "Sun Jul 10 23:21:13 +0000 2016", "klabel": 108}}, {"geometry": {"type": "Point", "coordinates": [-79.46956, 43.67515]}, "type": "Feature", "id": 752292961145069568, "properties": {"loc": [-79.46956, 43.67515], "centroid": [-79.4385469194607, 43.746314587303544], "screen_name": "travelculturebr", "time": 1468213593.0, "tid": 752292961145069568, "text": "Sunday. \ud83d\ude1c\ud83d\ude1c\ud83d\ude1c\ud83d\ude1c\u2026 https://t.co/dAlkmbT1r7", "created_at": "Mon Jul 11 00:06:33 +0000 2016", "klabel": 108}}, {"geometry": {"type": "Point", "coordinates": [-79.45852329, 43.67462948]}, "type": "Feature", "id": 752295971430727680, "properties": {"loc": [-79.45852329, 43.67462948], "centroid": [-79.4385469194607, 43.746314587303544], "screen_name": "Iamdannystone", "time": 1468214311.0, "tid": 752295971430727680, "text": "You're never too old to dance and love life. Se this older couple dancing in the street at Salsa\u2026 https://t.co/MwIM5zp8zx", "created_at": "Mon Jul 11 00:18:31 +0000 2016", "klabel": 108}}, {"geometry": {"type": "Point", "coordinates": [-79.45852329, 43.67462948]}, "type": "Feature", "id": 752335050709069824, "properties": {"loc": [-79.45852329, 43.67462948], "centroid": [-79.4385469194607, 43.746314587303544], "screen_name": "RudySkandal", "time": 1468223628.0, "tid": 752335050709069824, "text": "I couldnt beat them (neither could France) ...so I joined them, skeptical at first, but seeing\u2026 https://t.co/QgaBDjuyG8", "created_at": "Mon Jul 11 02:53:48 +0000 2016", "klabel": 108}}, {"geometry": {"type": "Point", "coordinates": [-79.47414415, 43.6656173]}, "type": "Feature", "id": 752479236418596864, "properties": {"loc": [-79.47414415, 43.6656173], "centroid": [-79.4385469194607, 43.746314587303544], "screen_name": "BIGsiscloset", "time": 1468258005.0, "tid": 752479236418596864, "text": "Happy Monday guys... lol, yeah right! \ud83d\ude04 This is my happy dress, cause you can't possibly be\u2026 https://t.co/Pn7GMNu9xE", "created_at": "Mon Jul 11 12:26:45 +0000 2016", "klabel": 108}}, {"geometry": {"type": "Point", "coordinates": [-79.4681432, 43.6724864]}, "type": "Feature", "id": 752490479049068544, "properties": {"loc": [-79.4681432, 43.6724864], "centroid": [-79.4385469194607, 43.746314587303544], "screen_name": "tmj_gta_retail", "time": 1468260685.0, "tid": 752490479049068544, "text": "Interested in a #job near #Toronto, ON? This could be a great fit: https://t.co/nVa2oqPA5C #Retail #Hiring #CareerArc", "created_at": "Mon Jul 11 13:11:25 +0000 2016", "klabel": 108}}, {"geometry": {"type": "Point", "coordinates": [-79.467496, 43.672439]}, "type": "Feature", "id": 752505933834706944, "properties": {"loc": [-79.467496, 43.672439], "centroid": [-79.4385469194607, 43.746314587303544], "screen_name": "dreiyyyea", "time": 1468264370.0, "tid": 752505933834706944, "text": "We painted it red and green last night \ud83d\udc9d @ St Clair Toronto https://t.co/v2itxporiT", "created_at": "Mon Jul 11 14:12:50 +0000 2016", "klabel": 108}}, {"geometry": {"type": "Point", "coordinates": [-79.4730311, 43.6707537]}, "type": "Feature", "id": 752517609698971648, "properties": {"loc": [-79.4730311, 43.6707537], "centroid": [-79.4385469194607, 43.746314587303544], "screen_name": "tmj_gta_hrta", "time": 1468267153.0, "tid": 752517609698971648, "text": "Interested in a #job near ? This could be a great fit: https://t.co/JM1DucnxcD #Hospitality #Veterans #Hiring #CareerArc", "created_at": "Mon Jul 11 14:59:13 +0000 2016", "klabel": 108}}, {"geometry": {"type": "Point", "coordinates": [-79.4700381, 43.6575451]}, "type": "Feature", "id": 752543486730178560, "properties": {"loc": [-79.4700381, 43.6575451], "centroid": [-79.4385469194607, 43.746314587303544], "screen_name": "tpscalls", "time": 1468273323.0, "tid": 752543486730178560, "text": "Dispute | Ln N Glenlake W Quebec &amp; Pine Crest Rd [11 Div.] 07/11 12:36 #High_Park-Swansea #Toronto", "created_at": "Mon Jul 11 16:42:03 +0000 2016", "klabel": 108}}, {"geometry": {"type": "Point", "coordinates": [-79.4603092, 43.6695434]}, "type": "Feature", "id": 752641634655961088, "properties": {"loc": [-79.4603092, 43.6695434], "centroid": [-79.4385469194607, 43.746314587303544], "screen_name": "tpscalls", "time": 1468296723.0, "tid": 752641634655961088, "text": "Robbery | Osler St &amp; Miller St [11 Div.] 07/11 19:06 #Carleton_Village #Toronto", "created_at": "Mon Jul 11 23:12:03 +0000 2016", "klabel": 108}}, {"geometry": {"type": "Point", "coordinates": [-79.47012246, 43.67388609]}, "type": "Feature", "id": 752680956956405760, "properties": {"loc": [-79.47012246, 43.67388609], "centroid": [-79.4385469194607, 43.746314587303544], "screen_name": "MONSTERabi", "time": 1468306098.0, "tid": 752680956956405760, "text": "Cheap hacks of the day! @ The Stockyards https://t.co/BGahXu1qvq", "created_at": "Tue Jul 12 01:48:18 +0000 2016", "klabel": 108}}, {"geometry": {"type": "Point", "coordinates": [-79.4652283, 43.6575925]}, "type": "Feature", "id": 752788349199519744, "properties": {"loc": [-79.4652283, 43.6575925], "centroid": [-79.4385469194607, 43.746314587303544], "screen_name": "tpscalls", "time": 1468331703.0, "tid": 752788349199519744, "text": "Animal Comp | Bloor St W &amp; Glenlake Ave [11 Div.] 07/12 04:50 #Old_Toronto", "created_at": "Tue Jul 12 08:55:03 +0000 2016", "klabel": 108}}, {"geometry": {"type": "Point", "coordinates": [-79.47414415, 43.6656173]}, "type": "Feature", "id": 752860568315396096, "properties": {"loc": [-79.47414415, 43.6656173], "centroid": [-79.4385469194607, 43.746314587303544], "screen_name": "BIGsiscloset", "time": 1468348921.0, "tid": 752860568315396096, "text": "Super comfy fit and flare dress anyone? \ud83d\ude09 This adorable dress is available online as well as in\u2026 https://t.co/bELGc4sI7x", "created_at": "Tue Jul 12 13:42:01 +0000 2016", "klabel": 108}}, {"geometry": {"type": "Point", "coordinates": [-79.47012246, 43.67388609]}, "type": "Feature", "id": 752917583557304320, "properties": {"loc": [-79.47012246, 43.67388609], "centroid": [-79.4385469194607, 43.746314587303544], "screen_name": "omarlo_aguiba", "time": 1468362515.0, "tid": 752917583557304320, "text": "3000 kms Away #Tampico enjoying summer time #gaelidolo #princessdanae #Toronto\u2026 https://t.co/eIXyuWT3xX", "created_at": "Tue Jul 12 17:28:35 +0000 2016", "klabel": 108}}, {"geometry": {"type": "Point", "coordinates": [-79.47414415, 43.6656173]}, "type": "Feature", "id": 752930738979340288, "properties": {"loc": [-79.47414415, 43.6656173], "centroid": [-79.4385469194607, 43.746314587303544], "screen_name": "BIGsiscloset", "time": 1468365651.0, "tid": 752930738979340288, "text": "So... Yeah! This is available in store and online in 1X-3X for $70 Canadian (about $54 American)\u2026 https://t.co/3jNVwXGUj8", "created_at": "Tue Jul 12 18:20:51 +0000 2016", "klabel": 108}}, {"geometry": {"type": "Point", "coordinates": [-79.47414415, 43.6656173]}, "type": "Feature", "id": 753007199035723776, "properties": {"loc": [-79.47414415, 43.6656173], "centroid": [-79.4385469194607, 43.746314587303544], "screen_name": "BIGsiscloset", "time": 1468383881.0, "tid": 753007199035723776, "text": "Happy dress time!!! \ud83d\ude04\ud83d\ude04\ud83d\ude04 This pretty little number and *MANY* other pieces are now available\u2026 https://t.co/reF0L7Cigp", "created_at": "Tue Jul 12 23:24:41 +0000 2016", "klabel": 108}}, {"geometry": {"type": "Point", "coordinates": [-79.4587764, 43.6686108]}, "type": "Feature", "id": 753019126600310785, "properties": {"loc": [-79.4587764, 43.6686108], "centroid": [-79.4385469194607, 43.746314587303544], "screen_name": "tpscalls", "time": 1468386724.0, "tid": 753019126600310785, "text": "Person With A Knife | Osler St &amp; Osler St [11 Div.] 07/12 20:08 #Old_Toronto", "created_at": "Wed Jul 13 00:12:04 +0000 2016", "klabel": 108}}, {"geometry": {"type": "Point", "coordinates": [-79.4652283, 43.6575925]}, "type": "Feature", "id": 753062158066483200, "properties": {"loc": [-79.4652283, 43.6575925], "centroid": [-79.4385469194607, 43.746314587303544], "screen_name": "tpscalls", "time": 1468396984.0, "tid": 753062158066483200, "text": "Animal Comp | Bloor St W &amp; Glenlake Ave [11 Div.] 07/12 22:59 #Old_Toronto", "created_at": "Wed Jul 13 03:03:04 +0000 2016", "klabel": 108}}, {"geometry": {"type": "Point", "coordinates": [-79.4665601, 43.6598998]}, "type": "Feature", "id": 753195789946531840, "properties": {"loc": [-79.4665601, 43.6598998], "centroid": [-79.4385469194607, 43.746314587303544], "screen_name": "ruebot", "time": 1468428844.0, "tid": 753195789946531840, "text": "@bibfart YUP", "created_at": "Wed Jul 13 11:54:04 +0000 2016", "klabel": 108}}, {"geometry": {"type": "Point", "coordinates": [-79.4737504, 43.658493]}, "type": "Feature", "id": 753274307254550528, "properties": {"loc": [-79.4737504, 43.658493], "centroid": [-79.4385469194607, 43.746314587303544], "screen_name": "tofireW", "time": 1468447564.0, "tid": 753274307254550528, "text": "Hazmat Level 1 - Evelyn Crescent @ Evelyn Avenue, Toronto (2 Trucks)", "created_at": "Wed Jul 13 17:06:04 +0000 2016", "klabel": 108}}, {"geometry": {"type": "Point", "coordinates": [-79.4737504, 43.658493]}, "type": "Feature", "id": 753275307298357248, "properties": {"loc": [-79.4737504, 43.658493], "centroid": [-79.4385469194607, 43.746314587303544], "screen_name": "tpscalls", "time": 1468447803.0, "tid": 753275307298357248, "text": "Hazard | Evelyn Ave &amp; Evelyn Cres [11 Div.] 07/13 13:04 #High_Park_North #Toronto", "created_at": "Wed Jul 13 17:10:03 +0000 2016", "klabel": 108}}, {"geometry": {"type": "Point", "coordinates": [-79.46605229, 43.66534986]}, "type": "Feature", "id": 753279032293257216, "properties": {"loc": [-79.46605229, 43.66534986], "centroid": [-79.4385469194607, 43.746314587303544], "screen_name": "cutthecheeseTO", "time": 1468448691.0, "tid": 753279032293257216, "text": "Just found out that today is #nationalfrenchfryday so come on by for our hand cut #fries and hit\u2026 https://t.co/nRkBpPDSgO", "created_at": "Wed Jul 13 17:24:51 +0000 2016", "klabel": 108}}, {"geometry": {"type": "Point", "coordinates": [-79.4665092, 43.6700407]}, "type": "Feature", "id": 753315823410941952, "properties": {"loc": [-79.4665092, 43.6700407], "centroid": [-79.4385469194607, 43.746314587303544], "screen_name": "tpscalls", "time": 1468457462.0, "tid": 753315823410941952, "text": "Fail To Remain Property Damage Collision | Keele St &amp; West Toronto St [HP] 07/13 15:45 #The_Junction #Toronto", "created_at": "Wed Jul 13 19:51:02 +0000 2016", "klabel": 108}}, {"geometry": {"type": "Point", "coordinates": [-79.4665092, 43.6700407]}, "type": "Feature", "id": 753318343768244224, "properties": {"loc": [-79.4665092, 43.6700407], "centroid": [-79.4385469194607, 43.746314587303544], "screen_name": "tpscalls", "time": 1468458063.0, "tid": 753318343768244224, "text": "Fail To Remain Property Damage Collision | Keele St &amp; West Toronto St [11 Div.] 07/13 15:55 #The_Junction #Toronto", "created_at": "Wed Jul 13 20:01:03 +0000 2016", "klabel": 108}}, {"geometry": {"type": "Point", "coordinates": [-79.478716, 43.6644123]}, "type": "Feature", "id": 753337737378459648, "properties": {"loc": [-79.478716, 43.6644123], "centroid": [-79.4385469194607, 43.746314587303544], "screen_name": "tpscalls", "time": 1468462687.0, "tid": 753337737378459648, "text": "Unknown Trouble | St John\\'S Pl &amp; Gilmour Ave [11 Div.] 07/13 17:13 #The_Junction #Toronto", "created_at": "Wed Jul 13 21:18:07 +0000 2016", "klabel": 108}}, {"geometry": {"type": "Point", "coordinates": [-79.47414415, 43.6656173]}, "type": "Feature", "id": 753353800396705792, "properties": {"loc": [-79.47414415, 43.6656173], "centroid": [-79.4385469194607, 43.746314587303544], "screen_name": "BIGsiscloset", "time": 1468466517.0, "tid": 753353800396705792, "text": "Anyone recognize our special guest 3X model on the right? \ud83d\ude04 @ Your Big Sister's Closet https://t.co/SRSSUFSUZx", "created_at": "Wed Jul 13 22:21:57 +0000 2016", "klabel": 108}}, {"geometry": {"type": "Point", "coordinates": [-79.46947838, 43.67137794]}, "type": "Feature", "id": 753355879173459968, "properties": {"loc": [-79.46947838, 43.67137794], "centroid": [-79.4385469194607, 43.746314587303544], "screen_name": "mike_pls", "time": 1468467012.0, "tid": 753355879173459968, "text": "I'm at The @HomeDepot in Toronto, ON https://t.co/6ecdlMAfjw", "created_at": "Wed Jul 13 22:30:12 +0000 2016", "klabel": 108}}, {"geometry": {"type": "Point", "coordinates": [-79.47414415, 43.6656173]}, "type": "Feature", "id": 753370307562500096, "properties": {"loc": [-79.47414415, 43.6656173], "centroid": [-79.4385469194607, 43.746314587303544], "screen_name": "BIGsiscloset", "time": 1468470452.0, "tid": 753370307562500096, "text": "Oh... My... God... @ Your Big Sister's Closet https://t.co/CwEJ0tNI5i", "created_at": "Wed Jul 13 23:27:32 +0000 2016", "klabel": 108}}, {"geometry": {"type": "Point", "coordinates": [-79.46626, 43.66529]}, "type": "Feature", "id": 753379429074608128, "properties": {"loc": [-79.46626, 43.66529], "centroid": [-79.4385469194607, 43.746314587303544], "screen_name": "misskimrosita", "time": 1468472627.0, "tid": 753379429074608128, "text": "Waiting to do sound check so l'm hanging with my band members. #jazzlife #the6 #music #love\u2026 https://t.co/SaceLTuEPJ", "created_at": "Thu Jul 14 00:03:47 +0000 2016", "klabel": 108}}, {"geometry": {"type": "Point", "coordinates": [-79.47414415, 43.6656173]}, "type": "Feature", "id": 753394859348811777, "properties": {"loc": [-79.47414415, 43.6656173], "centroid": [-79.4385469194607, 43.746314587303544], "screen_name": "BIGsiscloset", "time": 1468476306.0, "tid": 753394859348811777, "text": "Cape dress anyone? \ud83d\ude09 @ Your Big Sister's Closet https://t.co/j2lSEKnAvg", "created_at": "Thu Jul 14 01:05:06 +0000 2016", "klabel": 108}}, {"geometry": {"type": "Point", "coordinates": [-79.46955829, 43.66680368]}, "type": "Feature", "id": 753546852813803520, "properties": {"loc": [-79.46955829, 43.66680368], "centroid": [-79.4385469194607, 43.746314587303544], "screen_name": "WestTOCrossFit", "time": 1468512544.0, "tid": 753546852813803520, "text": "I'll buy more chalk when people start respecting the gym. Clean up after yourselves. That goes\u2026 https://t.co/q4QTw5jvtA", "created_at": "Thu Jul 14 11:09:04 +0000 2016", "klabel": 108}}, {"geometry": {"type": "Point", "coordinates": [-79.4711941, 43.6597933]}, "type": "Feature", "id": 753574281049759744, "properties": {"loc": [-79.4711941, 43.6597933], "centroid": [-79.4385469194607, 43.746314587303544], "screen_name": "tpscalls", "time": 1468519083.0, "tid": 753574281049759744, "text": "Wires Down | Quebec Ave &amp; Clendenan Ave [11 Div.] 07/14 08:53 #Toronto", "created_at": "Thu Jul 14 12:58:03 +0000 2016", "klabel": 108}}, {"geometry": {"type": "Point", "coordinates": [-79.47414415, 43.6656173]}, "type": "Feature", "id": 753618879994294274, "properties": {"loc": [-79.47414415, 43.6656173], "centroid": [-79.4385469194607, 43.746314587303544], "screen_name": "BIGsiscloset", "time": 1468529717.0, "tid": 753618879994294274, "text": "\ud83d\ude0d\ud83d\ude0d\ud83d\ude0d @ Your Big Sister's Closet https://t.co/xeNTDSlNMU", "created_at": "Thu Jul 14 15:55:17 +0000 2016", "klabel": 108}}, {"geometry": {"type": "Point", "coordinates": [-79.4718833, 43.6653464]}, "type": "Feature", "id": 753627461611511808, "properties": {"loc": [-79.4718833, 43.6653464], "centroid": [-79.4385469194607, 43.746314587303544], "screen_name": "tmj_gta_hrta", "time": 1468531763.0, "tid": 753627461611511808, "text": "Interested in a #job near ? This could be a great fit: https://t.co/8jgDLT48v6 #Hospitality #Veterans #Hiring #CareerArc", "created_at": "Thu Jul 14 16:29:23 +0000 2016", "klabel": 108}}, {"geometry": {"type": "Point", "coordinates": [-79.4665133, 43.6597312]}, "type": "Feature", "id": 753627536744034304, "properties": {"loc": [-79.4665133, 43.6597312], "centroid": [-79.4385469194607, 43.746314587303544], "screen_name": "ruebot", "time": 1468531781.0, "tid": 753627536744034304, "text": "@vphill deduped 7 million?", "created_at": "Thu Jul 14 16:29:41 +0000 2016", "klabel": 108}}, {"geometry": {"type": "Point", "coordinates": [-79.4665387, 43.6597207]}, "type": "Feature", "id": 753627905557618688, "properties": {"loc": [-79.4665387, 43.6597207], "centroid": [-79.4385469194607, 43.746314587303544], "screen_name": "ruebot", "time": 1468531869.0, "tid": 753627905557618688, "text": "@kayiwa I usually start with it; README driven development \ud83d\ude03", "created_at": "Thu Jul 14 16:31:09 +0000 2016", "klabel": 108}}, {"geometry": {"type": "Point", "coordinates": [-79.4689099, 43.67561]}, "type": "Feature", "id": 753644165947424768, "properties": {"loc": [-79.4689099, 43.67561], "centroid": [-79.4385469194607, 43.746314587303544], "screen_name": "Distractional_", "time": 1468535745.0, "tid": 753644165947424768, "text": "Senseless Teaser - Stay tuned to https://t.co/5QJpymVaZX \n\nDJ SHEN - Mixclusive Host\u2026 https://t.co/HV4fyYuND2", "created_at": "Thu Jul 14 17:35:45 +0000 2016", "klabel": 108}}, {"geometry": {"type": "Point", "coordinates": [-79.46656, 43.6598609]}, "type": "Feature", "id": 753695535471570944, "properties": {"loc": [-79.46656, 43.6598609], "centroid": [-79.4385469194607, 43.746314587303544], "screen_name": "ruebot", "time": 1468547993.0, "tid": 753695535471570944, "text": "@carmendarlene oh, I know my next stage costume!", "created_at": "Thu Jul 14 20:59:53 +0000 2016", "klabel": 108}}, {"geometry": {"type": "Point", "coordinates": [-79.46623004, 43.65902397]}, "type": "Feature", "id": 753708292119990272, "properties": {"loc": [-79.46623004, 43.65902397], "centroid": [-79.4385469194607, 43.746314587303544], "screen_name": "ruebot", "time": 1468551034.0, "tid": 753708292119990272, "text": "@daskey \n\nNOPE\n\nNOPE\n\nNOPE", "created_at": "Thu Jul 14 21:50:34 +0000 2016", "klabel": 108}}, {"geometry": {"type": "Point", "coordinates": [-79.4669073, 43.65979958]}, "type": "Feature", "id": 753745953077637122, "properties": {"loc": [-79.4669073, 43.65979958], "centroid": [-79.4385469194607, 43.746314587303544], "screen_name": "ruebot", "time": 1468560013.0, "tid": 753745953077637122, "text": "@manjusrii no smoking on campus, but guns are totally cool!", "created_at": "Fri Jul 15 00:20:13 +0000 2016", "klabel": 108}}, {"geometry": {"type": "Point", "coordinates": [-79.47414415, 43.6656173]}, "type": "Feature", "id": 753766556686057472, "properties": {"loc": [-79.47414415, 43.6656173], "centroid": [-79.4385469194607, 43.746314587303544], "screen_name": "BIGsiscloset", "time": 1468564926.0, "tid": 753766556686057472, "text": "It's romper time!!! \ud83d\ude06\ud83d\ude06\ud83d\ude06 Kaity (on the left and is about 5\"3) is wearing the 1X, Tess (in the\u2026 https://t.co/ltZjh9JOku", "created_at": "Fri Jul 15 01:42:06 +0000 2016", "klabel": 108}}, {"geometry": {"type": "Point", "coordinates": [-79.4638791, 43.6765506]}, "type": "Feature", "id": 753817883994488832, "properties": {"loc": [-79.4638791, 43.6765506], "centroid": [-79.4385469194607, 43.746314587303544], "screen_name": "tpscalls", "time": 1468577163.0, "tid": 753817883994488832, "text": "Personal Injury Collision | Old Weston Rd &amp; Rockwell Ave [HP] 07/15 01:00 #Old_Toronto", "created_at": "Fri Jul 15 05:06:03 +0000 2016", "klabel": 108}}, {"geometry": {"type": "Point", "coordinates": [-79.46903, 43.66575]}, "type": "Feature", "id": 753932787619508225, "properties": {"loc": [-79.46903, 43.66575], "centroid": [-79.4385469194607, 43.746314587303544], "screen_name": "LaVizziata", "time": 1468604558.0, "tid": 753932787619508225, "text": "OPEN ALL WEEK!! Official Summer Hours: sun thru thurs-12noon to 10pm fri&amp;sat 12noon to 11pm\u2026 https://t.co/vRuxAUw669", "created_at": "Fri Jul 15 12:42:38 +0000 2016", "klabel": 108}}, {"geometry": {"type": "Point", "coordinates": [-79.46955829, 43.66680368]}, "type": "Feature", "id": 753934833047306240, "properties": {"loc": [-79.46955829, 43.66680368], "centroid": [-79.4385469194607, 43.746314587303544], "screen_name": "WestTOCrossFit", "time": 1468605046.0, "tid": 753934833047306240, "text": "Carolyn getting work done solo this morning. #CrossFit #strongWoman #fitness #powerLifting\u2026 https://t.co/PvoDXCZnXH", "created_at": "Fri Jul 15 12:50:46 +0000 2016", "klabel": 108}}, {"geometry": {"type": "Point", "coordinates": [-79.47414415, 43.6656173]}, "type": "Feature", "id": 753947997176758272, "properties": {"loc": [-79.47414415, 43.6656173], "centroid": [-79.4385469194607, 43.746314587303544], "screen_name": "BIGsiscloset", "time": 1468608184.0, "tid": 753947997176758272, "text": "The most versatile dress you\u2019ll have in your wardrobe, a definite staple to have! \ud83d\udc4d It features\u2026 https://t.co/exijMMTNYK", "created_at": "Fri Jul 15 13:43:04 +0000 2016", "klabel": 108}}, {"geometry": {"type": "Point", "coordinates": [-79.4673112, 43.6666338]}, "type": "Feature", "id": 753954537229127680, "properties": {"loc": [-79.4673112, 43.6666338], "centroid": [-79.4385469194607, 43.746314587303544], "screen_name": "tpscalls", "time": 1468609744.0, "tid": 753954537229127680, "text": "Theft Just Occurred | Jackson Pl &amp; Vine Ave [11 Div.] 07/15 10:04 #The_Junction #Toronto", "created_at": "Fri Jul 15 14:09:04 +0000 2016", "klabel": 108}}, {"geometry": {"type": "Point", "coordinates": [-79.47414415, 43.6656173]}, "type": "Feature", "id": 753965413483053056, "properties": {"loc": [-79.47414415, 43.6656173], "centroid": [-79.4385469194607, 43.746314587303544], "screen_name": "BIGsiscloset", "time": 1468612337.0, "tid": 753965413483053056, "text": "Are you guys seeing this dress right now???!!! \ud83d\ude4c\ud83d\ude4c\ud83d\ude4c Kaity (on the left and is about 5\"3) is\u2026 https://t.co/jrFOEPIGCW", "created_at": "Fri Jul 15 14:52:17 +0000 2016", "klabel": 108}}, {"geometry": {"type": "Point", "coordinates": [-79.4681432, 43.6724864]}, "type": "Feature", "id": 753967387993526272, "properties": {"loc": [-79.4681432, 43.6724864], "centroid": [-79.4385469194607, 43.746314587303544], "screen_name": "VitapathCareers", "time": 1468612807.0, "tid": 753967387993526272, "text": "Join the Vitapath team! See our latest #job opening here: https://t.co/lsMzeQDeUO #Retail #Toronto, ON #Hiring", "created_at": "Fri Jul 15 15:00:07 +0000 2016", "klabel": 108}}, {"geometry": {"type": "Point", "coordinates": [-79.4692, 43.667]}, "type": "Feature", "id": 753988233675931649, "properties": {"loc": [-79.4692, 43.667], "centroid": [-79.4385469194607, 43.746314587303544], "screen_name": "LaurenMariaS", "time": 1468617777.0, "tid": 753988233675931649, "text": "Ask and you shall receive... Thanks uber_toronto for the FREE ice cream!! #ubericecream Why did\u2026 https://t.co/MvbUd91GqB", "created_at": "Fri Jul 15 16:22:57 +0000 2016", "klabel": 108}}, {"geometry": {"type": "Point", "coordinates": [-79.46955829, 43.66680368]}, "type": "Feature", "id": 753988927397044224, "properties": {"loc": [-79.46955829, 43.66680368], "centroid": [-79.4385469194607, 43.746314587303544], "screen_name": "WestTOCrossFit", "time": 1468617943.0, "tid": 753988927397044224, "text": "10am getting it done. #CrossFit #Strongman #StrongWomen #fitness #junctionTO #JunctionTOfitness\u2026 https://t.co/mIKrTGoaog", "created_at": "Fri Jul 15 16:25:43 +0000 2016", "klabel": 108}}, {"geometry": {"type": "Point", "coordinates": [-79.4718833, 43.6653464]}, "type": "Feature", "id": 753993123882074112, "properties": {"loc": [-79.4718833, 43.6653464], "centroid": [-79.4385469194607, 43.746314587303544], "screen_name": "tmj_gta_hrta", "time": 1468618943.0, "tid": 753993123882074112, "text": "We're #hiring! Click to apply: Shift Supervisor (CA) - https://t.co/GxgWrVJI2X #Job #Hospitality #Veterans #Jobs #CareerArc", "created_at": "Fri Jul 15 16:42:23 +0000 2016", "klabel": 108}}, {"geometry": {"type": "Point", "coordinates": [-79.4686449, 43.6654623]}, "type": "Feature", "id": 754009899143720961, "properties": {"loc": [-79.4686449, 43.6654623], "centroid": [-79.4385469194607, 43.746314587303544], "screen_name": "tpscalls", "time": 1468622943.0, "tid": 754009899143720961, "text": "Unknown Trouble | Dundas St W &amp; Pacific Ave [11 Div.] 07/15 13:43 #The_Junction #Toronto", "created_at": "Fri Jul 15 17:49:03 +0000 2016", "klabel": 108}}, {"geometry": {"type": "Point", "coordinates": [-79.4681432, 43.6724864]}, "type": "Feature", "id": 754027821320708097, "properties": {"loc": [-79.4681432, 43.6724864], "centroid": [-79.4385469194607, 43.746314587303544], "screen_name": "VitapathCareers", "time": 1468627216.0, "tid": 754027821320708097, "text": "Want to work at Vitapath? We're #hiring in #Toronto, ON! Click for details: https://t.co/iQBAqlTzPd #Job #Retail #Jobs", "created_at": "Fri Jul 15 19:00:16 +0000 2016", "klabel": 108}}, {"geometry": {"type": "Point", "coordinates": [-79.4725023, 43.6739213]}, "type": "Feature", "id": 754031543077699584, "properties": {"loc": [-79.4725023, 43.6739213], "centroid": [-79.4385469194607, 43.746314587303544], "screen_name": "tpscalls", "time": 1468628103.0, "tid": 754031543077699584, "text": "Holding One | Keele St &amp; Gunns Rd [11 Div.] 07/15 15:11 #Stockyards_District #Toronto", "created_at": "Fri Jul 15 19:15:03 +0000 2016", "klabel": 108}}, {"geometry": {"type": "Point", "coordinates": [-79.47012246, 43.67388609]}, "type": "Feature", "id": 754037740279205888, "properties": {"loc": [-79.47012246, 43.67388609], "centroid": [-79.4385469194607, 43.746314587303544], "screen_name": "HelenYinethB", "time": 1468629581.0, "tid": 754037740279205888, "text": "Es viernes y el chihuahua lo sabe. #shoppingtime #TGIF #SOPHIEVERGARA @ The Stockyards https://t.co/I8rzTbMlWz", "created_at": "Fri Jul 15 19:39:41 +0000 2016", "klabel": 108}}, {"geometry": {"type": "Point", "coordinates": [-79.47857, 43.66573]}, "type": "Feature", "id": 754075783757438976, "properties": {"loc": [-79.47857, 43.66573], "centroid": [-79.4385469194607, 43.746314587303544], "screen_name": "big_mike_12", "time": 1468638651.0, "tid": 754075783757438976, "text": "Pastizzi in Toronto! #malta #toronto #food @ Malta Bake Shop https://t.co/fTUPLOjzMk", "created_at": "Fri Jul 15 22:10:51 +0000 2016", "klabel": 108}}, {"geometry": {"type": "Point", "coordinates": [-79.4681432, 43.6724864]}, "type": "Feature", "id": 754088252777172992, "properties": {"loc": [-79.4681432, 43.6724864], "centroid": [-79.4385469194607, 43.746314587303544], "screen_name": "VitapathCareers", "time": 1468641624.0, "tid": 754088252777172992, "text": "Interested in a #job near #Toronto, ON? This could be a great fit: https://t.co/6fsPBjFUR0 #Retail #Hiring", "created_at": "Fri Jul 15 23:00:24 +0000 2016", "klabel": 108}}, {"geometry": {"type": "Point", "coordinates": [-79.46778, 43.66566]}, "type": "Feature", "id": 754094067059785728, "properties": {"loc": [-79.46778, 43.66566], "centroid": [-79.4385469194607, 43.746314587303544], "screen_name": "fawnbigcanoe", "time": 1468643010.0, "tid": 754094067059785728, "text": "Weeeeeeeee. Tonight in the junction! #shamone #junctionnights\u2026 https://t.co/fBAgYUn70s", "created_at": "Fri Jul 15 23:23:30 +0000 2016", "klabel": 108}}, {"geometry": {"type": "Point", "coordinates": [-79.47414415, 43.6656173]}, "type": "Feature", "id": 754097236448014336, "properties": {"loc": [-79.47414415, 43.6656173], "centroid": [-79.4385469194607, 43.746314587303544], "screen_name": "BIGsiscloset", "time": 1468643766.0, "tid": 754097236448014336, "text": "And another one! \ud83d\ude04 @ Your Big Sister's Closet https://t.co/FYnhHoDMvm", "created_at": "Fri Jul 15 23:36:06 +0000 2016", "klabel": 108}}, {"geometry": {"type": "Point", "coordinates": [-79.47414415, 43.6656173]}, "type": "Feature", "id": 754100001534578688, "properties": {"loc": [-79.47414415, 43.6656173], "centroid": [-79.4385469194607, 43.746314587303544], "screen_name": "BIGsiscloset", "time": 1468644425.0, "tid": 754100001534578688, "text": "And another one! \ud83d\ude04 @ Your Big Sister's Closet https://t.co/hxYUnKTkhG", "created_at": "Fri Jul 15 23:47:05 +0000 2016", "klabel": 108}}, {"geometry": {"type": "Point", "coordinates": [-79.47237, 43.66566]}, "type": "Feature", "id": 754106789700964353, "properties": {"loc": [-79.47237, 43.66566], "centroid": [-79.4385469194607, 43.746314587303544], "screen_name": "coryleemusic", "time": 1468646043.0, "tid": 754106789700964353, "text": "There's a new kid on the block!!! @junction_local @ Junction LOCAL https://t.co/Dx6tNw39zk", "created_at": "Sat Jul 16 00:14:03 +0000 2016", "klabel": 108}}, {"geometry": {"type": "Point", "coordinates": [-79.47414415, 43.6656173]}, "type": "Feature", "id": 754107861970587648, "properties": {"loc": [-79.47414415, 43.6656173], "centroid": [-79.4385469194607, 43.746314587303544], "screen_name": "BIGsiscloset", "time": 1468646299.0, "tid": 754107861970587648, "text": "The most versatile dress you\u2019ll have in your wardrobe, a definite staple to have! \ud83d\udc4d It features\u2026 https://t.co/5gEtWruQV6", "created_at": "Sat Jul 16 00:18:19 +0000 2016", "klabel": 108}}, {"geometry": {"type": "Point", "coordinates": [-79.47414415, 43.6656173]}, "type": "Feature", "id": 754113037414633472, "properties": {"loc": [-79.47414415, 43.6656173], "centroid": [-79.4385469194607, 43.746314587303544], "screen_name": "BIGsiscloset", "time": 1468647533.0, "tid": 754113037414633472, "text": "This is such a gorgeous sun dress!!! \u2600\ufe0f\u2600\ufe0f\u2600\ufe0f This dress features a beautiful, watercolour-look\u2026 https://t.co/YOgKB9iNKs", "created_at": "Sat Jul 16 00:38:53 +0000 2016", "klabel": 108}}, {"geometry": {"type": "Point", "coordinates": [-79.45927244, 43.67442755]}, "type": "Feature", "id": 754113720356311040, "properties": {"loc": [-79.45927244, 43.67442755], "centroid": [-79.4385469194607, 43.746314587303544], "screen_name": "ro_drigo", "time": 1468647696.0, "tid": 754113720356311040, "text": "I'm at Sabor Brasil Restaurant in Toronto, ON https://t.co/aGpfKW61a5", "created_at": "Sat Jul 16 00:41:36 +0000 2016", "klabel": 108}}, {"geometry": {"type": "Point", "coordinates": [-79.47414415, 43.6656173]}, "type": "Feature", "id": 754116541399138304, "properties": {"loc": [-79.47414415, 43.6656173], "centroid": [-79.4385469194607, 43.746314587303544], "screen_name": "BIGsiscloset", "time": 1468648368.0, "tid": 754116541399138304, "text": "This dress is absolute perfection! \ud83d\udc4c It features mesh bell sleeves, and this print is to die\u2026 https://t.co/v0JQVujOwE", "created_at": "Sat Jul 16 00:52:48 +0000 2016", "klabel": 108}}, {"geometry": {"type": "Point", "coordinates": [-79.47414415, 43.6656173]}, "type": "Feature", "id": 754120041814171648, "properties": {"loc": [-79.47414415, 43.6656173], "centroid": [-79.4385469194607, 43.746314587303544], "screen_name": "BIGsiscloset", "time": 1468649203.0, "tid": 754120041814171648, "text": "Are you guys seeing this dress right now???!!! \ud83d\ude4c\ud83d\ude4c\ud83d\ude4c Kaity (on the left and is about 5\"3) is\u2026 https://t.co/HR8DJ0E2wf", "created_at": "Sat Jul 16 01:06:43 +0000 2016", "klabel": 108}}, {"geometry": {"type": "Point", "coordinates": [-79.47414415, 43.6656173]}, "type": "Feature", "id": 754144397432881152, "properties": {"loc": [-79.47414415, 43.6656173], "centroid": [-79.4385469194607, 43.746314587303544], "screen_name": "BIGsiscloset", "time": 1468655010.0, "tid": 754144397432881152, "text": "How stunning is this dress??? \ud83d\ude0d\ud83d\ude0d\ud83d\ude0d Did I mention that it also has pockets??? \ud83d\ude4c\ud83d\ude4c\ud83d\ude4c Kaity (on the\u2026 https://t.co/sTAWFkB0gu", "created_at": "Sat Jul 16 02:43:30 +0000 2016", "klabel": 108}}, {"geometry": {"type": "Point", "coordinates": [-79.47414415, 43.6656173]}, "type": "Feature", "id": 754148932012376065, "properties": {"loc": [-79.47414415, 43.6656173], "centroid": [-79.4385469194607, 43.746314587303544], "screen_name": "BIGsiscloset", "time": 1468656091.0, "tid": 754148932012376065, "text": "For this dress, we invited a very special body positive advocate from right here in Toronto to\u2026 https://t.co/ymc8Af9dtl", "created_at": "Sat Jul 16 03:01:31 +0000 2016", "klabel": 108}}, {"geometry": {"type": "Point", "coordinates": [-79.47414415, 43.6656173]}, "type": "Feature", "id": 754163946194604032, "properties": {"loc": [-79.47414415, 43.6656173], "centroid": [-79.4385469194607, 43.746314587303544], "screen_name": "BIGsiscloset", "time": 1468659671.0, "tid": 754163946194604032, "text": "This beautiful chiffon maxi reminds me so much of Adele... Romantic, flowy and just gorgeous \ud83d\udc96\ud83d\udc96\ud83d\udc96\u2026 https://t.co/KJoFVrLJBQ", "created_at": "Sat Jul 16 04:01:11 +0000 2016", "klabel": 108}}, {"geometry": {"type": "Point", "coordinates": [-79.459964, 43.6741378]}, "type": "Feature", "id": 754303331745619968, "properties": {"loc": [-79.459964, 43.6741378], "centroid": [-79.4385469194607, 43.746314587303544], "screen_name": "tpscalls", "time": 1468692903.0, "tid": 754303331745619968, "text": "Theft | St Clair Ave W &amp; Heath St W [53 Div.] 07/16 09:10 #Carleton_Village #Toronto", "created_at": "Sat Jul 16 13:15:03 +0000 2016", "klabel": 108}}, {"geometry": {"type": "Point", "coordinates": [-79.47414415, 43.6656173]}, "type": "Feature", "id": 754305381065691136, "properties": {"loc": [-79.47414415, 43.6656173], "centroid": [-79.4385469194607, 43.746314587303544], "screen_name": "BIGsiscloset", "time": 1468693391.0, "tid": 754305381065691136, "text": "Are you guys seeing this dress right now???!!! \ud83d\ude4c\ud83d\ude4c\ud83d\ude4c Kaity (on the left and is about 5\"3) is\u2026 https://t.co/sDAYIAU1EX", "created_at": "Sat Jul 16 13:23:11 +0000 2016", "klabel": 108}}, {"geometry": {"type": "Point", "coordinates": [-79.47414415, 43.6656173]}, "type": "Feature", "id": 754321323116068866, "properties": {"loc": [-79.47414415, 43.6656173], "centroid": [-79.4385469194607, 43.746314587303544], "screen_name": "BIGsiscloset", "time": 1468697192.0, "tid": 754321323116068866, "text": "This dress is absolute perfection! \ud83d\udc4c It features mesh bell sleeves, and this print is to die\u2026 https://t.co/M57YLXTh71", "created_at": "Sat Jul 16 14:26:32 +0000 2016", "klabel": 108}}, {"geometry": {"type": "Point", "coordinates": [-79.4630227, 43.6735914]}, "type": "Feature", "id": 754326234415398912, "properties": {"loc": [-79.4630227, 43.6735914], "centroid": [-79.4385469194607, 43.746314587303544], "screen_name": "tpscalls", "time": 1468698363.0, "tid": 754326234415398912, "text": "Personal Injury Collision | St Clair Ave W &amp; Old Weston Rd [11 Div.] 07/16 10:39 #Stockyards_District #Toronto", "created_at": "Sat Jul 16 14:46:03 +0000 2016", "klabel": 108}}, {"geometry": {"type": "Point", "coordinates": [-79.4630227, 43.6735914]}, "type": "Feature", "id": 754332774182580226, "properties": {"loc": [-79.4630227, 43.6735914], "centroid": [-79.4385469194607, 43.746314587303544], "screen_name": "tpscalls", "time": 1468699922.0, "tid": 754332774182580226, "text": "Personal Injury Collision | St Clair Ave W &amp; Old Weston Rd [HP] 07/16 11:07 #Stockyards_District #Toronto", "created_at": "Sat Jul 16 15:12:02 +0000 2016", "klabel": 108}}, {"geometry": {"type": "Point", "coordinates": [-79.46608581, 43.66539095]}, "type": "Feature", "id": 754335702352093184, "properties": {"loc": [-79.46608581, 43.66539095], "centroid": [-79.4385469194607, 43.746314587303544], "screen_name": "itsAfeeling", "time": 1468700620.0, "tid": 754335702352093184, "text": "Somebody had a nice long 2.5 hour walk and got a flower out of it \ud83c\udf3a @ The Junction https://t.co/a4eNwuzaKH", "created_at": "Sat Jul 16 15:23:40 +0000 2016", "klabel": 108}}, {"geometry": {"type": "Point", "coordinates": [-79.47414415, 43.6656173]}, "type": "Feature", "id": 754350003368361984, "properties": {"loc": [-79.47414415, 43.6656173], "centroid": [-79.4385469194607, 43.746314587303544], "screen_name": "BIGsiscloset", "time": 1468704030.0, "tid": 754350003368361984, "text": "FLASH SALE!!! \ud83d\udecd\ud83d\udecd\ud83d\udecd Everything on these 2 rolling racks is 50% off!!! \ud83d\ude31\ud83d\ude31\ud83d\ude31 In store only, while\u2026 https://t.co/sGCOvUXBRr", "created_at": "Sat Jul 16 16:20:30 +0000 2016", "klabel": 108}}, {"geometry": {"type": "Point", "coordinates": [-79.47414415, 43.6656173]}, "type": "Feature", "id": 754365545890414592, "properties": {"loc": [-79.47414415, 43.6656173], "centroid": [-79.4385469194607, 43.746314587303544], "screen_name": "BIGsiscloset", "time": 1468707736.0, "tid": 754365545890414592, "text": "We're like 3 Georgian peaches in this dress \ud83c\udf51\ud83c\udf51\ud83c\udf51 I just love everything about this one, the\u2026 https://t.co/B1HLARfzEC", "created_at": "Sat Jul 16 17:22:16 +0000 2016", "klabel": 108}}, {"geometry": {"type": "Point", "coordinates": [-79.46665, 43.66545]}, "type": "Feature", "id": 754375043187085312, "properties": {"loc": [-79.46665, 43.66545], "centroid": [-79.4385469194607, 43.746314587303544], "screen_name": "MisterAndyK", "time": 1468710000.0, "tid": 754375043187085312, "text": "122-Link #gold #chain available @studiocycleTO Toronto! #motorcycle #ilovegold #notamodel\u2026 https://t.co/9w4WqMDFXv", "created_at": "Sat Jul 16 18:00:00 +0000 2016", "klabel": 108}}, {"geometry": {"type": "Point", "coordinates": [-79.463888, 43.665455]}, "type": "Feature", "id": 754399676120653825, "properties": {"loc": [-79.463888, 43.665455], "centroid": [-79.4385469194607, 43.746314587303544], "screen_name": "Casey_ONeill", "time": 1468715873.0, "tid": 754399676120653825, "text": "I'm rolling out new limited edition signed and numbered #prints at Made by Madrigal and online\u2026 https://t.co/j2IsqyDGtu", "created_at": "Sat Jul 16 19:37:53 +0000 2016", "klabel": 108}}, {"geometry": {"type": "Point", "coordinates": [-79.47318011, 43.66556574]}, "type": "Feature", "id": 754403892260200448, "properties": {"loc": [-79.47318011, 43.66556574], "centroid": [-79.4385469194607, 43.746314587303544], "screen_name": "jennerrxo", "time": 1468716878.0, "tid": 754403892260200448, "text": "#deathbychocolate will be the death of me...my new &amp; fav flavour now!!! \ud83c\udf66\ud83d\udc95 #kawarthaicecream\u2026 https://t.co/K0LinQ5Ffg", "created_at": "Sat Jul 16 19:54:38 +0000 2016", "klabel": 108}}, {"geometry": {"type": "Point", "coordinates": [-79.46136, 43.6650599]}, "type": "Feature", "id": 754404204911796225, "properties": {"loc": [-79.46136, 43.6650599], "centroid": [-79.4385469194607, 43.746314587303544], "screen_name": "JunctionGuitars", "time": 1468716953.0, "tid": 754404204911796225, "text": "#fender #offset #telecaster in stock at #Junctionguitars #toronto #junction #offsetguitars @\u2026 https://t.co/GXzKWX6Sso", "created_at": "Sat Jul 16 19:55:53 +0000 2016", "klabel": 108}}, {"geometry": {"type": "Point", "coordinates": [-79.4587764, 43.6686108]}, "type": "Feature", "id": 754414314073755648, "properties": {"loc": [-79.4587764, 43.6686108], "centroid": [-79.4385469194607, 43.746314587303544], "screen_name": "tpscalls", "time": 1468719363.0, "tid": 754414314073755648, "text": "See Ambulance | Lindner St &amp; Ln S Davenport W Osler [11 Div.] 07/16 16:30 #Carleton_Village #Toronto", "created_at": "Sat Jul 16 20:36:03 +0000 2016", "klabel": 108}}, {"geometry": {"type": "Point", "coordinates": [-79.4786, 43.6728]}, "type": "Feature", "id": 754422614442016768, "properties": {"loc": [-79.4786, 43.6728], "centroid": [-79.4385469194607, 43.746314587303544], "screen_name": "AGonzalezAquino", "time": 1468721342.0, "tid": 754422614442016768, "text": "Very drinkable - to style, German Pils. Lingering dryness and low g... (Unfiltered Pilsner) https://t.co/eZeFApAv1m #photo", "created_at": "Sat Jul 16 21:09:02 +0000 2016", "klabel": 108}}, {"geometry": {"type": "Point", "coordinates": [-79.4681088, 43.66506176]}, "type": "Feature", "id": 754433408160428032, "properties": {"loc": [-79.4681088, 43.66506176], "centroid": [-79.4385469194607, 43.746314587303544], "screen_name": "junctionette", "time": 1468723915.0, "tid": 754433408160428032, "text": "Setup underway! #JNM2016 @ Junction Farmers Market https://t.co/IFPHZdoQhR", "created_at": "Sat Jul 16 21:51:55 +0000 2016", "klabel": 108}}, {"geometry": {"type": "Point", "coordinates": [-79.47414415, 43.6656173]}, "type": "Feature", "id": 754442025454403584, "properties": {"loc": [-79.47414415, 43.6656173], "centroid": [-79.4385469194607, 43.746314587303544], "screen_name": "BIGsiscloset", "time": 1468725970.0, "tid": 754442025454403584, "text": "Literally, the perfect black lace dress \ud83d\udc4c\ud83d\udc4c\ud83d\udc4cKaity (on the left and is about 5\"3) is wearing the\u2026 https://t.co/pY8pIl7RT2", "created_at": "Sat Jul 16 22:26:10 +0000 2016", "klabel": 108}}, {"geometry": {"type": "Point", "coordinates": [-79.46846862, 43.66546249]}, "type": "Feature", "id": 754451938561888256, "properties": {"loc": [-79.46846862, 43.66546249], "centroid": [-79.4385469194607, 43.746314587303544], "screen_name": "ianirving", "time": 1468728333.0, "tid": 754451938561888256, "text": "I'm at Night Market https://t.co/DPGOOkj4CK", "created_at": "Sat Jul 16 23:05:33 +0000 2016", "klabel": 108}}, {"geometry": {"type": "Point", "coordinates": [-79.46472211, 43.66671734]}, "type": "Feature", "id": 754455455624200193, "properties": {"loc": [-79.46472211, 43.66671734], "centroid": [-79.4385469194607, 43.746314587303544], "screen_name": "maris_c", "time": 1468729172.0, "tid": 754455455624200193, "text": "First stop: Cookie Martinez and her amazing plantains!  #junctionnightmarket #junctionto\u2026 https://t.co/tKEKZaHVZC", "created_at": "Sat Jul 16 23:19:32 +0000 2016", "klabel": 108}}, {"geometry": {"type": "Point", "coordinates": [-79.46472211, 43.66671734]}, "type": "Feature", "id": 754458556225773568, "properties": {"loc": [-79.46472211, 43.66671734], "centroid": [-79.4385469194607, 43.746314587303544], "screen_name": "maris_c", "time": 1468729911.0, "tid": 754458556225773568, "text": "Next up When the Pig Came Home #junctionnightmarket #junctionto #torontomoms #datenight\u2026 https://t.co/Z8HG2YhbCv", "created_at": "Sat Jul 16 23:31:51 +0000 2016", "klabel": 108}}, {"geometry": {"type": "Point", "coordinates": [-79.46472211, 43.66671734]}, "type": "Feature", "id": 754461508139122688, "properties": {"loc": [-79.46472211, 43.66671734], "centroid": [-79.4385469194607, 43.746314587303544], "screen_name": "maris_c", "time": 1468730615.0, "tid": 754461508139122688, "text": "Ho grown Charcuterie #junctionnightmarket #junctionto #torontomoms #datenight #inmyhood\u2026 https://t.co/KW5dQIVAm8", "created_at": "Sat Jul 16 23:43:35 +0000 2016", "klabel": 108}}, {"geometry": {"type": "Point", "coordinates": [-79.46472211, 43.66671734]}, "type": "Feature", "id": 754463013340676096, "properties": {"loc": [-79.46472211, 43.66671734], "centroid": [-79.4385469194607, 43.746314587303544], "screen_name": "maris_c", "time": 1468730974.0, "tid": 754463013340676096, "text": "Phancy Food #junctionnightmarket #junctionto #torontomoms #datenight #inmyhood #summerinthecity\u2026 https://t.co/YpjW516T7x", "created_at": "Sat Jul 16 23:49:34 +0000 2016", "klabel": 108}}, {"geometry": {"type": "Point", "coordinates": [-79.46472211, 43.66671734]}, "type": "Feature", "id": 754463437707681792, "properties": {"loc": [-79.46472211, 43.66671734], "centroid": [-79.4385469194607, 43.746314587303544], "screen_name": "maris_c", "time": 1468731075.0, "tid": 754463437707681792, "text": "My hot date shawncatena #hothusband #junctionnightmarket #junctionto #torontomoms #datenight\u2026 https://t.co/sc5TFYeiQj", "created_at": "Sat Jul 16 23:51:15 +0000 2016", "klabel": 108}}, {"geometry": {"type": "Point", "coordinates": [-79.47040346, 43.66568966]}, "type": "Feature", "id": 754464613698121728, "properties": {"loc": [-79.47040346, 43.66568966], "centroid": [-79.4385469194607, 43.746314587303544], "screen_name": "ShannoVeronica", "time": 1468731355.0, "tid": 754464613698121728, "text": "Celebrating #colleenandjeff with surferg ! Congratulations, you two lovebirds! @jeffjoejames\u2026 https://t.co/90T51NpHTz", "created_at": "Sat Jul 16 23:55:55 +0000 2016", "klabel": 108}}, {"geometry": {"type": "Point", "coordinates": [-79.46472211, 43.66671734]}, "type": "Feature", "id": 754466829209309184, "properties": {"loc": [-79.46472211, 43.66671734], "centroid": [-79.4385469194607, 43.746314587303544], "screen_name": "maris_c", "time": 1468731884.0, "tid": 754466829209309184, "text": "TC's Tibetan Momo's #junctionnightmarket #junctionto #torontomoms #datenight #inmyhood\u2026 https://t.co/zcQo3Vf2Ix", "created_at": "Sun Jul 17 00:04:44 +0000 2016", "klabel": 108}}, {"geometry": {"type": "Point", "coordinates": [-79.46472211, 43.66671734]}, "type": "Feature", "id": 754470194215550977, "properties": {"loc": [-79.46472211, 43.66671734], "centroid": [-79.4385469194607, 43.746314587303544], "screen_name": "maris_c", "time": 1468732686.0, "tid": 754470194215550977, "text": "And a @lavizziata waffle! #junctionnightmarket #junctionto #torontomoms #datenight #inmyhood\u2026 https://t.co/GLYGe0rSXX", "created_at": "Sun Jul 17 00:18:06 +0000 2016", "klabel": 108}}, {"geometry": {"type": "Point", "coordinates": [-79.46472211, 43.66671734]}, "type": "Feature", "id": 754480895717937152, "properties": {"loc": [-79.46472211, 43.66671734], "centroid": [-79.4385469194607, 43.746314587303544], "screen_name": "maris_c", "time": 1468735237.0, "tid": 754480895717937152, "text": "Yummy cold pressed @cedarjuice samples!  #junctionnightmarket @ The Junction Triangle https://t.co/V1pYGOHizh", "created_at": "Sun Jul 17 01:00:37 +0000 2016", "klabel": 108}}, {"geometry": {"type": "Point", "coordinates": [-79.4681088, 43.66506176]}, "type": "Feature", "id": 754494829304963072, "properties": {"loc": [-79.4681088, 43.66506176], "centroid": [-79.4385469194607, 43.746314587303544], "screen_name": "junctionette", "time": 1468738559.0, "tid": 754494829304963072, "text": "Junction Night Market #JNM2016 @ Junction Farmers Market https://t.co/q9RD0uYFvZ", "created_at": "Sun Jul 17 01:55:59 +0000 2016", "klabel": 108}}, {"geometry": {"type": "Point", "coordinates": [-79.46624548, 43.66534559]}, "type": "Feature", "id": 754512030997082120, "properties": {"loc": [-79.46624548, 43.66534559], "centroid": [-79.4385469194607, 43.746314587303544], "screen_name": "Arlene_Paculan", "time": 1468742661.0, "tid": 754512030997082120, "text": "@kevdfoster and his band! #cdrelease junctioncitymusichall #livemusic #awesome @ Junction City\u2026 https://t.co/yMctb4XMNz", "created_at": "Sun Jul 17 03:04:21 +0000 2016", "klabel": 108}}, {"geometry": {"type": "Point", "coordinates": [-79.4651258, 43.6698194]}, "type": "Feature", "id": 754536625171038208, "properties": {"loc": [-79.4651258, 43.6698194], "centroid": [-79.4385469194607, 43.746314587303544], "screen_name": "tpscalls", "time": 1468748524.0, "tid": 754536625171038208, "text": "Noise Complaint | Junction Rd &amp; Hirons St [11 Div.] 07/17 00:38 #The_Junction #Toronto", "created_at": "Sun Jul 17 04:42:04 +0000 2016", "klabel": 108}}, {"geometry": {"type": "Point", "coordinates": [-79.46805015, 43.66558126]}, "type": "Feature", "id": 754539146996101120, "properties": {"loc": [-79.46805015, 43.66558126], "centroid": [-79.4385469194607, 43.746314587303544], "screen_name": "LaVizziata", "time": 1468749125.0, "tid": 754539146996101120, "text": "Had a great time tonight at the yearly #junctionnightmarket served up some waffles with salted\u2026 https://t.co/YWGzdKkOqE", "created_at": "Sun Jul 17 04:52:05 +0000 2016", "klabel": 108}}, {"geometry": {"type": "Point", "coordinates": [-79.47414415, 43.6656173]}, "type": "Feature", "id": 754668262512848896, "properties": {"loc": [-79.47414415, 43.6656173], "centroid": [-79.4385469194607, 43.746314587303544], "screen_name": "BIGsiscloset", "time": 1468779909.0, "tid": 754668262512848896, "text": "This is such a gorgeous sun dress!!! \u2600\ufe0f\u2600\ufe0f\u2600\ufe0f This dress features a beautiful, watercolour-look\u2026 https://t.co/l5NzN2SLi2", "created_at": "Sun Jul 17 13:25:09 +0000 2016", "klabel": 108}}, {"geometry": {"type": "Point", "coordinates": [-79.472074, 43.665504]}, "type": "Feature", "id": 754684585485762560, "properties": {"loc": [-79.472074, 43.665504], "centroid": [-79.4385469194607, 43.746314587303544], "screen_name": "itsAfeeling", "time": 1468783801.0, "tid": 754684585485762560, "text": "Just chilling on the patio with this blonde fella... @ Starbucks Canada https://t.co/o3hJ8LtBgG", "created_at": "Sun Jul 17 14:30:01 +0000 2016", "klabel": 108}}, {"geometry": {"type": "Point", "coordinates": [-79.459402, 43.6645994]}, "type": "Feature", "id": 754691359999614976, "properties": {"loc": [-79.459402, 43.6645994], "centroid": [-79.4385469194607, 43.746314587303544], "screen_name": "tmj_gta_itpm", "time": 1468785416.0, "tid": 754691359999614976, "text": "Can you recommend anyone for this #job? Senior Mainframe Developer (Future Opportunity) - https://t.co/yPDC4BO9tE #GreaterTorontoArea, ON", "created_at": "Sun Jul 17 14:56:56 +0000 2016", "klabel": 108}}, {"geometry": {"type": "Point", "coordinates": [-79.4681432, 43.6724864]}, "type": "Feature", "id": 754702806376775680, "properties": {"loc": [-79.4681432, 43.6724864], "centroid": [-79.4385469194607, 43.746314587303544], "screen_name": "tmj_gta_retail", "time": 1468788145.0, "tid": 754702806376775680, "text": "Join the Vitapath team! See our latest #job opening here: https://t.co/nVa2oqPA5C #Retail #Toronto, ON #Hiring #CareerArc", "created_at": "Sun Jul 17 15:42:25 +0000 2016", "klabel": 108}}, {"geometry": {"type": "Point", "coordinates": [-79.4681432, 43.6724864]}, "type": "Feature", "id": 754709985020420096, "properties": {"loc": [-79.4681432, 43.6724864], "centroid": [-79.4385469194607, 43.746314587303544], "screen_name": "tmj_gta_retail", "time": 1468789856.0, "tid": 754709985020420096, "text": "Interested in a #job near #Toronto, ON? This could be a great fit: https://t.co/xorrw1DTyL #Retail #Hiring #CareerArc", "created_at": "Sun Jul 17 16:10:56 +0000 2016", "klabel": 108}}, {"geometry": {"type": "Point", "coordinates": [-79.47414415, 43.6656173]},