{"type": "FeatureCollection", "features": [{"geometry": {"type": "Point", "coordinates": [-79.39936363, 43.64087731]}, "type": "Feature", "id": 705074811454820352, "properties": {"loc": [-79.39936363, 43.64087731], "centroid": [-79.36544332199082, 43.659603298444786], "screen_name": "atlasespressoTO", "time": 1456955909.0, "tid": 705074811454820352, "text": "Crockpot Wednesday!\nGet some comfort after the \"storm\" with a homemade 6-bean chili con carne\u2026 https://t.co/jM82DBRuZ6", "created_at": "Wed Mar 02 16:58:29 +0000 2016", "klabel": 110}}, {"geometry": {"type": "Point", "coordinates": [-79.3983745, 43.6388212]}, "type": "Feature", "id": 705075918344028160, "properties": {"loc": [-79.3983745, 43.6388212], "centroid": [-79.36544332199082, 43.659603298444786], "screen_name": "raymitheminx", "time": 1456956173.0, "tid": 705075918344028160, "text": "Just posted a photo @ THE6 https://t.co/2OIubYwZ3l", "created_at": "Wed Mar 02 17:02:53 +0000 2016", "klabel": 110}}, {"geometry": {"type": "Point", "coordinates": [-79.39615488, 43.63160243]}, "type": "Feature", "id": 705421131336040448, "properties": {"loc": [-79.39615488, 43.63160243], "centroid": [-79.36544332199082, 43.659603298444786], "screen_name": "RJasonCottrell", "time": 1457038478.0, "tid": 705421131336040448, "text": "I'm at Billy Bishop Toronto City Airport (YTZ) - @bbishopairport in Toronto, ON https://t.co/qQrz3dZSkU", "created_at": "Thu Mar 03 15:54:38 +0000 2016", "klabel": 110}}, {"geometry": {"type": "Point", "coordinates": [-79.40322906, 43.63627342]}, "type": "Feature", "id": 705426202148753408, "properties": {"loc": [-79.40322906, 43.63627342], "centroid": [-79.36544332199082, 43.659603298444786], "screen_name": "JCMcNeill", "time": 1457039687.0, "tid": 705426202148753408, "text": "There's a fire in my building three floors down... This is my view\u2026 https://t.co/wiJqaZd3xW", "created_at": "Thu Mar 03 16:14:47 +0000 2016", "klabel": 110}}, {"geometry": {"type": "Point", "coordinates": [-79.39811, 43.6389]}, "type": "Feature", "id": 705535811970691072, "properties": {"loc": [-79.39811, 43.6389], "centroid": [-79.36544332199082, 43.659603298444786], "screen_name": "EweyOnTheRun", "time": 1457065820.0, "tid": 705535811970691072, "text": "After a pretty crazy day and looking pretty worn out, I made it!\u2026 https://t.co/tqNfjiX8VA", "created_at": "Thu Mar 03 23:30:20 +0000 2016", "klabel": 110}}, {"geometry": {"type": "Point", "coordinates": [-79.395179, 43.640044]}, "type": "Feature", "id": 705548032994119680, "properties": {"loc": [-79.395179, 43.640044], "centroid": [-79.36544332199082, 43.659603298444786], "screen_name": "Agpenamx", "time": 1457068734.0, "tid": 705548032994119680, "text": "#tbt @ CityPlace, Toronto https://t.co/uOtsY95wpN", "created_at": "Fri Mar 04 00:18:54 +0000 2016", "klabel": 110}}, {"geometry": {"type": "Point", "coordinates": [-79.4000594, 43.6374039]}, "type": "Feature", "id": 705548332177989632, "properties": {"loc": [-79.4000594, 43.6374039], "centroid": [-79.36544332199082, 43.659603298444786], "screen_name": "tofire", "time": 1457068805.0, "tid": 705548332177989632, "text": "Alarm Highrise Residential Downtown - Bruyeres Mews b/w Bathurst St / Iannuzzi St, Toronto (2 Trucks)", "created_at": "Fri Mar 04 00:20:05 +0000 2016", "klabel": 110}}, {"geometry": {"type": "Point", "coordinates": [-79.3937531, 43.6371841]}, "type": "Feature", "id": 705580051371319297, "properties": {"loc": [-79.3937531, 43.6371841], "centroid": [-79.36544332199082, 43.659603298444786], "screen_name": "aetheralonso", "time": 1457076367.0, "tid": 705580051371319297, "text": "Waiting for the eggs to hatch #toronto #nesting #musicadeorigen #carlosalonso @ Toronto Music\u2026 https://t.co/6mhKRgEwi4", "created_at": "Fri Mar 04 02:26:07 +0000 2016", "klabel": 110}}, {"geometry": {"type": "Point", "coordinates": [-79.40000153, 43.63000107]}, "type": "Feature", "id": 705583744497938432, "properties": {"loc": [-79.40000153, 43.63000107], "centroid": [-79.36544332199082, 43.659603298444786], "screen_name": "oozorakko", "time": 1457077248.0, "tid": 705583744497938432, "text": "@akari_oozora Source: \"Toronto: Riverdale farm\" by The City of Toronto on Flickr\nhttps://t.co/udFLP3iUwt", "created_at": "Fri Mar 04 02:40:48 +0000 2016", "klabel": 110}}, {"geometry": {"type": "Point", "coordinates": [-79.39612569, 43.63194795]}, "type": "Feature", "id": 705853082169511936, "properties": {"loc": [-79.39612569, 43.63194795], "centroid": [-79.36544332199082, 43.659603298444786], "screen_name": "kobezzz", "time": 1457141463.0, "tid": 705853082169511936, "text": "#cntower #toronto #island #canada #skyline #skyscraper #f4f #follow #followall #followbackalways\u2026 https://t.co/AqqmM2SobA", "created_at": "Fri Mar 04 20:31:03 +0000 2016", "klabel": 110}}, {"geometry": {"type": "Point", "coordinates": [-79.39615488, 43.63160243]}, "type": "Feature", "id": 705871777726070784, "properties": {"loc": [-79.39615488, 43.63160243], "centroid": [-79.36544332199082, 43.659603298444786], "screen_name": "Ravensista", "time": 1457145920.0, "tid": 705871777726070784, "text": "I'm at Billy Bishop Toronto City Airport (YTZ) - @bbishopairport in Toronto, ON https://t.co/zSPNasVOdc", "created_at": "Fri Mar 04 21:45:20 +0000 2016", "klabel": 110}}, {"geometry": {"type": "Point", "coordinates": [-79.39936363, 43.64087731]}, "type": "Feature", "id": 706125963210461188, "properties": {"loc": [-79.39936363, 43.64087731], "centroid": [-79.36544332199082, 43.659603298444786], "screen_name": "atlasespressoTO", "time": 1457206523.0, "tid": 706125963210461188, "text": "Good morning \n#urbanoasis\n#urbanoffthebeatentrack\n#aboutlastnight\u2026 https://t.co/NaHU8zpOlm", "created_at": "Sat Mar 05 14:35:23 +0000 2016", "klabel": 110}}, {"geometry": {"type": "Point", "coordinates": [-79.39583333, 43.63458333]}, "type": "Feature", "id": 706151504420274180, "properties": {"loc": [-79.39583333, 43.63458333], "centroid": [-79.36544332199082, 43.659603298444786], "screen_name": "willoveryou", "time": 1457212612.0, "tid": 706151504420274180, "text": "2 months without you... @ Ireland Park https://t.co/AlKRgVSuFe", "created_at": "Sat Mar 05 16:16:52 +0000 2016", "klabel": 110}}, {"geometry": {"type": "Point", "coordinates": [-79.3967, 43.639]}, "type": "Feature", "id": 707630635142225920, "properties": {"loc": [-79.3967, 43.639], "centroid": [-79.36544332199082, 43.659603298444786], "screen_name": "ChefCWies", "time": 1457565265.0, "tid": 707630635142225920, "text": "Got everything I need.... I think \ud83d\ude01 #menuwriting #alldayallnight\u2026 https://t.co/RfrBNukWD7", "created_at": "Wed Mar 09 18:14:25 +0000 2016", "klabel": 110}}, {"geometry": {"type": "Point", "coordinates": [-79.3952, 43.64]}, "type": "Feature", "id": 749762559121559553, "properties": {"loc": [-79.3952, 43.64], "centroid": [-79.36544332199082, 43.659603298444786], "screen_name": "Type1Dayna", "time": 1467610298.0, "tid": 749762559121559553, "text": "Lobster Alfredo kinda the sauce didn't turn out as I hoped still tasted awesome #fitfood\u2026 https://t.co/weYgztTii0", "created_at": "Mon Jul 04 00:31:38 +0000 2016", "klabel": 110}}, {"geometry": {"type": "Point", "coordinates": [-79.39531336, 43.63580147]}, "type": "Feature", "id": 749763048378863616, "properties": {"loc": [-79.39531336, 43.63580147], "centroid": [-79.36544332199082, 43.659603298444786], "screen_name": "Worl_Orda", "time": 1467610415.0, "tid": 749763048378863616, "text": "Boat full n people get left \ud83d\ude02\ud83d\ude02\ud83d\ude02 fuckry @ Yankee Lady Cruises https://t.co/DjKF0sZnuS", "created_at": "Mon Jul 04 00:33:35 +0000 2016", "klabel": 110}}, {"geometry": {"type": "Point", "coordinates": [-79.3960986, 43.63190316]}, "type": "Feature", "id": 749773697771331584, "properties": {"loc": [-79.3960986, 43.63190316], "centroid": [-79.36544332199082, 43.659603298444786], "screen_name": "NancyMarchiotti", "time": 1467612954.0, "tid": 749773697771331584, "text": "BEARSGRL is home...Thank You @porterairlines for amazing service on\u2026 https://t.co/9Te8zRWul0", "created_at": "Mon Jul 04 01:15:54 +0000 2016", "klabel": 110}}, {"geometry": {"type": "Point", "coordinates": [-79.40171, 43.63201]}, "type": "Feature", "id": 749778440564408320, "properties": {"loc": [-79.40171, 43.63201], "centroid": [-79.36544332199082, 43.659603298444786], "screen_name": "mariazavidova", "time": 1467614085.0, "tid": 749778440564408320, "text": "Happy Pride! #torontopride #loveislove \u2764\ufe0f\ud83d\udc9b\ud83d\udc9a\ud83d\udc99\ud83d\udc9c @ National Yacht Club https://t.co/KKC1Lu0N1W", "created_at": "Mon Jul 04 01:34:45 +0000 2016", "klabel": 110}}, {"geometry": {"type": "Point", "coordinates": [-79.3960986, 43.63190316]}, "type": "Feature", "id": 749783839699075072, "properties": {"loc": [-79.3960986, 43.63190316], "centroid": [-79.36544332199082, 43.659603298444786], "screen_name": "NancyMarchiotti", "time": 1467615372.0, "tid": 749783839699075072, "text": "Being the only person on the ferry to the city meant I got to\u2026 https://t.co/BKZ03WMpjl", "created_at": "Mon Jul 04 01:56:12 +0000 2016", "klabel": 110}}, {"geometry": {"type": "Point", "coordinates": [-79.3960986, 43.63190316]}, "type": "Feature", "id": 749803611857747968, "properties": {"loc": [-79.3960986, 43.63190316], "centroid": [-79.36544332199082, 43.659603298444786], "screen_name": "msdimple10", "time": 1467620086.0, "tid": 749803611857747968, "text": "@tyoknat \u2764\ufe0f @ Billy Bishop Toronto City Airport https://t.co/xlSqvcs6aJ", "created_at": "Mon Jul 04 03:14:46 +0000 2016", "klabel": 110}}, {"geometry": {"type": "Point", "coordinates": [-79.39531336, 43.63580147]}, "type": "Feature", "id": 749804798183170051, "properties": {"loc": [-79.39531336, 43.63580147], "centroid": [-79.36544332199082, 43.659603298444786], "screen_name": "Worl_Orda", "time": 1467620369.0, "tid": 749804798183170051, "text": "This Friday Loud #CleanStamp @ Blue Diamond #SwankyOnTheLake @\u2026 https://t.co/G4OFjyMHM7", "created_at": "Mon Jul 04 03:19:29 +0000 2016", "klabel": 110}}, {"geometry": {"type": "Point", "coordinates": [-79.40489275, 43.6383431]}, "type": "Feature", "id": 749810165344509952, "properties": {"loc": [-79.40489275, 43.6383431], "centroid": [-79.36544332199082, 43.659603298444786], "screen_name": "stenoodie", "time": 1467621648.0, "tid": 749810165344509952, "text": "Root Beer Pork Ribs from Rasa from @tasteoftoronto! \ud83d\ude01 #latergram #blogged @ Fort York National\u2026 https://t.co/lbg0BPqHpv", "created_at": "Mon Jul 04 03:40:48 +0000 2016", "klabel": 110}}, {"geometry": {"type": "Point", "coordinates": [-79.40489275, 43.6383431]}, "type": "Feature", "id": 749817686071320576, "properties": {"loc": [-79.40489275, 43.6383431], "centroid": [-79.36544332199082, 43.659603298444786], "screen_name": "stenoodie", "time": 1467623441.0, "tid": 749817686071320576, "text": "Olive Oil Poached Tuna from Little Sister Indonesian &amp; Noorden Food Bar at @tasteoftoronto! \ud83d\ude0b\u2026 https://t.co/xdHn60Omix", "created_at": "Mon Jul 04 04:10:41 +0000 2016", "klabel": 110}}, {"geometry": {"type": "Point", "coordinates": [-79.3972214, 43.6406009]}, "type": "Feature", "id": 749950149464625152, "properties": {"loc": [-79.3972214, 43.6406009], "centroid": [-79.36544332199082, 43.659603298444786], "screen_name": "tpscalls", "time": 1467655023.0, "tid": 749950149464625152, "text": "Unknown Trouble | Fort York Blvd &amp; Iceboat Ter [52 Div.] 07/04 08:53 #Downtown #Toronto", "created_at": "Mon Jul 04 12:57:03 +0000 2016", "klabel": 110}}, {"geometry": {"type": "Point", "coordinates": [-79.3972214, 43.6406009]}, "type": "Feature", "id": 749950901234896897, "properties": {"loc": [-79.3972214, 43.6406009], "centroid": [-79.36544332199082, 43.659603298444786], "screen_name": "tpscalls", "time": 1467655202.0, "tid": 749950901234896897, "text": "Unknown Trouble | Fort York Blvd &amp; Iceboat Ter [14 Div.] 07/04 08:55 #Downtown #Toronto", "created_at": "Mon Jul 04 13:00:02 +0000 2016", "klabel": 110}}, {"geometry": {"type": "Point", "coordinates": [-79.3952, 43.64]}, "type": "Feature", "id": 750006713453981696, "properties": {"loc": [-79.3952, 43.64], "centroid": [-79.36544332199082, 43.659603298444786], "screen_name": "Type1Dayna", "time": 1467668509.0, "tid": 750006713453981696, "text": "#whatsforlunch TBKT #turkeybacon #kale #tomato only 8 points #weightwatchers #healthymealideas\u2026 https://t.co/CTTkgsdFAi", "created_at": "Mon Jul 04 16:41:49 +0000 2016", "klabel": 110}}, {"geometry": {"type": "Point", "coordinates": [-79.39615488, 43.63160243]}, "type": "Feature", "id": 750066011714510848, "properties": {"loc": [-79.39615488, 43.63160243], "centroid": [-79.36544332199082, 43.659603298444786], "screen_name": "timboston", "time": 1467682647.0, "tid": 750066011714510848, "text": "I'm at Billy Bishop Toronto City Airport - @bbishopairport in Toronto, ON https://t.co/g76AYzbSD5", "created_at": "Mon Jul 04 20:37:27 +0000 2016", "klabel": 110}}, {"geometry": {"type": "Point", "coordinates": [-79.400503, 43.6367301]}, "type": "Feature", "id": 750086393611726848, "properties": {"loc": [-79.400503, 43.6367301], "centroid": [-79.36544332199082, 43.659603298444786], "screen_name": "tmj_gta_hrta", "time": 1467687506.0, "tid": 750086393611726848, "text": "Starbucks: Barista (CA) (600 FLEET STREET, 18, #TORONTO, ON) https://t.co/5OFqbwOY8G #Hospitality #Veterans #Job #Jobs #Hiring #CareerArc", "created_at": "Mon Jul 04 21:58:26 +0000 2016", "klabel": 110}}, {"geometry": {"type": "Point", "coordinates": [-79.3937534, 43.6371836]}, "type": "Feature", "id": 750104555078164481, "properties": {"loc": [-79.3937534, 43.6371836], "centroid": [-79.36544332199082, 43.659603298444786], "screen_name": "paulineramos", "time": 1467691836.0, "tid": 750104555078164481, "text": "Welcome to the jungle #beaglegram #harleythedog #igerstoronto #dogsofinstagram @ Toronto Music\u2026 https://t.co/nfUQdKhXT5", "created_at": "Mon Jul 04 23:10:36 +0000 2016", "klabel": 110}}, {"geometry": {"type": "Point", "coordinates": [-79.3960986, 43.63190316]}, "type": "Feature", "id": 750107502671458305, "properties": {"loc": [-79.3960986, 43.63190316], "centroid": [-79.36544332199082, 43.659603298444786], "screen_name": "gradientechoes", "time": 1467692539.0, "tid": 750107502671458305, "text": "Goodbye Toronto! It's been epic! #pride #torontopride #cntower #pridetoronto @ Billy Bishop\u2026 https://t.co/ULUzOdjlHZ", "created_at": "Mon Jul 04 23:22:19 +0000 2016", "klabel": 110}}, {"geometry": {"type": "Point", "coordinates": [-79.3960986, 43.63190316]}, "type": "Feature", "id": 750149132988350464, "properties": {"loc": [-79.3960986, 43.63190316], "centroid": [-79.36544332199082, 43.659603298444786], "screen_name": "Milka_Ran", "time": 1467702465.0, "tid": 750149132988350464, "text": "Some people are just disgusting.   Keep your feet fungus off of the seats,  and magazines.\u2026 https://t.co/AosCoqZNY4", "created_at": "Tue Jul 05 02:07:45 +0000 2016", "klabel": 110}}, {"geometry": {"type": "Point", "coordinates": [-79.3937534, 43.6371836]}, "type": "Feature", "id": 750158347521908736, "properties": {"loc": [-79.3937534, 43.6371836], "centroid": [-79.36544332199082, 43.659603298444786], "screen_name": "raviakaram", "time": 1467704661.0, "tid": 750158347521908736, "text": "#Patterns #Flower #Yellow #White @ Toronto Music Garden https://t.co/f48PHg2f5l", "created_at": "Tue Jul 05 02:44:21 +0000 2016", "klabel": 110}}, {"geometry": {"type": "Point", "coordinates": [-79.39656479, 43.63258977]}, "type": "Feature", "id": 750168353927344128, "properties": {"loc": [-79.39656479, 43.63258977], "centroid": [-79.36544332199082, 43.659603298444786], "screen_name": "paoaayalac", "time": 1467707047.0, "tid": 750168353927344128, "text": "Happy Love Weekend!!  \ud83c\udf08\u2764\ufe0f\ud83d\udc9b\ud83d\udc9a\ud83d\udc99\ud83d\udc9c #Pride @ Toronto Harbourfront https://t.co/zy9U5RoYem", "created_at": "Tue Jul 05 03:24:07 +0000 2016", "klabel": 110}}, {"geometry": {"type": "Point", "coordinates": [-79.3944517, 43.640268]}, "type": "Feature", "id": 750176647308054529, "properties": {"loc": [-79.3944517, 43.640268], "centroid": [-79.36544332199082, 43.659603298444786], "screen_name": "tpscalls", "time": 1467709024.0, "tid": 750176647308054529, "text": "Fail To Remain Personal Injury Collision | Telegram Mews &amp; Fort York Blvd [HP] 07/04 23:51 #Downtown #Toronto", "created_at": "Tue Jul 05 03:57:04 +0000 2016", "klabel": 110}}, {"geometry": {"type": "Point", "coordinates": [-79.40000153, 43.63000107]}, "type": "Feature", "id": 750258172779237376, "properties": {"loc": [-79.40000153, 43.63000107], "centroid": [-79.36544332199082, 43.659603298444786], "screen_name": "akari_oozora", "time": 1467728462.0, "tid": 750258172779237376, "text": "Toronto, Ontario\n19.0\u00b0C | 66.0\u00b0F\nHumidity: 64%\nMostly Cloudy https://t.co/XSwLyBI6Wk", "created_at": "Tue Jul 05 09:21:02 +0000 2016", "klabel": 110}}, {"geometry": {"type": "Point", "coordinates": [-79.40000153, 43.63000107]}, "type": "Feature", "id": 750258174448504833, "properties": {"loc": [-79.40000153, 43.63000107], "centroid": [-79.36544332199082, 43.659603298444786], "screen_name": "oozorakko", "time": 1467728462.0, "tid": 750258174448504833, "text": "@akari_oozora Source: \"IMG_0597\" by lars_o_matic on Flickr\nhttps://t.co/XQsz1szy4C", "created_at": "Tue Jul 05 09:21:02 +0000 2016", "klabel": 110}}, {"geometry": {"type": "Point", "coordinates": [-79.39597128, 43.63156868]}, "type": "Feature", "id": 750302703507673090, "properties": {"loc": [-79.39597128, 43.63156868], "centroid": [-79.36544332199082, 43.659603298444786], "screen_name": "Sofiaraujomejia", "time": 1467739079.0, "tid": 750302703507673090, "text": "\ud83d\udd1b @ Porter Lounge - Billy Bishop Airport https://t.co/38TEWT02IO", "created_at": "Tue Jul 05 12:17:59 +0000 2016", "klabel": 110}}, {"geometry": {"type": "Point", "coordinates": [-79.40602, 43.63527]}, "type": "Feature", "id": 750321289529794561, "properties": {"loc": [-79.40602, 43.63527], "centroid": [-79.36544332199082, 43.659603298444786], "screen_name": "annano", "time": 1467743510.0, "tid": 750321289529794561, "text": "As beautiful as this picture looks \ud83d\ude0a @ Coronation Park https://t.co/wyvo9yfXq0", "created_at": "Tue Jul 05 13:31:50 +0000 2016", "klabel": 110}}, {"geometry": {"type": "Point", "coordinates": [-79.3937534, 43.6371836]}, "type": "Feature", "id": 750328079080300544, "properties": {"loc": [-79.3937534, 43.6371836], "centroid": [-79.36544332199082, 43.659603298444786], "screen_name": "atumang921", "time": 1467745129.0, "tid": 750328079080300544, "text": "06.05.16  When we work together, we can achieve more... #fotomatic921 #toronto #garden #bees\u2026 https://t.co/HGGvptF0Vu", "created_at": "Tue Jul 05 13:58:49 +0000 2016", "klabel": 110}}, {"geometry": {"type": "Point", "coordinates": [-79.4065392, 43.6368971]}, "type": "Feature", "id": 750340900899913728, "properties": {"loc": [-79.4065392, 43.6368971], "centroid": [-79.36544332199082, 43.659603298444786], "screen_name": "FashionRedFox", "time": 1467748186.0, "tid": 750340900899913728, "text": "| D\u00e9couvrez, sur le blog, mon top 5 des restaurants que j'ai d\u00e9couvert lors de l'\u00e9v\u00e9nement\u2026 https://t.co/ICiiboFUN2", "created_at": "Tue Jul 05 14:49:46 +0000 2016", "klabel": 110}}, {"geometry": {"type": "Point", "coordinates": [-79.3944199, 43.6289467]}, "type": "Feature", "id": 750359885896966144, "properties": {"loc": [-79.3944199, 43.6289467], "centroid": [-79.36544332199082, 43.659603298444786], "screen_name": "Sherry_Stahl", "time": 1467752712.0, "tid": 750359885896966144, "text": "I loved #WorthLiving by @MaryDeMuth @ReadBakerBooks Check out my #PaperbackPic #BookReview https://t.co/Mvy9kFoMYE", "created_at": "Tue Jul 05 16:05:12 +0000 2016", "klabel": 110}}, {"geometry": {"type": "Point", "coordinates": [-79.39732931, 43.64039969]}, "type": "Feature", "id": 750371440793362432, "properties": {"loc": [-79.39732931, 43.64039969], "centroid": [-79.36544332199082, 43.659603298444786], "screen_name": "Murfiano9", "time": 1467755467.0, "tid": 750371440793362432, "text": "#ted #ireland #canada \ud83d\ude00\ud83d\udc3b\ud83d\udc4d\ud83c\uddee\ud83c\uddea\ud83c\udde8\ud83c\udde6 @ 21 Iceboat Terrace, Toronto https://t.co/gBAaDyIVOk", "created_at": "Tue Jul 05 16:51:07 +0000 2016", "klabel": 110}}, {"geometry": {"type": "Point", "coordinates": [-79.39521, 43.6361]}, "type": "Feature", "id": 751239963962847232, "properties": {"loc": [-79.39521, 43.6361], "centroid": [-79.36544332199082, 43.659603298444786], "screen_name": "XoXoAng3l", "time": 1467962539.0, "tid": 751239963962847232, "text": "Super hot day, but loved the island, drinks and sugar. #worklife #workparty #latergram @ Island\u2026 https://t.co/TTSxzqvgvy", "created_at": "Fri Jul 08 02:22:19 +0000 2016", "klabel": 110}}, {"geometry": {"type": "Point", "coordinates": [-79.40000153, 43.63000107]}, "type": "Feature", "id": 751717720090091520, "properties": {"loc": [-79.40000153, 43.63000107], "centroid": [-79.36544332199082, 43.659603298444786], "screen_name": "akari_oozora", "time": 1468076445.0, "tid": 751717720090091520, "text": "Toronto, Ontario\n19.0\u00b0C | 66.0\u00b0F\nHumidity: 94%\nMostly Cloudy https://t.co/q6rNGSohyt", "created_at": "Sat Jul 09 10:00:45 +0000 2016", "klabel": 110}}, {"geometry": {"type": "Point", "coordinates": [-79.4065392, 43.6368971]}, "type": "Feature", "id": 751731992002228224, "properties": {"loc": [-79.4065392, 43.6368971], "centroid": [-79.36544332199082, 43.659603298444786], "screen_name": "stenoodie", "time": 1468079848.0, "tid": 751731992002228224, "text": "Ice cream sandwich from Rasa @tasteoftoronto: fernet branca cookies, pistachio gelato. So unique\u2026 https://t.co/o73LkTLi3I", "created_at": "Sat Jul 09 10:57:28 +0000 2016", "klabel": 110}}, {"geometry": {"type": "Point", "coordinates": [-79.40427951, 43.63847231]}, "type": "Feature", "id": 751810594328743936, "properties": {"loc": [-79.40427951, 43.63847231], "centroid": [-79.36544332199082, 43.659603298444786], "screen_name": "jerw", "time": 1468098588.0, "tid": 751810594328743936, "text": "Woot first one. Caught next to a man sleeping... Real world creepiness. @ Fort York National\u2026 https://t.co/1zgDszq5jB", "created_at": "Sat Jul 09 16:09:48 +0000 2016", "klabel": 110}}, {"geometry": {"type": "Point", "coordinates": [-79.39521, 43.6361]}, "type": "Feature", "id": 751855215196901376, "properties": {"loc": [-79.39521, 43.6361], "centroid": [-79.36544332199082, 43.659603298444786], "screen_name": "TheMintedMama", "time": 1468109226.0, "tid": 751855215196901376, "text": "Island life \u26f5\ufe0f My look from Wednesday's @greygoosecanada event at the #islandyachtclub / Shop\u2026 https://t.co/gjQ2KJEIiv", "created_at": "Sat Jul 09 19:07:06 +0000 2016", "klabel": 110}}, {"geometry": {"type": "Point", "coordinates": [-79.406502, 43.636524]}, "type": "Feature", "id": 751934580144402435, "properties": {"loc": [-79.406502, 43.636524], "centroid": [-79.36544332199082, 43.659603298444786], "screen_name": "Tylersdaytoday", "time": 1468128148.0, "tid": 751934580144402435, "text": "I made these with the expert guidance of @anitabot  #NewBaker #nanaimo #nanaimobars #1sttime @\u2026 https://t.co/u5KNMJlB5m", "created_at": "Sun Jul 10 00:22:28 +0000 2016", "klabel": 110}}, {"geometry": {"type": "Point", "coordinates": [-79.406502, 43.636524]}, "type": "Feature", "id": 751956763381997568, "properties": {"loc": [-79.406502, 43.636524], "centroid": [-79.36544332199082, 43.659603298444786], "screen_name": "Tylersdaytoday", "time": 1468133437.0, "tid": 751956763381997568, "text": "When you start your sunset selfie too early and @anitabot has to block the sun with a limb.\u2026 https://t.co/2zI4DlbjXD", "created_at": "Sun Jul 10 01:50:37 +0000 2016", "klabel": 110}}, {"geometry": {"type": "Point", "coordinates": [-79.39472059, 43.63322171]}, "type": "Feature", "id": 751965297196699648, "properties": {"loc": [-79.39472059, 43.63322171], "centroid": [-79.36544332199082, 43.659603298444786], "screen_name": "haley_heymoon", "time": 1468135472.0, "tid": 751965297196699648, "text": "Customs: \"What are you planning to do in Canada?\" \nMe: \"You know just.... Eating food.\" \n \nWhy am I me? \n(This was in my drafts so I'm late)", "created_at": "Sun Jul 10 02:24:32 +0000 2016", "klabel": 110}}, {"geometry": {"type": "Point", "coordinates": [-79.4052235, 43.6368253]}, "type": "Feature", "id": 752011988428058624, "properties": {"loc": [-79.4052235, 43.6368253], "centroid": [-79.36544332199082, 43.659603298444786], "screen_name": "tpscalls", "time": 1468146604.0, "tid": 752011988428058624, "text": "Property Damage Collision | Gzowski Blvd &amp; Angelique St [HP] 07/10 01:26 #Niagara #Toronto", "created_at": "Sun Jul 10 05:30:04 +0000 2016", "klabel": 110}}, {"geometry": {"type": "Point", "coordinates": [-79.40000153, 43.63000107]}, "type": "Feature", "id": 752130511544475652, "properties": {"loc": [-79.40000153, 43.63000107], "centroid": [-79.36544332199082, 43.659603298444786], "screen_name": "akari_oozora", "time": 1468174862.0, "tid": 752130511544475652, "text": "Toronto, Ontario\n22.0\u00b0C | 71.0\u00b0F\nHumidity: 60%\nClear https://t.co/pl4eLRHjbP", "created_at": "Sun Jul 10 13:21:02 +0000 2016", "klabel": 110}}, {"geometry": {"type": "Point", "coordinates": [-79.40000153, 43.63000107]}, "type": "Feature", "id": 752130513620598784, "properties": {"loc": [-79.40000153, 43.63000107], "centroid": [-79.36544332199082, 43.659603298444786], "screen_name": "oozorakko", "time": 1468174863.0, "tid": 752130513620598784, "text": "@akari_oozora Source: \"Lake view\" by pgaif13 on Flickr\nhttps://t.co/imZUMXVvQa", "created_at": "Sun Jul 10 13:21:03 +0000 2016", "klabel": 110}}, {"geometry": {"type": "Point", "coordinates": [-79.39521, 43.6361]}, "type": "Feature", "id": 752147616893317121, "properties": {"loc": [-79.39521, 43.6361], "centroid": [-79.36544332199082, 43.659603298444786], "screen_name": "thenewgirldar", "time": 1468178940.0, "tid": 752147616893317121, "text": "Have you seen the new post from last shenanigans from @greygoosecanada? Now live on the blog the\u2026 https://t.co/TpA4ehPqAV", "created_at": "Sun Jul 10 14:29:00 +0000 2016", "klabel": 110}}, {"geometry": {"type": "Point", "coordinates": [-79.400503, 43.6367301]}, "type": "Feature", "id": 752149093275676673, "properties": {"loc": [-79.400503, 43.6367301], "centroid": [-79.36544332199082, 43.659603298444786], "screen_name": "tmj_gta_hrta", "time": 1468179292.0, "tid": 752149093275676673, "text": "Can you recommend anyone for this #job? Shift Supervisor (CA) - https://t.co/7YpTzPmA4H #Hospitality 600 FLEET STREET, 18, #TORONTO, ON", "created_at": "Sun Jul 10 14:34:52 +0000 2016", "klabel": 110}}, {"geometry": {"type": "Point", "coordinates": [-79.39673, 43.64002]}, "type": "Feature", "id": 752156409710702592, "properties": {"loc": [-79.39673, 43.64002], "centroid": [-79.36544332199082, 43.659603298444786], "screen_name": "hunterslanding", "time": 1468181037.0, "tid": 752156409710702592, "text": "Who's ready for the final showdown? Portugal v. France today at 3 \ud83c\udfc6\u26bd\ufe0f\ud83c\udf7e full sound and plenty of\u2026 https://t.co/uzz3LTBIdp", "created_at": "Sun Jul 10 15:03:57 +0000 2016", "klabel": 110}}, {"geometry": {"type": "Point", "coordinates": [-79.3960986, 43.63190316]}, "type": "Feature", "id": 752195661618147328, "properties": {"loc": [-79.3960986, 43.63190316], "centroid": [-79.36544332199082, 43.659603298444786], "screen_name": "emilyannclarey", "time": 1468190395.0, "tid": 752195661618147328, "text": "Successful weekend celebrating this beauty \ud83d\udc9b\ud83d\udc70 #bachelorette #family #sisters #homeforarest @\u2026 https://t.co/4KCB9881A9", "created_at": "Sun Jul 10 17:39:55 +0000 2016", "klabel": 110}}, {"geometry": {"type": "Point", "coordinates": [-79.4005814, 43.6375084]}, "type": "Feature", "id": 752245592621846528, "properties": {"loc": [-79.4005814, 43.6375084], "centroid": [-79.36544332199082, 43.659603298444786], "screen_name": "vsalva", "time": 1468202299.0, "tid": 752245592621846528, "text": "Sunday drinking partner \ud83d\udc80 #fred #skull #myurbanbarn #lazyafternoon #toronto #6ix #views\u2026 https://t.co/WbSUvqFtyb", "created_at": "Sun Jul 10 20:58:19 +0000 2016", "klabel": 110}}, {"geometry": {"type": "Point", "coordinates": [-79.39656479, 43.63258977]}, "type": "Feature", "id": 752255344924037122, "properties": {"loc": [-79.39656479, 43.63258977], "centroid": [-79.36544332199082, 43.659603298444786], "screen_name": "saniyad08", "time": 1468204625.0, "tid": 752255344924037122, "text": "Perfect day for a boat ride. #kajama #sail #toronto #sundayfunday #harbourfront @ Toronto\u2026 https://t.co/OWD8ILzbVM", "created_at": "Sun Jul 10 21:37:05 +0000 2016", "klabel": 110}}, {"geometry": {"type": "Point", "coordinates": [-79.3944517, 43.640268]}, "type": "Feature", "id": 752295855617638400, "properties": {"loc": [-79.3944517, 43.640268], "centroid": [-79.36544332199082, 43.659603298444786], "screen_name": "tpscalls", "time": 1468214283.0, "tid": 752295855617638400, "text": "Noise Complaint | Fort York Blvd &amp; Brunel Crt [14 Div.] 07/10 20:14 #Downtown #Toronto", "created_at": "Mon Jul 11 00:18:03 +0000 2016", "klabel": 110}}, {"geometry": {"type": "Point", "coordinates": [-79.39697, 43.63998]}, "type": "Feature", "id": 752309533930815488, "properties": {"loc": [-79.39697, 43.63998], "centroid": [-79.36544332199082, 43.659603298444786], "screen_name": "andreawebb1", "time": 1468217544.0, "tid": 752309533930815488, "text": "Aaand I'm back. Sunday Sangria. \ud83c\udf79 #machoradiobar #toronto #sangria #mexicano #sundayfunday\u2026 https://t.co/RAmW180qOO", "created_at": "Mon Jul 11 01:12:24 +0000 2016", "klabel": 110}}, {"geometry": {"type": "Point", "coordinates": [-79.3952, 43.64]}, "type": "Feature", "id": 752474917786914818, "properties": {"loc": [-79.3952, 43.64], "centroid": [-79.36544332199082, 43.659603298444786], "screen_name": "pjulianphoto", "time": 1468256975.0, "tid": 752474917786914818, "text": "So much time we spend searching for a clue\nWaiting for the paint to dry and trying to be the\u2026 https://t.co/0VKJJAe7FZ", "created_at": "Mon Jul 11 12:09:35 +0000 2016", "klabel": 110}}, {"geometry": {"type": "Point", "coordinates": [-79.40537334, 43.63637568]}, "type": "Feature", "id": 752482325510950912, "properties": {"loc": [-79.40537334, 43.63637568], "centroid": [-79.36544332199082, 43.659603298444786], "screen_name": "hops", "time": 1468258741.0, "tid": 752482325510950912, "text": "Ride pooling is a new one for me. @uber #wpc16 #iamcp @iamcpus (@ Waterpark City Condos) https://t.co/0sFh7rOvCc https://t.co/pDE02fnyEI", "created_at": "Mon Jul 11 12:39:01 +0000 2016", "klabel": 110}}, {"geometry": {"type": "Point", "coordinates": [-79.4053226, 43.6362173]}, "type": "Feature", "id": 752518822658240516, "properties": {"loc": [-79.4053226, 43.6362173], "centroid": [-79.36544332199082, 43.659603298444786], "screen_name": "tpscalls", "time": 1468267443.0, "tid": 752518822658240516, "text": "Fire | Angelique St &amp; Fleet St [14 Div.] 07/11 10:59 #Niagara #Toronto", "created_at": "Mon Jul 11 15:04:03 +0000 2016", "klabel": 110}}, {"geometry": {"type": "Point", "coordinates": [-79.40333333, 43.63902778]}, "type": "Feature", "id": 752560177535221760, "properties": {"loc": [-79.40333333, 43.63902778], "centroid": [-79.36544332199082, 43.659603298444786], "screen_name": "dj_kflex4D", "time": 1468277302.0, "tid": 752560177535221760, "text": "July 31st: #ChutneyInDePark2016 @ Fort York \u2022 $40 Tickets for Adults &amp; $20 Tickets for Children\u2026 https://t.co/3JFnscEltV", "created_at": "Mon Jul 11 17:48:22 +0000 2016", "klabel": 110}}, {"geometry": {"type": "Point", "coordinates": [-79.40000153, 43.63000107]}, "type": "Feature", "id": 752568401948737540, "properties": {"loc": [-79.40000153, 43.63000107], "centroid": [-79.36544332199082, 43.659603298444786], "screen_name": "akari_oozora", "time": 1468279263.0, "tid": 752568401948737540, "text": "Toronto, Ontario\n22.0\u00b0C | 71.0\u00b0F\nHumidity: 73%\nOvercast https://t.co/fftiiVzA41", "created_at": "Mon Jul 11 18:21:03 +0000 2016", "klabel": 110}}, {"geometry": {"type": "Point", "coordinates": [-79.40000153, 43.63000107]}, "type": "Feature", "id": 752568403664199681, "properties": {"loc": [-79.40000153, 43.63000107], "centroid": [-79.36544332199082, 43.659603298444786], "screen_name": "oozorakko", "time": 1468279264.0, "tid": 752568403664199681, "text": "@akari_oozora Source: \"sunny\" by clairee_0722 on Flickr\nhttps://t.co/wNTypQzS1W", "created_at": "Mon Jul 11 18:21:04 +0000 2016", "klabel": 110}}, {"geometry": {"type": "Point", "coordinates": [-79.4050866, 43.6375233]}, "type": "Feature", "id": 752576959604031492, "properties": {"loc": [-79.4050866, 43.6375233], "centroid": [-79.36544332199082, 43.659603298444786], "screen_name": "tofire", "time": 1468281304.0, "tid": 752576959604031492, "text": "Alarm Commercial/industrial - Fort York Boulevard b/w Angelique St / Fleet St, Toronto (6 Trucks)", "created_at": "Mon Jul 11 18:55:04 +0000 2016", "klabel": 110}}, {"geometry": {"type": "Point", "coordinates": [-79.3952, 43.64]}, "type": "Feature", "id": 752614678807719938, "properties": {"loc": [-79.3952, 43.64], "centroid": [-79.36544332199082, 43.659603298444786], "screen_name": "DavidJSims_", "time": 1468290296.0, "tid": 752614678807719938, "text": "Just started working with Cordell McDonald this weekend! He contacted me wanting to get right\u2026 https://t.co/P3M1lxAq5a", "created_at": "Mon Jul 11 21:24:56 +0000 2016", "klabel": 110}}, {"geometry": {"type": "Point", "coordinates": [-79.39615488, 43.63160243]}, "type": "Feature", "id": 752627238965829632, "properties": {"loc": [-79.39615488, 43.63160243], "centroid": [-79.36544332199082, 43.659603298444786], "screen_name": "Sandstang", "time": 1468293291.0, "tid": 752627238965829632, "text": "I'm at Billy Bishop Toronto City Airport - @bbishopairport in Toronto, ON https://t.co/ZjYWxErGPb", "created_at": "Mon Jul 11 22:14:51 +0000 2016", "klabel": 110}}, {"geometry": {"type": "Point", "coordinates": [-79.4013217, 43.6373573]}, "type": "Feature", "id": 752633330777124864, "properties": {"loc": [-79.4013217, 43.6373573], "centroid": [-79.36544332199082, 43.659603298444786], "screen_name": "tpscalls", "time": 1468294743.0, "tid": 752633330777124864, "text": "Dispute | Bathurst St &amp; Iannuzzi St [14 Div.] 07/11 18:35 #Niagara #Toronto", "created_at": "Mon Jul 11 22:39:03 +0000 2016", "klabel": 110}}, {"geometry": {"type": "Point", "coordinates": [-79.40333333, 43.63902778]}, "type": "Feature", "id": 752658973527011328, "properties": {"loc": [-79.40333333, 43.63902778], "centroid": [-79.36544332199082, 43.659603298444786], "screen_name": "TorontoCityRuns", "time": 1468300857.0, "tid": 752658973527011328, "text": "12 hours later...\n\n#CityRunningTours #TorontoCityRuns #CNTower #Silhouette #TorontoSkyline\u2026 https://t.co/dZuOxmzjAT", "created_at": "Tue Jul 12 00:20:57 +0000 2016", "klabel": 110}}, {"geometry": {"type": "Point", "coordinates": [-79.40537334, 43.63637568]}, "type": "Feature", "id": 752742383981330432, "properties": {"loc": [-79.40537334, 43.63637568], "centroid": [-79.36544332199082, 43.659603298444786], "screen_name": "hops", "time": 1468320744.0, "tid": 752742383981330432, "text": "I'm at Waterpark City Condos in Toronto, ON https://t.co/s54AdAwJ9f", "created_at": "Tue Jul 12 05:52:24 +0000 2016", "klabel": 110}}, {"geometry": {"type": "Point", "coordinates": [-79.3998932, 43.636791]}, "type": "Feature", "id": 752816784491831296, "properties": {"loc": [-79.3998932, 43.636791], "centroid": [-79.36544332199082, 43.659603298444786], "screen_name": "tpscalls", "time": 1468338482.0, "tid": 752816784491831296, "text": "Personal Injury Collision | Fleet St &amp; Bathurst St [14 Div.] 07/12 06:43 #Niagara #Toronto", "created_at": "Tue Jul 12 10:48:02 +0000 2016", "klabel": 110}}, {"geometry": {"type": "Point", "coordinates": [-79.3960986, 43.63190316]}, "type": "Feature", "id": 752859607589003265, "properties": {"loc": [-79.3960986, 43.63190316], "centroid": [-79.36544332199082, 43.659603298444786], "screen_name": "NationalHeli", "time": 1468348692.0, "tid": 752859607589003265, "text": "Another great day for flying! \n\n________________________________________\n#cntower #torontolife\u2026 https://t.co/bK1liKInsk", "created_at": "Tue Jul 12 13:38:12 +0000 2016", "klabel": 110}}, {"geometry": {"type": "Point", "coordinates": [-79.39361, 43.63779]}, "type": "Feature", "id": 752920565124591616, "properties": {"loc": [-79.39361, 43.63779], "centroid": [-79.36544332199082, 43.659603298444786], "screen_name": "ChelsyMeiss", "time": 1468363225.0, "tid": 752920565124591616, "text": "\u26f8\ud83c\udfc6 visit to Canada by @mskostner Italian #olympic &amp; world #figureskating #champion\u2026 https://t.co/GiYT7N4Ww5", "created_at": "Tue Jul 12 17:40:25 +0000 2016", "klabel": 110}}, {"geometry": {"type": "Point", "coordinates": [-79.40427951, 43.63847231]}, "type": "Feature", "id": 752935688585285632, "properties": {"loc": [-79.40427951, 43.63847231], "centroid": [-79.36544332199082, 43.659603298444786], "screen_name": "Tylersdaytoday", "time": 1468366831.0, "tid": 752935688585285632, "text": "Brace yourself. @ Fort York National Historic Site https://t.co/GZ8msr7Lve", "created_at": "Tue Jul 12 18:40:31 +0000 2016", "klabel": 110}}, {"geometry": {"type": "Point", "coordinates": [-79.40000153, 43.63000107]}, "type": "Feature", "id": 752965957069443072, "properties": {"loc": [-79.40000153, 43.63000107], "centroid": [-79.36544332199082, 43.659603298444786], "screen_name": "oozorakko", "time": 1468374048.0, "tid": 752965957069443072, "text": "@akari_oozora Source: \"silhouette\" by clairee_0722 on Flickr\nhttps://t.co/fRmE8ORQm0", "created_at": "Tue Jul 12 20:40:48 +0000 2016", "klabel": 110}}, {"geometry": {"type": "Point", "coordinates": [-79.40000153, 43.63000107]}, "type": "Feature", "id": 752965955203072000, "properties": {"loc": [-79.40000153, 43.63000107], "centroid": [-79.36544332199082, 43.659603298444786], "screen_name": "akari_oozora", "time": 1468374047.0, "tid": 752965955203072000, "text": "Toronto, Ontario\n24.0\u00b0C | 75.0\u00b0F\nHumidity: 73%\nClear https://t.co/IxY2rKDGL2", "created_at": "Tue Jul 12 20:40:47 +0000 2016", "klabel": 110}}, {"geometry": {"type": "Point", "coordinates": [-79.399621, 43.6391701]}, "type": "Feature", "id": 752976640280440832, "properties": {"loc": [-79.399621, 43.6391701], "centroid": [-79.36544332199082, 43.659603298444786], "screen_name": "Mzukaflani", "time": 1468376595.0, "tid": 752976640280440832, "text": "\"One person's craziness is another person's reality.\" - Tim Burton. #Toronto #FortYorkBlvd\u2026 https://t.co/NOoY2U3nHv", "created_at": "Tue Jul 12 21:23:15 +0000 2016", "klabel": 110}}, {"geometry": {"type": "Point", "coordinates": [-79.40427951, 43.63847231]}, "type": "Feature", "id": 752989548276228096, "properties": {"loc": [-79.40427951, 43.63847231], "centroid": [-79.36544332199082, 43.659603298444786], "screen_name": "dasilva_josh", "time": 1468379672.0, "tid": 752989548276228096, "text": "ADID  this Sunday 17th of July 2016 @ Fort York!\n\nHard tickets available \u260e\ufe0f\u2026 https://t.co/kbrchKmQMg", "created_at": "Tue Jul 12 22:14:32 +0000 2016", "klabel": 110}}, {"geometry": {"type": "Point", "coordinates": [-79.40427951, 43.63847231]}, "type": "Feature", "id": 753002347647819776, "properties": {"loc": [-79.40427951, 43.63847231], "centroid": [-79.36544332199082, 43.659603298444786], "screen_name": "mixxx4u", "time": 1468382724.0, "tid": 753002347647819776, "text": "Toronto biggest #Chutney #Festival returns! Featuring for the first time ever in Toronto\u2026 https://t.co/IWxrzrSYRA", "created_at": "Tue Jul 12 23:05:24 +0000 2016", "klabel": 110}}, {"geometry": {"type": "Point", "coordinates": [-79.39380137, 43.6370838]}, "type": "Feature", "id": 753011680150446080, "properties": {"loc": [-79.39380137, 43.6370838], "centroid": [-79.36544332199082, 43.659603298444786], "screen_name": "WaynieTDot", "time": 1468384949.0, "tid": 753011680150446080, "text": "Stumbled upon a presentation randomly by #ArtsInTheParks...'Adapting To The Future' Ummm sure https://t.co/ALPDhIb2Dm", "created_at": "Tue Jul 12 23:42:29 +0000 2016", "klabel": 110}}, {"geometry": {"type": "Point", "coordinates": [-79.40427951, 43.63847231]}, "type": "Feature", "id": 753021209898430464, "properties": {"loc": [-79.40427951, 43.63847231], "centroid": [-79.36544332199082, 43.659603298444786], "screen_name": "mixxx4u", "time": 1468387221.0, "tid": 753021209898430464, "text": "Toronto biggest #Chutney #Festival returns! This time we going downtown with Omadath aka\u2026 https://t.co/QyBa89oHMD", "created_at": "Wed Jul 13 00:20:21 +0000 2016", "klabel": 110}}, {"geometry": {"type": "Point", "coordinates": [-79.40427951, 43.63847231]}, "type": "Feature", "id": 753028841547796480, "properties": {"loc": [-79.40427951, 43.63847231], "centroid": [-79.36544332199082, 43.659603298444786], "screen_name": "mixxx4u", "time": 1468389041.0, "tid": 753028841547796480, "text": "#Caribana2016 #Carnival2016 \n#SocaInTheFort Sunday July 31st at #FortYorkCarnivalGrounds $30\u2026 https://t.co/4LxpopdtoZ", "created_at": "Wed Jul 13 00:50:41 +0000 2016", "klabel": 110}}, {"geometry": {"type": "Point", "coordinates": [-79.3937534, 43.6371836]}, "type": "Feature", "id": 753063592023425025, "properties": {"loc": [-79.3937534, 43.6371836], "centroid": [-79.36544332199082, 43.659603298444786], "screen_name": "ChristineUrias", "time": 1468397326.0, "tid": 753063592023425025, "text": "I started a photography class last week. This week we talked about manual settings and it all\u2026 https://t.co/GSfzmdxHde", "created_at": "Wed Jul 13 03:08:46 +0000 2016", "klabel": 110}}, {"geometry": {"type": "Point", "coordinates": [-79.3972214, 43.6406009]}, "type": "Feature", "id": 753094621929013253, "properties": {"loc": [-79.3972214, 43.6406009], "centroid": [-79.36544332199082, 43.659603298444786], "screen_name": "tpscalls", "time": 1468404724.0, "tid": 753094621929013253, "text": "Damage Just Occurred | Fort York Blvd &amp; Iceboat Ter [14 Div.] 07/13 01:07 #Downtown #Toronto", "created_at": "Wed Jul 13 05:12:04 +0000 2016", "klabel": 110}}, {"geometry": {"type": "Point", "coordinates": [-79.3960986, 43.63190316]}, "type": "Feature", "id": 753210586989731840, "properties": {"loc": [-79.3960986, 43.63190316], "centroid": [-79.36544332199082, 43.659603298444786], "screen_name": "krisaug5", "time": 1468432372.0, "tid": 753210586989731840, "text": "Gorgeous view at the Island this morning. I'm so lucky to have such\u2026 https://t.co/AUEJ3daQsA", "created_at": "Wed Jul 13 12:52:52 +0000 2016", "klabel": 110}}, {"geometry": {"type": "Point", "coordinates": [-79.40602, 43.63527]}, "type": "Feature", "id": 753224270164156416, "properties": {"loc": [-79.40602, 43.63527], "centroid": [-79.36544332199082, 43.659603298444786], "screen_name": "trilgoouch", "time": 1468435634.0, "tid": 753224270164156416, "text": "That sweet summer glow. \ud83d\udd25 @ Coronation Park https://t.co/RoDQFSHNjy", "created_at": "Wed Jul 13 13:47:14 +0000 2016", "klabel": 110}}, {"geometry": {"type": "Point", "coordinates": [-79.3960986, 43.63190316]}, "type": "Feature", "id": 753243692517830656, "properties": {"loc": [-79.3960986, 43.63190316], "centroid": [-79.36544332199082, 43.659603298444786], "screen_name": "missjasdhanda", "time": 1468440265.0, "tid": 753243692517830656, "text": "Summer skirts  in Toronto \ud83e\udd17. #Toronto #summer #humdity @ Billy Bishop Toronto City Airport https://t.co/XEKpfELnXh", "created_at": "Wed Jul 13 15:04:25 +0000 2016", "klabel": 110}}, {"geometry": {"type": "Point", "coordinates": [-79.3937534, 43.6371836]}, "type": "Feature", "id": 753260179484016640, "properties": {"loc": [-79.3937534, 43.6371836], "centroid": [-79.36544332199082, 43.659603298444786], "screen_name": "sarahdq", "time": 1468444196.0, "tid": 753260179484016640, "text": "Music Garden! @ Toronto Music Garden https://t.co/5qQlJ8bPP1", "created_at": "Wed Jul 13 16:09:56 +0000 2016", "klabel": 110}}, {"geometry": {"type": "Point", "coordinates": [-79.4009038, 43.6375082]}, "type": "Feature", "id": 753263551180115968, "properties": {"loc": [-79.4009038, 43.6375082], "centroid": [-79.36544332199082, 43.659603298444786], "screen_name": "kaiTNXBYE", "time": 1468445000.0, "tid": 753263551180115968, "text": "Woke up to this bb staring at me. #AboutLastNight @ The Yards at Fort York https://t.co/dUC947KTQn", "created_at": "Wed Jul 13 16:23:20 +0000 2016", "klabel": 110}}, {"geometry": {"type": "Point", "coordinates": [-79.39521, 43.6361]}, "type": "Feature", "id": 753290962407919616, "properties": {"loc": [-79.39521, 43.6361], "centroid": [-79.36544332199082, 43.659603298444786], "screen_name": "ChefTrumen", "time": 1468451535.0, "tid": 753290962407919616, "text": "Active Boyz \u00a9 2016 @ Island Yacht Club Toronto https://t.co/P4dQ7le79o", "created_at": "Wed Jul 13 18:12:15 +0000 2016", "klabel": 110}}, {"geometry": {"type": "Point", "coordinates": [-79.3998932, 43.636791]}, "type": "Feature", "id": 753305517846560768, "properties": {"loc": [-79.3998932, 43.636791], "centroid": [-79.36544332199082, 43.659603298444786], "screen_name": "tofire", "time": 1468455005.0, "tid": 753305517846560768, "text": "Medical (Check Call) - Fleet St b/w Bathurst St / Iannuzzi St, Toronto (2 Trucks)", "created_at": "Wed Jul 13 19:10:05 +0000 2016", "klabel": 110}}, {"geometry": {"type": "Point", "coordinates": [-79.4019297, 43.6359179]}, "type": "Feature", "id": 753353824023224320, "properties": {"loc": [-79.4019297, 43.6359179], "centroid": [-79.36544332199082, 43.659603298444786], "screen_name": "tpscalls", "time": 1468466522.0, "tid": 753353824023224320, "text": "Property Damage Collision | Stadium Rd &amp; Lake Shore Blvd W [5GRP] 07/13 18:15 #Niagara #Toronto", "created_at": "Wed Jul 13 22:22:02 +0000 2016", "klabel": 110}}, {"geometry": {"type": "Point", "coordinates": [-79.406502, 43.636524]}, "type": "Feature", "id": 753355680514465792, "properties": {"loc": [-79.406502, 43.636524], "centroid": [-79.36544332199082, 43.659603298444786], "screen_name": "Tylersdaytoday", "time": 1468466965.0, "tid": 753355680514465792, "text": "Day 1 of 2. #newfloors #hardwood #ididnoneofit @ Waterpark City https://t.co/rfLdAitgv5", "created_at": "Wed Jul 13 22:29:25 +0000 2016", "klabel": 110}}, {"geometry": {"type": "Point", "coordinates": [-79.3960986, 43.63190316]}, "type": "Feature", "id": 753392015669235712, "properties": {"loc": [-79.3960986, 43.63190316], "centroid": [-79.36544332199082, 43.659603298444786], "screen_name": "coreyherscu", "time": 1468475628.0, "tid": 753392015669235712, "text": "Literally from \u2600\ufe0f to \ud83d\udcb8. En-route to YUL for startupfest rocking AirMax day Zeros. \ud83d\udc4b\u270c @ Billy\u2026 https://t.co/xRRhZerZhL", "created_at": "Thu Jul 14 00:53:48 +0000 2016", "klabel": 110}}, {"geometry": {"type": "Point", "coordinates": [-79.40000153, 43.63000107]}, "type": "Feature", "id": 753418929725472770, "properties": {"loc": [-79.40000153, 43.63000107], "centroid": [-79.36544332199082, 43.659603298444786], "screen_name": "akari_oozora", "time": 1468482045.0, "tid": 753418929725472770, "text": "Toronto, Ontario\n22.0\u00b0C | 71.0\u00b0F\nHumidity: 83%\nMostly Cloudy https://t.co/Y1KJaNIrs8", "created_at": "Thu Jul 14 02:40:45 +0000 2016", "klabel": 110}}, {"geometry": {"type": "Point", "coordinates": [-79.40427951, 43.63847231]}, "type": "Feature", "id": 753431340658397184, "properties": {"loc": [-79.40427951, 43.63847231], "centroid": [-79.36544332199082, 43.659603298444786], "screen_name": "mixxx4u", "time": 1468485004.0, "tid": 753431340658397184, "text": "Toronto biggest #Chutney #Festival returns! This time we going downtown!\n#ChutneyInDePark2016\u2026 https://t.co/COSEIICPlN", "created_at": "Thu Jul 14 03:30:04 +0000 2016", "klabel": 110}}, {"geometry": {"type": "Point", "coordinates": [-79.39697, 43.63998]}, "type": "Feature", "id": 753459482764673024, "properties": {"loc": [-79.39697, 43.63998], "centroid": [-79.36544332199082, 43.659603298444786], "screen_name": "DaveyDaCook", "time": 1468491713.0, "tid": 753459482764673024, "text": "Yo after work drinks #macholife #machocrew #afterworkdrinks #tdot zushi_freek @ Macho Tex Mex\u2026 https://t.co/P1ImPiN1Tg", "created_at": "Thu Jul 14 05:21:53 +0000 2016", "klabel": 110}}, {"geometry": {"type": "Point", "coordinates": [-79.39697, 43.63998]}, "type": "Feature", "id": 753461243831345152, "properties": {"loc": [-79.39697, 43.63998], "centroid": [-79.36544332199082, 43.659603298444786], "screen_name": "DaveyDaCook", "time": 1468492133.0, "tid": 753461243831345152, "text": "Love this kid #macholife #cheflife #machocrew #lovethiskid #bestengineer @ Macho Tex Mex Radio Bar https://t.co/L2qhgAEJpp", "created_at": "Thu Jul 14 05:28:53 +0000 2016", "klabel": 110}}, {"geometry": {"type": "Point", "coordinates": [-79.39697, 43.63998]}, "type": "Feature", "id": 753462124031148033, "properties": {"loc": [-79.39697, 43.63998], "centroid": [-79.36544332199082, 43.659603298444786], "screen_name": "DaveyDaCook", "time": 1468492343.0, "tid": 753462124031148033, "text": "Macho crew #machocrew #macholife #macho #afterworkdrinks @ Macho Tex Mex Radio Bar https://t.co/xMb6ykuSJg", "created_at": "Thu Jul 14 05:32:23 +0000 2016", "klabel": 110}}, {"geometry": {"type": "Point", "coordinates": [-79.3937534, 43.6371836]}, "type": "Feature", "id": 753605926624563200, "properties": {"loc": [-79.3937534, 43.6371836], "centroid": [-79.36544332199082, 43.659603298444786], "screen_name": "Moranga_Cullen", "time": 1468526628.0, "tid": 753605926624563200, "text": "#aboutlastnight #latenightwalksbythelake #downtowntoronto @ Toronto\u2026 https://t.co/MRhDJpEqaw", "created_at": "Thu Jul 14 15:03:48 +0000 2016", "klabel": 110}}, {"geometry": {"type": "Point", "coordinates": [-79.3937534, 43.6371836]}, "type": "Feature", "id": 753607306798047232, "properties": {"loc": [-79.3937534, 43.6371836], "centroid": [-79.36544332199082, 43.659603298444786], "screen_name": "NidiaBeco", "time": 1468526957.0, "tid": 753607306798047232, "text": "Me sent\u00e9 debajo de un sauce a leer. Mientras me adentraba en \u00abLos buenos Servicios\u00bb\ud83d\udcd6, el viento\u2026 https://t.co/uGqL5SJrXG", "created_at": "Thu Jul 14 15:09:17 +0000 2016", "klabel": 110}}, {"geometry": {"type": "Point", "coordinates": [-79.39656479, 43.63258977]}, "type": "Feature", "id": 753610202579107840, "properties": {"loc": [-79.39656479, 43.63258977], "centroid": [-79.36544332199082, 43.659603298444786], "screen_name": "angelichigo", "time": 1468527648.0, "tid": 753610202579107840, "text": "Just another work day. \u2693\ufe0f\u26f5\ufe0f @ Toronto Harbourfront https://t.co/bPcJqCggow", "created_at": "Thu Jul 14 15:20:48 +0000 2016", "klabel": 110}}, {"geometry": {"type": "Point", "coordinates": [-79.395622, 43.638783]}, "type": "Feature", "id": 753669196043677696, "properties": {"loc": [-79.395622, 43.638783], "centroid": [-79.36544332199082, 43.659603298444786], "screen_name": "LeashnPaws", "time": 1468541713.0, "tid": 753669196043677696, "text": "Scarlett enjoying some exercise #dogwalking #toronto #leashandpaws - https://t.co/3fHKy2QsfF", "created_at": "Thu Jul 14 19:15:13 +0000 2016", "klabel": 110}}, {"geometry": {"type": "Point", "coordinates": [-79.39673, 43.64002]}, "type": "Feature", "id": 753697763360174085, "properties": {"loc": [-79.39673, 43.64002], "centroid": [-79.36544332199082, 43.659603298444786], "screen_name": "hunterslanding", "time": 1468548524.0, "tid": 753697763360174085, "text": "Getting geared up for tonight's #hondaindy #greenflaggala \ud83c\udfce\ud83d\ude0e #events #torontoevents #party\u2026 https://t.co/LOMz8PyDBz", "created_at": "Thu Jul 14 21:08:44 +0000 2016", "klabel": 110}}, {"geometry": {"type": "Point", "coordinates": [-79.39673, 43.64002]}, "type": "Feature", "id": 753722961245470720, "properties": {"loc": [-79.39673, 43.64002], "centroid": [-79.36544332199082, 43.659603298444786], "screen_name": "Chanman83", "time": 1468554532.0, "tid": 753722961245470720, "text": "Green Flag Gala #hondaindy #toronto #torontoindy #hunterslanding #charity #event #gala\u2026 https://t.co/9Hw9FA7Nqg", "created_at": "Thu Jul 14 22:48:52 +0000 2016", "klabel": 110}}, {"geometry": {"type": "Point", "coordinates": [-79.406502, 43.636524]}, "type": "Feature", "id": 753757599049318400, "properties": {"loc": [-79.406502, 43.636524], "centroid": [-79.36544332199082, 43.659603298444786], "screen_name": "Tylersdaytoday", "time": 1468562790.0, "tid": 753757599049318400, "text": "Fini. #newfloors @ Waterpark City https://t.co/b6bsJPGvbt", "created_at": "Fri Jul 15 01:06:30 +0000 2016", "klabel": 110}}, {"geometry": {"type": "Point", "coordinates": [-79.406502, 43.636524]}, "type": "Feature", "id": 753759008075505664, "properties": {"loc": [-79.406502, 43.636524], "centroid": [-79.36544332199082, 43.659603298444786], "screen_name": "Tylersdaytoday", "time": 1468563126.0, "tid": 753759008075505664, "text": "Before and after. Old on top. New on bottom. #progress #newhome #condo @ Waterpark City https://t.co/zLJ7lpQajY", "created_at": "Fri Jul 15 01:12:06 +0000 2016", "klabel": 110}}, {"geometry": {"type": "Point", "coordinates": [-79.39615488, 43.63160243]}, "type": "Feature", "id": 753910089539522560, "properties": {"loc": [-79.39615488, 43.63160243], "centroid": [-79.36544332199082, 43.659603298444786], "screen_name": "life_of_Y", "time": 1468599146.0, "tid": 753910089539522560, "text": "Bye bye #YTZ hello #YUL (@ Billy Bishop Toronto City Airport - @bbishopairport in Toronto, ON) https://t.co/R5wcQPfqEk", "created_at": "Fri Jul 15 11:12:26 +0000 2016", "klabel": 110}}, {"geometry": {"type": "Point", "coordinates": [-79.3937534, 43.6371836]}, "type": "Feature", "id": 753916741823127552, "properties": {"loc": [-79.3937534, 43.6371836], "centroid": [-79.36544332199082, 43.659603298444786], "screen_name": "NidiaBeco", "time": 1468600733.0, "tid": 753916741823127552, "text": "Good morning, gorgeous. \ud83c\udf32\ud83d\udc90 @ Toronto Music Garden https://t.co/tXn1iO68hJ", "created_at": "Fri Jul 15 11:38:53 +0000 2016", "klabel": 110}}, {"geometry": {"type": "Point", "coordinates": [-79.39949792, 43.63013127]}, "type": "Feature", "id": 753927537353433088, "properties": {"loc": [-79.39949792, 43.63013127], "centroid": [-79.36544332199082, 43.659603298444786], "screen_name": "sarah_connors", "time": 1468603306.0, "tid": 753927537353433088, "text": "Alright Toronto let's see what pokemons u have", "created_at": "Fri Jul 15 12:21:46 +0000 2016", "klabel": 110}}, {"geometry": {"type": "Point", "coordinates": [-79.3931436, 43.62995245]}, "type": "Feature", "id": 753932971506216961, "properties": {"loc": [-79.3931436, 43.62995245], "centroid": [-79.36544332199082, 43.659603298444786], "screen_name": "sarah_connors", "time": 1468604602.0, "tid": 753932971506216961, "text": "@elizabeth_werth SHIT YES", "created_at": "Fri Jul 15 12:43:22 +0000 2016", "klabel": 110}}, {"geometry": {"type": "Point", "coordinates": [-79.39314172, 43.62994999]}, "type": "Feature", "id": 753935467012247553, "properties": {"loc": [-79.39314172, 43.62994999], "centroid": [-79.36544332199082, 43.659603298444786], "screen_name": "sarah_connors", "time": 1468605197.0, "tid": 753935467012247553, "text": "@HBAdventure @scottmatla same!", "created_at": "Fri Jul 15 12:53:17 +0000 2016", "klabel": 110}}, {"geometry": {"type": "Point", "coordinates": [-79.39597128, 43.63156868]}, "type": "Feature", "id": 753946470047416320, "properties": {"loc": [-79.39597128, 43.63156868], "centroid": [-79.36544332199082, 43.659603298444786], "screen_name": "Sofiaraujomejia", "time": 1468607820.0, "tid": 753946470047416320, "text": "Here we go again about to take off, fasten your seat belt \ud83d\udd76\u2708\ufe0f \ud83d\udd1cOttawa spanishspinner @ Porter\u2026 https://t.co/G0TKJ5pFDy", "created_at": "Fri Jul 15 13:37:00 +0000 2016", "klabel": 110}}, {"geometry": {"type": "Point", "coordinates": [-79.39615488, 43.63160243]}, "type": "Feature", "id": 753958895471722500, "properties": {"loc": [-79.39615488, 43.63160243], "centroid": [-79.36544332199082, 43.659603298444786], "screen_name": "casiestewart", "time": 1468610783.0, "tid": 753958895471722500, "text": "\u270c\ud83c\udffc\ufe0f\u2708\ufe0f\ud83c\uddfa\ud83c\uddf8 (@ Billy Bishop Toronto City Airport - @bbishopairport in Toronto, ON) https://t.co/MUVFkmIcGd https://t.co/MmiPbJOqju", "created_at": "Fri Jul 15 14:26:23 +0000 2016", "klabel": 110}}, {"geometry": {"type": "Point", "coordinates": [-79.39843229, 43.63889946]}, "type": "Feature", "id": 753964991116566529, "properties": {"loc": [-79.39843229, 43.63889946], "centroid": [-79.36544332199082, 43.659603298444786], "screen_name": "sarah_connors", "time": 1468612236.0, "tid": 753964991116566529, "text": "@CalePutnam I'm so close and yet so far https://t.co/848LweNoxS", "created_at": "Fri Jul 15 14:50:36 +0000 2016", "klabel": 110}}, {"geometry": {"type": "Point", "coordinates": [-79.3952, 43.64]}, "type": "Feature", "id": 753993211757015040, "properties": {"loc": [-79.3952, 43.64], "centroid": [-79.36544332199082, 43.659603298444786], "screen_name": "Type1Dayna", "time": 1468618964.0, "tid": 753993211757015040, "text": "Look what came in the mail enjoying my first #plexus #plexusslim the journey begins @ CityPlace,\u2026 https://t.co/Lq5ex2MysI", "created_at": "Fri Jul 15 16:42:44 +0000 2016", "klabel": 110}}, {"geometry": {"type": "Point", "coordinates": [-79.3967, 43.639]}, "type": "Feature", "id": 753995110686134272, "properties": {"loc": [-79.3967, 43.639], "centroid": [-79.36544332199082, 43.659603298444786], "screen_name": "caroroscoe", "time": 1468619417.0, "tid": 753995110686134272, "text": "\ud83c\udf1e\ud83d\udc5f\ud83d\udd76\ud83d\udc95 @ Canoe Landing Park https://t.co/J2EG9sAvbK", "created_at": "Fri Jul 15 16:50:17 +0000 2016", "klabel": 110}}, {"geometry": {"type": "Point", "coordinates": [-79.39729189, 43.63354244]}, "type": "Feature", "id": 754007111475064833, "properties": {"loc": [-79.39729189, 43.63354244], "centroid": [-79.36544332199082, 43.659603298444786], "screen_name": "whoszed", "time": 1468622278.0, "tid": 754007111475064833, "text": "@benzi @diplo @elliphantmusic \ud83d\ude4f\ud83d\ude4f", "created_at": "Fri Jul 15 17:37:58 +0000 2016", "klabel": 110}}, {"geometry": {"type": "Point", "coordinates": [-79.3960986, 43.63190316]}, "type": "Feature", "id": 754019383077371904, "properties": {"loc": [-79.3960986, 43.63190316], "centroid": [-79.36544332199082, 43.659603298444786], "screen_name": "AndrewFstewart", "time": 1468625204.0, "tid": 754019383077371904, "text": "Heading to Ottawa for the weekend. Chester will finally be meeting moms dog Hamish. @ Billy\u2026 https://t.co/VZhfT5gK8y", "created_at": "Fri Jul 15 18:26:44 +0000 2016", "klabel": 110}}, {"geometry": {"type": "Point", "coordinates": [-79.401292, 43.638725]}, "type": "Feature", "id": 754027966359826433, "properties": {"loc": [-79.401292, 43.638725], "centroid": [-79.36544332199082, 43.659603298444786], "screen_name": "LeashnPaws", "time": 1468627250.0, "tid": 754027966359826433, "text": "Honey's ready for a nap after her walk #dogwalking #leashandpaws #tgif #toronto - https://t.co/NQmVItyTlh", "created_at": "Fri Jul 15 19:00:50 +0000 2016", "klabel": 110}}, {"geometry": {"type": "Point", "coordinates": [-79.40038295, 43.639171]}, "type": "Feature", "id": 754040625092231168, "properties": {"loc": [-79.40038295, 43.639171], "centroid": [-79.36544332199082, 43.659603298444786], "screen_name": "dystropolis", "time": 1468630269.0, "tid": 754040625092231168, "text": "More Arduino learning. This time - a Light Theremin!\n\n#electronics #breadboard #piezo\u2026 https://t.co/o5KnYTbqsC", "created_at": "Fri Jul 15 19:51:09 +0000 2016", "klabel": 110}}, {"geometry": {"type": "Point", "coordinates": [-79.3944517, 43.640268]}, "type": "Feature", "id": 754065518689193984, "properties": {"loc": [-79.3944517, 43.640268], "centroid": [-79.36544332199082, 43.659603298444786], "screen_name": "tpscalls", "time": 1468636204.0, "tid": 754065518689193984, "text": "Arrest | Spadina Ave &amp; Telegram Mews [14 Div.] 07/15 17:26 #CityPlace #Toronto", "created_at": "Fri Jul 15 21:30:04 +0000 2016", "klabel": 110}}, {"geometry": {"type": "Point", "coordinates": [-79.39692402, 43.63994825]}, "type": "Feature", "id": 754113905711058944, "properties": {"loc": [-79.39692402, 43.63994825], "centroid": [-79.36544332199082, 43.659603298444786], "screen_name": "Wendymads", "time": 1468647740.0, "tid": 754113905711058944, "text": "I'm at Macho Tex Mex Radio Bar in Toronto https://t.co/lSMc1NHo0E", "created_at": "Sat Jul 16 00:42:20 +0000 2016", "klabel": 110}}, {"geometry": {"type": "Point", "coordinates": [-79.3960986, 43.63190316]}, "type": "Feature", "id": 754179793818648576, "properties": {"loc": [-79.3960986, 43.63190316], "centroid": [-79.36544332199082, 43.659603298444786], "screen_name": "SocaDread", "time": 1468663449.0, "tid": 754179793818648576, "text": "Big People Getting on bad \ud83d\ude0e\ud83d\ude4c\ud83c\udffe\n\n#BigPeopleBoatride \ud83d\udef3\ud83d\ude4c\ud83c\udffe @ Billy Bishop Toronto City Airport https://t.co/CTD5kbyU3f", "created_at": "Sat Jul 16 05:04:09 +0000 2016", "klabel": 110}}, {"geometry": {"type": "Point", "coordinates": [-79.406502, 43.636524]}, "type": "Feature", "id": 754315914733125632, "properties": {"loc": [-79.406502, 43.636524], "centroid": [-79.36544332199082, 43.659603298444786], "screen_name": "Tylersdaytoday", "time": 1468695903.0, "tid": 754315914733125632, "text": "Great seats for the @hondaindy  #hondaindy #condo #toronto_insta #toronto @ Waterpark City https://t.co/0Ktm9fiBoL", "created_at": "Sat Jul 16 14:05:03 +0000 2016", "klabel": 110}}, {"geometry": {"type": "Point", "coordinates": [-79.400503, 43.6367301]}, "type": "Feature", "id": 754334050530136064, "properties": {"loc": [-79.400503, 43.6367301], "centroid": [-79.36544332199082, 43.659603298444786], "screen_name": "tmj_gta_hrta", "time": 1468700227.0, "tid": 754334050530136064, "text": "Join the Starbucks team! See our latest #job opening here: https://t.co/7YpTzPmA4H #Hospitality 600 FLEET STREET, 18, #TORONTO, ON #Veterans", "created_at": "Sat Jul 16 15:17:07 +0000 2016", "klabel": 110}}, {"geometry": {"type": "Point", "coordinates": [-79.3972214, 43.6406009]}, "type": "Feature", "id": 754349384838574080, "properties": {"loc": [-79.3972214, 43.6406009], "centroid": [-79.36544332199082, 43.659603298444786], "screen_name": "tpscalls", "time": 1468703883.0, "tid": 754349384838574080, "text": "Unknown Trouble | Fort York Blvd &amp; Iceboat Ter [14 Div.] 07/16 12:13 #Downtown #Toronto", "created_at": "Sat Jul 16 16:18:03 +0000 2016", "klabel": 110}}, {"geometry": {"type": "Point", "coordinates": [-79.3960986, 43.63190316]}, "type": "Feature", "id": 754379306906910720, "properties": {"loc": [-79.3960986, 43.63190316], "centroid": [-79.36544332199082, 43.659603298444786], "screen_name": "mariskameijers", "time": 1468711017.0, "tid": 754379306906910720, "text": "Lovely day to travel with @porterairlines. Chicago here we come! #travel #airline #porter\u2026 https://t.co/xOWZjLEIgR", "created_at": "Sat Jul 16 18:16:57 +0000 2016", "klabel": 110}}, {"geometry": {"type": "Point", "coordinates": [-79.3956331, 43.6398718]}, "type": "Feature", "id": 754390164886216708, "properties": {"loc": [-79.3956331, 43.6398718], "centroid": [-79.36544332199082, 43.659603298444786], "screen_name": "tofireS", "time": 1468713605.0, "tid": 754390164886216708, "text": "Medical (Personal Injury) - Capreol Crt @ Fort York Boulevard, Toronto (2 Trucks)", "created_at": "Sat Jul 16 19:00:05 +0000 2016", "klabel": 110}}, {"geometry": {"type": "Point", "coordinates": [-79.40171, 43.63201]}, "type": "Feature", "id": 754421853884604416, "properties": {"loc": [-79.40171, 43.63201], "centroid": [-79.36544332199082, 43.659603298444786], "screen_name": "ShootingStarTO", "time": 1468721161.0, "tid": 754421853884604416, "text": "Just posted a photo @ National Yacht Club https://t.co/69ThWeTQCa", "created_at": "Sat Jul 16 21:06:01 +0000 2016", "klabel": 110}}, {"geometry": {"type": "Point", "coordinates": [-79.40171, 43.63201]}, "type": "Feature", "id": 754422222358315008, "properties": {"loc": [-79.40171, 43.63201], "centroid": [-79.36544332199082, 43.659603298444786], "screen_name": "ShootingStarTO", "time": 1468721248.0, "tid": 754422222358315008, "text": "Just posted a photo @ National Yacht Club https://t.co/nDip11ZPMc", "created_at": "Sat Jul 16 21:07:28 +0000 2016", "klabel": 110}}, {"geometry": {"type": "Point", "coordinates": [-79.40602, 43.63527]}, "type": "Feature", "id": 754424342654705664, "properties": {"loc": [-79.40602, 43.63527], "centroid": [-79.36544332199082, 43.659603298444786], "screen_name": "amybest14", "time": 1468721754.0, "tid": 754424342654705664, "text": "Perfect day for a slo-pitch tourney! #onlyonestrikeout #capitalcrunch @ Coronation Park https://t.co/fyF6QcZ7pF", "created_at": "Sat Jul 16 21:15:54 +0000 2016", "klabel": 110}}, {"geometry": {"type": "Point", "coordinates": [-79.39713919, 43.64046292]}, "type": "Feature", "id": 754427169829445632, "properties": {"loc": [-79.39713919, 43.64046292], "centroid": [-79.36544332199082, 43.659603298444786], "screen_name": "Shananigans", "time": 1468722428.0, "tid": 754427169829445632, "text": "Babysitting. #dogsofinstagram #henry #bordercollie @ Concord CityPlace https://t.co/K5dm7Jwf6c", "created_at": "Sat Jul 16 21:27:08 +0000 2016", "klabel": 110}}, {"geometry": {"type": "Point", "coordinates": [-79.40000153, 43.63000107]}, "type": "Feature", "id": 754435629002481665, "properties": {"loc": [-79.40000153, 43.63000107], "centroid": [-79.36544332199082, 43.659603298444786], "screen_name": "akari_oozora", "time": 1468724445.0, "tid": 754435629002481665, "text": "Toronto, Ontario\n20.0\u00b0C | 68.0\u00b0F\nHumidity: 64%\nOvercast https://t.co/5cJ187LRi0", "created_at": "Sat Jul 16 22:00:45 +0000 2016", "klabel": 110}}, {"geometry": {"type": "Point", "coordinates": [-79.40000153, 43.63000107]}, "type": "Feature", "id": 754435631523229697, "properties": {"loc": [-79.40000153, 43.63000107], "centroid": [-79.36544332199082, 43.659603298444786], "screen_name": "oozorakko", "time": 1468724445.0, "tid": 754435631523229697, "text": "@akari_oozora Source: \"Golden Hour: Sunset at Lake Ontario\" by Lord of the Wings\u00a9 on Flickr\nhttps://t.co/tvToCVvSHb", "created_at": "Sat Jul 16 22:00:45 +0000 2016", "klabel": 110}}, {"geometry": {"type": "Point", "coordinates": [-79.40602, 43.63527]}, "type": "Feature", "id": 754464881529815040, "properties": {"loc": [-79.40602, 43.63527], "centroid": [-79.36544332199082, 43.659603298444786], "screen_name": "hannahyakobi", "time": 1468731419.0, "tid": 754464881529815040, "text": "This view never gets old. #416 #toronto @ Coronation Park https://t.co/Bpxqlg8VpP", "created_at": "Sat Jul 16 23:56:59 +0000 2016", "klabel": 110}}, {"geometry": {"type": "Point", "coordinates": [-79.39851279, 43.63467859]}, "type": "Feature", "id": 754482008173244416, "properties": {"loc": [-79.39851279, 43.63467859], "centroid": [-79.36544332199082, 43.659603298444786], "screen_name": "FurkanGunner", "time": 1468735503.0, "tid": 754482008173244416, "text": "I'm at Little Norway Park in Toronto, ON https://t.co/AU9i49gMhj", "created_at": "Sun Jul 17 01:05:03 +0000 2016", "klabel": 110}}, {"geometry": {"type": "Point", "coordinates": [-79.40000153, 43.63000107]}, "type": "Feature", "id": 754490991558684672, "properties": {"loc": [-79.40000153, 43.63000107], "centroid": [-79.36544332199082, 43.659603298444786], "screen_name": "akari_oozora", "time": 1468737644.0, "tid": 754490991558684672, "text": "Toronto, Ontario\n19.0\u00b0C | 66.0\u00b0F\nHumidity: 78%\nClear https://t.co/wU0agYNdfW", "created_at": "Sun Jul 17 01:40:44 +0000 2016", "klabel": 110}}, {"geometry": {"type": "Point", "coordinates": [-79.4013217, 43.6373573]}, "type": "Feature", "id": 754612871074549760, "properties": {"loc": [-79.4013217, 43.6373573], "centroid": [-79.36544332199082, 43.659603298444786], "screen_name": "tpscalls", "time": 1468766703.0, "tid": 754612871074549760, "text": "Unknown Trouble | Bathurst St &amp; Iannuzzi St [14 Div.] 07/17 05:39 #Niagara #Toronto", "created_at": "Sun Jul 17 09:45:03 +0000 2016", "klabel": 110}}, {"geometry": {"type": "Point", "coordinates": [-79.4013217, 43.6373573]}, "type": "Feature", "id": 754633253882126336, "properties": {"loc": [-79.4013217, 43.6373573], "centroid": [-79.36544332199082, 43.659603298444786], "screen_name": "tpscalls", "time": 1468771562.0, "tid": 754633253882126336, "text": "Unknown Trouble | Bathurst St &amp; Iannuzzi St [14 Div.] 07/17 07:00 #Niagara #Toronto", "created_at": "Sun Jul 17 11:06:02 +0000 2016", "klabel": 110}}, {"geometry": {"type": "Point", "coordinates": [-79.3976544, 43.6385425]}, "type": "Feature", "id": 754649118472011776, "properties": {"loc": [-79.3976544, 43.6385425], "centroid": [-79.36544332199082, 43.659603298444786], "screen_name": "tpscalls", "time": 1468775345.0, "tid": 754649118472011776, "text": "Assault Just Occurred | Capreol Crt &amp; Dan Leckie Way [14 Div.] 07/17 08:05 #Downtown #Toronto", "created_at": "Sun Jul 17 12:09:05 +0000 2016", "klabel": 110}}, {"geometry": {"type": "Point", "coordinates": [-79.3970686, 43.6401771]}, "type": "Feature", "id": 754681346220359681, "properties": {"loc": [-79.3970686, 43.6401771], "centroid": [-79.36544332199082, 43.659603298444786], "screen_name": "BragiArnason1", "time": 1468783028.0, "tid": 754681346220359681, "text": "New songs are in the making. Lovely Toronto x https://t.co/RUvvJ890cK", "created_at": "Sun Jul 17 14:17:08 +0000 2016", "klabel": 110}}, {"geometry": {"type": "Point", "coordinates": [-79.40594154, 43.63668699]}, "type": "Feature", "id": 754686490832101376, "properties": {"loc": [-79.40594154, 43.63668699], "centroid": [-79.36544332199082, 43.659603298444786], "screen_name": "M4BB1", "time": 1468784255.0, "tid": 754686490832101376, "text": "The good in good morning \ud83d\udc4c\ud83c\udffd\ud83c\udfca\ud83c\udffc @ 231 Fort York https://t.co/xomzvaWjmt", "created_at": "Sun Jul 17 14:37:35 +0000 2016", "klabel": 110}}, {"geometry": {"type": "Point", "coordinates": [-79.3967, 43.639]}, "type": "Feature", "id": 754706178286977024, "properties": {"loc": [-79.3967, 43.639], "centroid": [-79.36544332199082, 43.659603298444786], "screen_name": "miceliaj", "time": 1468788949.0, "tid": 754706178286977024, "text": "Feeling open, ready for the adventures &amp; experiences ahead in the next few weeks.\n.\nPhoto cred:\u2026 https://t.co/XKVS3iW8bN", "created_at": "Sun Jul 17 15:55:49 +0000 2016", "klabel": 110}}, {"geometry": {"type": "Point", "coordinates": [-79.3970581, 43.6401745]}, "type": "Feature", "id": 754710417360818176, "properties": {"loc": [-79.3970581, 43.6401745], "centroid": [-79.36544332199082, 43.659603298444786], "screen_name": "BragiArnason1", "time": 1468789959.0, "tid": 754710417360818176, "text": "New songs are in the making. Lovely Toronto x https://t.co/hJwjq0HOv8", "created_at": "Sun Jul 17 16:12:39 +0000 2016", "klabel": 110}}, {"geometry": {"type": "Point", "coordinates": [-79.400503, 43.6367301]}, "type": "Feature", "id": 754728616479498240, "properties": {"loc": [-79.400503, 43.6367301], "centroid": [-79.36544332199082, 43.659603298444786], "screen_name": "tmj_gta_hrta", "time": 1468794299.0, "tid": 754728616479498240, "text": "Want to work at Starbucks? We're #hiring in 600 FLEET STREET, 18, #TORONTO, ON! Click for details: https://t.co/5OFqbwOY8G #Hospitality", "created_at": "Sun Jul 17 17:24:59 +0000 2016", "klabel": 110}}, {"geometry": {"type": "Point", "coordinates": [-79.40489275, 43.6383431]}, "type": "Feature", "id": 754751871290486785, "properties": {"loc": [-79.40489275, 43.6383431], "centroid": [-79.36544332199082, 43.659603298444786], "screen_name": "OfficialRedInk", "time": 1468799843.0, "tid": 754751871290486785, "text": "@alldayidreamtoronto #love @ Fort York National Historic Site https://t.co/reyb3e4Zn9", "created_at": "Sun Jul 17 18:57:23 +0000 2016", "klabel": 110}}, {"geometry": {"type": "Point", "coordinates": [-79.40489275, 43.6383431]}, "type": "Feature", "id": 754753706369900544, "properties": {"loc": [-79.40489275, 43.6383431], "centroid": [-79.36544332199082, 43.659603298444786], "screen_name": "kar3nmichelle", "time": 1468800280.0, "tid": 754753706369900544, "text": "My favourite day of the year! #nationalicecreamday \ud83c\udf66\ud83c\udf66\ud83c\udf66 \ud83d\udcf7: e_fancy @ Fort York National Historic\u2026 https://t.co/HODBjZKX6k", "created_at": "Sun Jul 17 19:04:40 +0000 2016", "klabel": 110}}, {"geometry": {"type": "Point", "coordinates": [-79.40489275, 43.6383431]}, "type": "Feature", "id": 754757685065625600, "properties": {"loc": [-79.40489275, 43.6383431], "centroid": [-79.36544332199082, 43.659603298444786], "screen_name": "OfficialRedInk", "time": 1468801229.0, "tid": 754757685065625600, "text": "All day I dream about #techno @ Fort York National Historic Site https://t.co/lHstU8JGLC", "created_at": "Sun Jul 17 19:20:29 +0000 2016", "klabel": 110}}, {"geometry": {"type": "Point", "coordinates": [-79.40454878, 43.63862536]}, "type": "Feature", "id": 754763875132837888, "properties": {"loc": [-79.40454878, 43.63862536], "centroid": [-79.36544332199082, 43.659603298444786], "screen_name": "ConstanceChan", "time": 1468802705.0, "tid": 754763875132837888, "text": "All Day I Dream! (@ Fort York in Toronto, ON) https://t.co/Hy06c5I6id", "created_at": "Sun Jul 17 19:45:05 +0000 2016", "klabel": 110}}, {"geometry": {"type": "Point", "coordinates": [-79.40489275, 43.6383431]}, "type": "Feature", "id": 754765460764176384, "properties": {"loc": [-79.40489275, 43.6383431], "centroid": [-79.36544332199082, 43.659603298444786], "screen_name": "OfficialRedInk", "time": 1468803083.0, "tid": 754765460764176384, "text": "#techno #music all day i dream @ Fort York National Historic Site https://t.co/rT751bocHD", "created_at": "Sun Jul 17 19:51:23 +0000 2016", "klabel": 110}}, {"geometry": {"type": "Point", "coordinates": [-79.39615488, 43.63160243]}, "type": "Feature", "id": 754779797646090240, "properties": {"loc": [-79.39615488, 43.63160243], "centroid": [-79.36544332199082, 43.659603298444786], "screen_name": "shneusk", "time": 1468806501.0, "tid": 754779797646090240, "text": "First time in Canada! Visiting @sheepdontswim and Casey :) (@ Billy Bishop Toronto City Airport - @bbishopairport) https://t.co/2yuCV2rrhX", "created_at": "Sun Jul 17 20:48:21 +0000 2016", "klabel": 110}}, {"geometry": {"type": "Point", "coordinates": [-79.40489275, 43.6383431]}, "type": "Feature", "id": 754783027092262912, "properties": {"loc": [-79.40489275, 43.6383431], "centroid": [-79.36544332199082, 43.659603298444786], "screen_name": "OfficialRedInk", "time": 1468807271.0, "tid": 754783027092262912, "text": "Lit #techno @ Fort York National Historic Site https://t.co/HL5EI1ezuQ", "created_at": "Sun Jul 17 21:01:11 +0000 2016", "klabel": 110}}, {"geometry": {"type": "Point", "coordinates": [-79.3937534, 43.6371836]}, "type": "Feature", "id": 754792543577968641, "properties": {"loc": [-79.3937534, 43.6371836], "centroid": [-79.36544332199082, 43.659603298444786], "screen_name": "cranfandy", "time": 1468809540.0, "tid": 754792543577968641, "text": "Hasta azul parece el agua #waterfront #queensquay #musicgardens @\u2026 https://t.co/3BqqONvXAp", "created_at": "Sun Jul 17 21:39:00 +0000 2016", "klabel": 110}}, {"geometry": {"type": "Point", "coordinates": [-79.40489275, 43.6383431]}, "type": "Feature", "id": 754792644543451136, "properties": {"loc": [-79.40489275, 43.6383431], "centroid": [-79.36544332199082, 43.659603298444786], "screen_name": "jjbaskey", "time": 1468809564.0, "tid": 754792644543451136, "text": "All Day I Dream @ Fort York\n#toronto #EDM #concertphotography @ Fort York National Historic Site https://t.co/uY8K40Nqy0", "created_at": "Sun Jul 17 21:39:24 +0000 2016", "klabel": 110}}, {"geometry": {"type": "Point", "coordinates": [-79.39615488, 43.63160243]}, "type": "Feature", "id": 754819998389010433, "properties": {"loc": [-79.39615488, 43.63160243], "centroid": [-79.36544332199082, 43.659603298444786], "screen_name": "dcouveculinaire", "time": 1468816086.0, "tid": 754819998389010433, "text": "I'm at Billy Bishop Toronto City Airport (YTZ) - @bbishopairport in Toronto, ON https://t.co/moSVgiA8Vw", "created_at": "Sun Jul 17 23:28:06 +0000 2016", "klabel": 110}}, {"geometry": {"type": "Point", "coordinates": [-79.40489275, 43.6383431]}, "type": "Feature", "id": 754830992678981632, "properties": {"loc": [-79.40489275, 43.6383431], "centroid": [-79.36544332199082, 43.659603298444786], "screen_name": "SYDNEYBLU", "time": 1468818707.0, "tid": 754830992678981632, "text": "Killing it djleeburridge #adid @ Fort York National Historic Site https://t.co/4r3FqOPfG4", "created_at": "Mon Jul 18 00:11:47 +0000 2016", "klabel": 110}}, {"geometry": {"type": "Point", "coordinates": [-79.40489275, 43.6383431]}, "type": "Feature", "id": 754837182175674368, "properties": {"loc": [-79.40489275, 43.6383431], "centroid": [-79.36544332199082, 43.659603298444786], "screen_name": "karunsg", "time": 1468820183.0, "tid": 754837182175674368, "text": "Burridge N' Fort York | #Toronto @ Fort York National Historic Site https://t.co/KYVNMDe6VR", "created_at": "Mon Jul 18 00:36:23 +0000 2016", "klabel": 110}}, {"geometry": {"type": "Point", "coordinates": [-79.395979, 43.6315466]}, "type": "Feature", "id": 754839234603720705, "properties": {"loc": [-79.395979, 43.6315466], "centroid": [-79.36544332199082, 43.659603298444786], "screen_name": "AlBourbouhakis", "time": 1468820672.0, "tid": 754839234603720705, "text": "Passport\u2714\ufe0fwallet\u2714\ufe0fhot sauce\u2714\ufe0f\u2714\ufe0f\u2714\ufe0f\u2714\ufe0f #flightsafehotsauce #travelready #hotsauce\u2026 https://t.co/A9eiRbsJku", "created_at": "Mon Jul 18 00:44:32 +0000 2016", "klabel": 110}}, {"geometry": {"type": "Point", "coordinates": [-79.40489275, 43.6383431]}, "type": "Feature", "id": 754841306321526784, "properties": {"loc": [-79.40489275, 43.6383431], "centroid": [-79.36544332199082, 43.659603298444786], "screen_name": "SYDNEYBLU", "time": 1468821166.0, "tid": 754841306321526784, "text": "#adid @ Fort York National Historic Site https://t.co/seaOc9odVR", "created_at": "Mon Jul 18 00:52:46 +0000 2016", "klabel": 110}}, {"geometry": {"type": "Point", "coordinates": [-79.3953499, 43.64028]}, "type": "Feature", "id": 754857138393079808, "properties": {"loc": [-79.3953499, 43.64028], "centroid": [-79.36544332199082, 43.659603298444786], "screen_name": "Vansilli", "time": 1468824941.0, "tid": 754857138393079808, "text": "It's bumpin in my neighbourhood tonight. Canada is liking pokemon. @\u2026 https://t.co/woiWHsYpoa", "created_at": "Mon Jul 18 01:55:41 +0000 2016", "klabel": 110}}, {"geometry": {"type": "Point", "coordinates": [-79.40489275, 43.6383431]}, "type": "Feature", "id": 754864571211403264, "properties": {"loc": [-79.40489275, 43.6383431], "centroid": [-79.36544332199082, 43.659603298444786], "screen_name": "worththejetlag", "time": 1468826713.0, "tid": 754864571211403264, "text": "\ud83d\udcf8 1, 2, \ud83d\udc6f! Two steppin' at All Day I Dream of #Toronto skies \ud83c\udfb6\ud83d\udd76 #ADIDTORONTO #festivalseason\u2026 https://t.co/vW1GX3i9zT", "created_at": "Mon Jul 18 02:25:13 +0000 2016", "klabel": 110}}, {"geometry": {"type": "Point", "coordinates": [-79.3983476, 43.6358141]}, "type": "Feature", "id": 754920900584235008, "properties": {"loc": [-79.3983476, 43.6358141], "centroid": [-79.36544332199082, 43.659603298444786], "screen_name": "tpscalls", "time": 1468840143.0, "tid": 754920900584235008, "text": "Hazard | Bathurst St &amp; Queens Quay W [14 Div.] 07/18 02:03 #Bathurst_Quay #Toronto", "created_at": "Mon Jul 18 06:09:03 +0000 2016", "klabel": 110}}, {"geometry": {"type": "Point", "coordinates": [-79.39297844, 43.6380939]}, "type": "Feature", "id": 754996159739867137, "properties": {"loc": [-79.39297844, 43.6380939], "centroid": [-79.36544332199082, 43.659603298444786], "screen_name": "sarah_connors", "time": 1468858086.0, "tid": 754996159739867137, "text": "Also the new formula e biplane nose looks SICK", "created_at": "Mon Jul 18 11:08:06 +0000 2016", "klabel": 110}}, {"geometry": {"type": "Point", "coordinates": [-79.3952, 43.64]}, "type": "Feature", "id": 755011819559714817, "properties": {"loc": [-79.3952, 43.64], "centroid": [-79.36544332199082, 43.659603298444786], "screen_name": "Type1Dayna", "time": 1468861819.0, "tid": 755011819559714817, "text": "Todays breakfast challenge how much protein can you fit on one pita brought to you by #epicure\u2026 https://t.co/7D9P3Vey0m", "created_at": "Mon Jul 18 12:10:19 +0000 2016", "klabel": 110}}, {"geometry": {"type": "Point", "coordinates": [-79.40127, 43.640357]}, "type": "Feature", "id": 755013273523716097, "properties": {"loc": [-79.40127, 43.640357], "centroid": [-79.36544332199082, 43.659603298444786], "screen_name": "RosaCTV", "time": 1468862166.0, "tid": 755013273523716097, "text": "I was out late last night, wandering downtown on a Sunday! Not my usual routine, but worth it\u2026 https://t.co/V36qicjzs2", "created_at": "Mon Jul 18 12:16:06 +0000 2016", "klabel": 110}}, {"geometry": {"type": "Point", "coordinates": [-79.3952, 43.64]}, "type": "Feature", "id": 755033459064573952, "properties": {"loc": [-79.3952, 43.64], "centroid": [-79.36544332199082, 43.659603298444786], "screen_name": "Type1Dayna", "time": 1468866979.0, "tid": 755033459064573952, "text": "Day 4 #plexus #plexusslim @ CityPlace, Toronto https://t.co/OmSbfIR2uy", "created_at": "Mon Jul 18 13:36:19 +0000 2016", "klabel": 110}}, {"geometry": {"type": "Point", "coordinates": [-79.40061, 43.6387685]}, "type": "Feature", "id": 755034148138541056, "properties": {"loc": [-79.40061, 43.6387685], "centroid": [-79.36544332199082, 43.659603298444786], "screen_name": "tpscalls", "time": 1468867143.0, "tid": 755034148138541056, "text": "Break &amp; Enter | Housey St &amp; Fort York Blvd [14 Div.] 07/18 09:34 #Toronto", "created_at": "Mon Jul 18 13:39:03 +0000 2016", "klabel": 110}}, {"geometry": {"type": "Point", "coordinates": [-79.3960986, 43.63190316]}, "type": "Feature", "id": 755077163531907073, "properties": {"loc": [-79.3960986, 43.63190316], "centroid": [-79.36544332199082, 43.659603298444786], "screen_name": "KimSulli", "time": 1468877399.0, "tid": 755077163531907073, "text": "Yep! I was so in love with this girl's @converse shoes at the airport, that I used my 'media\u2026 https://t.co/s7aSJeSe7n", "created_at": "Mon Jul 18 16:29:59 +0000 2016", "klabel": 110}}, {"geometry": {"type": "Point", "coordinates": [-79.39534978, 43.63146491]}, "type": "Feature", "id": 755087641700405248, "properties": {"loc": [-79.39534978, 43.63146491], "centroid": [-79.36544332199082, 43.659603298444786], "screen_name": "TincaArt", "time": 1468879897.0, "tid": 755087641700405248, "text": "Getting excited for another week of #FragmentedTime with our funny curator #rachelmonosov ...\u2026 https://t.co/Y891b822OP", "created_at": "Mon Jul 18 17:11:37 +0000 2016", "klabel": 110}}, {"geometry": {"type": "Point", "coordinates": [-79.3960986, 43.63190316]}, "type": "Feature", "id": 755093944589914113, "properties": {"loc": [-79.3960986, 43.63190316], "centroid": [-79.36544332199082, 43.659603298444786], "screen_name": "KimSulli", "time": 1468881400.0, "tid": 755093944589914113, "text": "THIS is delaying my flight to #Montreal -- 3 weeks ago, I wouldn't have even known how to read\u2026 https://t.co/9w05P8wpth", "created_at": "Mon Jul 18 17:36:40 +0000 2016", "klabel": 110}}, {"geometry": {"type": "Point", "coordinates": [-79.39361, 43.63779]}, "type": "Feature", "id": 755145054109495297, "properties": {"loc": [-79.39361, 43.63779], "centroid": [-79.36544332199082, 43.659603298444786], "screen_name": "shanthecon_100", "time": 1468893585.0, "tid": 755145054109495297, "text": "For the Southwest @ King's Landing https://t.co/LqUE45oeFD", "created_at": "Mon Jul 18 20:59:45 +0000 2016", "klabel": 110}}, {"geometry": {"type": "Point", "coordinates": [-79.3977655, 43.6350521]}, "type": "Feature", "id": 755153939797012481, "properties": {"loc": [-79.3977655, 43.6350521], "centroid": [-79.36544332199082, 43.659603298444786], "screen_name": "tofireS", "time": 1468895703.0, "tid": 755153939797012481, "text": "Fire (Transformer/pole) - Eireann Quay b/w Toronto Shoreline / Queens Quay West, Toronto (2 Trucks)", "created_at": "Mon Jul 18 21:35:03 +0000 2016", "klabel": 110}}, {"geometry": {"type": "Point", "coordinates": [-79.3977655, 43.6350521]}, "type": "Feature", "id": 755153938811330561, "properties": {"loc": [-79.3977655, 43.6350521], "centroid": [-79.36544332199082, 43.659603298444786], "screen_name": "tofire", "time": 1468895703.0, "tid": 755153938811330561, "text": "Fire (Transformer/pole) - Eireann Quay b/w Toronto Shoreline / Queens Quay West, Toronto (2 Trucks)", "created_at": "Mon Jul 18 21:35:03 +0000 2016", "klabel": 110}}, {"geometry": {"type": "Point", "coordinates": [-79.40171, 43.63201]}, "type": "Feature", "id": 755229955647209472, "properties": {"loc": [-79.40171, 43.63201], "centroid": [-79.36544332199082, 43.659603298444786], "screen_name": "gauravshinde", "time": 1468913827.0, "tid": 755229955647209472, "text": "The best part of being a sailor= the yachts clubs have the best\u2026 https://t.co/nzPc0o1Whg", "created_at": "Tue Jul 19 02:37:07 +0000 2016", "klabel": 110}}, {"geometry": {"type": "Point", "coordinates": [-79.406502, 43.636524]}, "type": "Feature", "id": 755247573368205312, "properties": {"loc": [-79.406502, 43.636524], "centroid": [-79.36544332199082, 43.659603298444786], "screen_name": "Tylersdaytoday", "time": 1468918027.0, "tid": 755247573368205312, "text": "Views for kilometres. #metricsystem @ Waterpark City https://t.co/lWmZfWC9lN", "created_at": "Tue Jul 19 03:47:07 +0000 2016", "klabel": 110}}, {"geometry": {"type": "Point", "coordinates": [-79.3984985, 43.6397514]}, "type": "Feature", "id": 755322710268387328, "properties": {"loc": [-79.3984985, 43.6397514], "centroid": [-79.36544332199082, 43.659603298444786], "screen_name": "Mzukaflani", "time": 1468935942.0, "tid": 755322710268387328, "text": "Toronto by Night - \"A city is a crazy concrete jungle whose people at the end of each day\u2026 https://t.co/LiCkunVFho", "created_at": "Tue Jul 19 08:45:42 +0000 2016", "klabel": 110}}, {"geometry": {"type": "Point", "coordinates": [-79.399621, 43.6391701]}, "type": "Feature", "id": 755328129321709568, "properties": {"loc": [-79.399621, 43.6391701], "centroid": [-79.36544332199082, 43.659603298444786], "screen_name": "Mzukaflani", "time": 1468937234.0, "tid": 755328129321709568, "text": "Fort York Library #FortYorkBlvd #Toronto #Library #FortYorkLibrary #BathurstAndFortYork\u2026 https://t.co/GrsJVEdaIQ", "created_at": "Tue Jul 19 09:07:14 +0000 2016", "klabel": 110}}, {"geometry": {"type": "Point", "coordinates": [-79.399621, 43.6391701]}, "type": "Feature", "id": 755333627706093568, "properties": {"loc": [-79.399621, 43.6391701], "centroid": [-79.36544332199082, 43.659603298444786], "screen_name": "Mzukaflani", "time": 1468938544.0, "tid": 755333627706093568, "text": "Toronto by Night #ConcreteJungle #CityPlace #OnniGroup #FortYork1793 #FortYorkBlvd\u2026 https://t.co/Y0z6x9fzud", "created_at": "Tue Jul 19 09:29:04 +0000 2016", "klabel": 110}}, {"geometry": {"type": "Point", "coordinates": [-79.3967, 43.639]}, "type": "Feature", "id": 755372824777355264, "properties": {"loc": [-79.3967, 43.639], "centroid": [-79.36544332199082, 43.659603298444786], "screen_name": "martydoupe", "time": 1468947890.0, "tid": 755372824777355264, "text": "No sign of Pokemon here. @ Canoe Landing Park https://t.co/wm1col9fgP", "created_at": "Tue Jul 19 12:04:50 +0000 2016", "klabel": 110}}, {"geometry": {"type": "Point", "coordinates": [-79.3952, 43.64]}, "type": "Feature", "id": 755381192350760962, "properties": {"loc": [-79.3952, 43.64], "centroid": [-79.36544332199082, 43.659603298444786], "screen_name": "Type1Dayna", "time": 1468949885.0, "tid": 755381192350760962, "text": "Day #5 #plexus #plexusslim time to start #biocleanse @ CityPlace, Toronto https://t.co/ZhkhaKoErM", "created_at": "Tue Jul 19 12:38:05 +0000 2016", "klabel": 110}}, {"geometry": {"type": "Point", "coordinates": [-79.3960986, 43.63190316]}, "type": "Feature", "id": 755382140959879168, "properties": {"loc": [-79.3960986, 43.63190316], "centroid": [-79.36544332199082, 43.659603298444786], "screen_name": "patdelacroix", "time": 1468950111.0, "tid": 755382140959879168, "text": "#Officewithaview! Sometime the best way to get some downtime is actually to be #upintheair! So,\u2026 https://t.co/IfJUigisUU", "created_at": "Tue Jul 19 12:41:51 +0000 2016", "klabel": 110}}, {"geometry": {"type": "Point", "coordinates": [-79.3983, 43.6344]}, "type": "Feature", "id": 755389297495158784, "properties": {"loc": [-79.3983, 43.6344], "centroid": [-79.36544332199082, 43.659603298444786], "screen_name": "yahohyah", "time": 1468951817.0, "tid": 755389297495158784, "text": "i request another dream @ Little Norway Park https://t.co/aMpeNXw43T", "created_at": "Tue Jul 19 13:10:17 +0000 2016", "klabel": 110}}, {"geometry": {"type": "Point", "coordinates": [-79.395433, 43.640927]}, "type": "Feature", "id": 755455102958395392, "properties": {"loc": [-79.395433, 43.640927], "centroid": [-79.36544332199082, 43.659603298444786], "screen_name": "Seemasharma4473", "time": 1468967506.0, "tid": 755455102958395392, "text": "https://t.co/hxjefQ4fAd", "created_at": "Tue Jul 19 17:31:46 +0000 2016", "klabel": 110}}, {"geometry": {"type": "Point", "coordinates": [-79.395517, 43.638875]}, "type": "Feature", "id": 755467102320992256, "properties": {"loc": [-79.395517, 43.638875], "centroid": [-79.36544332199082, 43.659603298444786], "screen_name": "LeashnPaws", "time": 1468970367.0, "tid": 755467102320992256, "text": "Scarlet! #leashandpaws #toronto #dogwalking - https://t.co/amw4vvFek9", "created_at": "Tue Jul 19 18:19:27 +0000 2016", "klabel": 110}}, {"geometry": {"type": "Point", "coordinates": [-79.3937534, 43.6371836]}, "type": "Feature", "id": 755520748798771200, "properties": {"loc": [-79.3937534, 43.6371836], "centroid": [-79.36544332199082, 43.659603298444786], "screen_name": "SheilaReine", "time": 1468983158.0, "tid": 755520748798771200, "text": "#pokemongo @ Toronto Music Garden https://t.co/WvOWCnQeUo", "created_at": "Tue Jul 19 21:52:38 +0000 2016", "klabel": 110}}, {"geometry": {"type": "Point", "coordinates": [-79.3960986, 43.63190316]}, "type": "Feature", "id": 755563479382261760, "properties": {"loc": [-79.3960986, 43.63190316], "centroid": [-79.36544332199082, 43.659603298444786], "screen_name": "pierrebonho", "time": 1468993345.0, "tid": 755563479382261760, "text": "In good hands #flyinghigh #porterairlines #summervacay #novascotia #donothing #justbreathe @\u2026 https://t.co/e6F1pNnXCx", "created_at": "Wed Jul 20 00:42:25 +0000 2016", "klabel": 110}}, {"geometry": {"type": "Point", "coordinates": [-79.3960986, 43.63190316]}, "type": "Feature", "id": 755563416098668544, "properties": {"loc": [-79.3960986, 43.63190316], "centroid": [-79.36544332199082, 43.659603298444786], "screen_name": "pierrebonho", "time": 1468993330.0, "tid": 755563416098668544, "text": "In good hands @ #porterairlines #Toronto to #Montreal #summervacay #donothing #justbreathe\u2026 https://t.co/dhuRAZTppS", "created_at": "Wed Jul 20 00:42:10 +0000 2016", "klabel": 110}}, {"geometry": {"type": "Point", "coordinates": [-79.4005727, 43.634485]}, "type": "Feature", "id": 755577734806507520, "properties": {"loc": [-79.4005727, 43.634485], "centroid": [-79.36544332199082, 43.659603298444786], "screen_name": "tpscalls", "time": 1468996744.0, "tid": 755577734806507520, "text": "See Ambulance | Queens Quay W &amp; Waterfront Trl [52 Div.] 07/19 21:34 #Niagara #Toronto", "created_at": "Wed Jul 20 01:39:04 +0000 2016", "klabel": 110}}, {"geometry": {"type": "Point", "coordinates": [-79.39702297, 43.63986013]}, "type": "Feature", "id": 755602291214979075, "properties": {"loc": [-79.39702297, 43.63986013], "centroid": [-79.36544332199082, 43.659603298444786], "screen_name": "evelienh", "time": 1469002599.0, "tid": 755602291214979075, "text": "I'm at @HuntersLanding in Toronto, ON https://t.co/RsVPhbp5eO", "created_at": "Wed Jul 20 03:16:39 +0000 2016", "klabel": 110}}, {"geometry": {"type": "Point", "coordinates": [-79.3952, 43.64]}, "type": "Feature", "id": 755692882476998656, "properties": {"loc": [-79.3952, 43.64], "centroid": [-79.36544332199082, 43.659603298444786], "screen_name": "Type1Dayna", "time": 1469024197.0, "tid": 755692882476998656, "text": "I'm up may as well be useful and that can't happen until I have a cup of #coffee pre workout\u2026 https://t.co/lcaX3QapJf", "created_at": "Wed Jul 20 09:16:37 +0000 2016", "klabel": 110}}, {"geometry": {"type": "Point", "coordinates": [-79.3952, 43.64]}, "type": "Feature", "id": 755700257464340480, "properties": {"loc": [-79.3952, 43.64], "centroid": [-79.36544332199082, 43.659603298444786], "screen_name": "Type1Dayna", "time": 1469025956.0, "tid": 755700257464340480, "text": "Pretty much every day since the end of April I have woke up and used the #fiveminutejournal app.\u2026 https://t.co/boIL9t8auk", "created_at": "Wed Jul 20 09:45:56 +0000 2016", "klabel": 110}}, {"geometry": {"type": "Point", "coordinates": [-79.3960986, 43.63190316]}, "type": "Feature", "id": 755716379370631168, "properties": {"loc": [-79.3960986, 43.63190316], "centroid": [-79.36544332199082, 43.659603298444786], "screen_name": "Hyland", "time": 1469029800.0, "tid": 755716379370631168, "text": "Summer mornings. #sunrise #cntower #toronto toptorontophoto #instagood #waterfront #mycity\u2026 https://t.co/aV87lVp2G4", "created_at": "Wed Jul 20 10:50:00 +0000 2016", "klabel": 110}}, {"geometry": {"type": "Point", "coordinates": [-79.3997879, 43.6381989]}, "type": "Feature", "id": 755740111418056704, "properties": {"loc": [-79.3997879, 43.6381989], "centroid": [-79.36544332199082, 43.659603298444786], "screen_name": "Pjpavez", "time": 1469035458.0, "tid": 755740111418056704, "text": "#birthday #birthdaygirl #mybirthday #celebration #july #20th #happy\u2026 https://t.co/yroVdgrHmA", "created_at": "Wed Jul 20 12:24:18 +0000 2016", "klabel": 110}}, {"geometry": {"type": "Point", "coordinates": [-79.39521, 43.6361]}, "type": "Feature", "id": 755790197154017281, "properties": {"loc": [-79.39521, 43.6361], "centroid": [-79.36544332199082, 43.659603298444786], "screen_name": "HILLORYPR", "time": 1469047399.0, "tid": 755790197154017281, "text": "Feelin' full Filipino \ud83d\ude4b\ud83c\udffb @ Island Yacht Club Toronto https://t.co/Mk30QtcTh0", "created_at": "Wed Jul 20 15:43:19 +0000 2016", "klabel": 110}}, {"geometry": {"type": "Point", "coordinates": [-79.39615488, 43.63160243]}, "type": "Feature", "id": 755810954907099136, "properties": {"loc": [-79.39615488, 43.63160243], "centroid": [-79.36544332199082, 43.659603298444786], "screen_name": "LuiSays", "time": 1469052348.0, "tid": 755810954907099136, "text": "Ottawa bound reppin ICPresents at #engageassoc #eventprofs (@ Billy Bishop Toronto City Airport - @bbishopairport) https://t.co/yds5s1y0YX", "created_at": "Wed Jul 20 17:05:48 +0000 2016", "klabel": 110}}, {"geometry": {"type": "Point", "coordinates": [-79.4031399, 43.63735]}, "type": "Feature", "id": 755823263511609344, "properties": {"loc": [-79.4031399, 43.63735], "centroid": [-79.36544332199082, 43.659603298444786], "screen_name": "JCMcNeill", "time": 1469055283.0, "tid": 755823263511609344, "text": "Pre-work pool days #poolselfie #summer #toronto @ The York Harbour Club https://t.co/7Twlq834sh", "created_at": "Wed Jul 20 17:54:43 +0000 2016", "klabel": 110}}, {"geometry": {"type": "Point", "coordinates": [-79.39673, 43.64002]}, "type": "Feature", "id": 755882397502214144, "properties": {"loc": [-79.39673, 43.64002], "centroid": [-79.36544332199082, 43.659603298444786], "screen_name": "designretailmag", "time": 1469069381.0, "tid": 755882397502214144, "text": "Hello Toronto! Come see us @hunterslanding if you are in town. #designretail #drcityscene @\u2026 https://t.co/u04nQH4cbP", "created_at": "Wed Jul 20 21:49:41 +0000 2016", "klabel": 110}}, {"geometry": {"type": "Point", "coordinates": [-79.398019, 43.63948]}, "type": "Feature", "id": 755894316904611840, "properties": {"loc": [-79.398019, 43.63948], "centroid": [-79.36544332199082, 43.659603298444786], "screen_name": "tpscalls", "time": 1469072223.0, "tid": 755894316904611840, "text": "Missing Vulnerable Person | Fort York Blvd &amp; Dan Leckie Way [14 Div.] 07/20 18:30 #CityPlace #Toronto", "created_at": "Wed Jul 20 22:37:03 +0000 2016", "klabel": 110}}, {"geometry": {"type": "Point", "coordinates": [-79.39696, 43.64009]}, "type": "Feature", "id": 755910020055851008, "properties": {"loc": [-79.39696, 43.64009], "centroid": [-79.36544332199082, 43.659603298444786], "screen_name": "GirlieGirl168", "time": 1469075967.0, "tid": 755910020055851008, "text": "Dinner is ready!! Shareable mini platter with potatoe chips, garlic fries. First time trying\u2026 https://t.co/5dPWXf8IdW", "created_at": "Wed Jul 20 23:39:27 +0000 2016", "klabel": 110}}, {"geometry": {"type": "Point", "coordinates": [-79.3960986, 43.63190316]}, "type": "Feature", "id": 755910164692213761, "properties": {"loc": [-79.3960986, 43.63190316], "centroid": [-79.36544332199082, 43.659603298444786], "screen_name": "Steve_Dao", "time": 1469076002.0, "tid": 755910164692213761, "text": "Every time I fly from here, I ALWAYS stop for this pic looking back at #The6ix ... headed to\u2026 https://t.co/25mD9ZsKxt", "created_at": "Wed Jul 20 23:40:02 +0000 2016", "klabel": 110}}, {"geometry": {"type": "Point", "coordinates": [-79.40171, 43.63201]}, "type": "Feature", "id": 755932899300478977, "properties": {"loc": [-79.40171, 43.63201], "centroid": [-79.36544332199082, 43.659603298444786], "screen_name": "champagnehouses", "time": 1469081422.0, "tid": 755932899300478977, "text": "#torontowaterfront #toronto #dogsofinstagram #everydayimbrusselin #dog #dogs #dogsoftoronto\u2026 https://t.co/8PfaqnZfR2", "created_at": "Thu Jul 21 01:10:22 +0000 2016", "klabel": 110}}, {"geometry": {"type": "Point", "coordinates": [-79.40093659, 43.63371982]}, "type": "Feature", "id": 755963768987942912, "properties": {"loc": [-79.40093659, 43.63371982], "centroid": [-79.36544332199082, 43.659603298444786], "screen_name": "KovacsSasha", "time": 1469088782.0, "tid": 755963768987942912, "text": "@porterairlines what's happening on the runway tonight?", "created_at": "Thu Jul 21 03:13:02 +0000 2016", "klabel": 110}}, {"geometry": {"type": "Point", "coordinates": [-79.40061, 43.6387685]}, "type": "Feature", "id": 756003787182047232, "properties": {"loc": [-79.40061, 43.6387685], "centroid": [-79.36544332199082, 43.659603298444786], "screen_name": "tpscalls", "time": 1469098323.0, "tid": 756003787182047232, "text": "Disorderlies | Fleet St Lake Shore Blvd Ramp &amp; Fort York Blvd [14 Div.] 07/21 01:46 #Toronto", "created_at": "Thu Jul 21 05:52:03 +0000 2016", "klabel": 110}}, {"geometry": {"type": "Point", "coordinates": [-79.3952, 43.64]}, "type": "Feature", "id": 756094521335767040, "properties": {"loc": [-79.3952, 43.64], "centroid": [-79.36544332199082, 43.659603298444786], "screen_name": "Type1Dayna", "time": 1469119956.0, "tid": 756094521335767040, "text": "This #breakfast went in my belly freaking delicious #epicure #fitfood #fitfoodie #foodstgram\u2026 https://t.co/LtxgMQVR6a", "created_at": "Thu Jul 21 11:52:36 +0000 2016", "klabel": 110}}, {"geometry": {"type": "Point", "coordinates": [-79.4032142, 43.636064]},