{"type": "FeatureCollection", "features": [{"geometry": {"type": "Point", "coordinates": [-79.4191859, 43.65525103]}, "type": "Feature", "id": 705079656471535621, "properties": {"loc": [-79.4191859, 43.65525103], "centroid": [-79.53559086767045, 43.823800978219694], "screen_name": "DJ_Casilimas", "time": 1456957064.0, "tid": 705079656471535621, "text": "\ud83d\udea8\ud83d\udea8\ud83d\udea8 LATIN SATURDAYS\ud83d\udea8\ud83d\udea8\ud83d\udea8 This Saturday I'll be guest DJ mana_barlounge alongside djgeomix1 &amp;\u2026 https://t.co/G95ExDRKxR", "created_at": "Wed Mar 02 17:17:44 +0000 2016", "klabel": 113}}, {"geometry": {"type": "Point", "coordinates": [-79.4191758, 43.65533375]}, "type": "Feature", "id": 705096033903251457, "properties": {"loc": [-79.4191758, 43.65533375], "centroid": [-79.53559086767045, 43.823800978219694], "screen_name": "SimplyGaurav", "time": 1456960969.0, "tid": 705096033903251457, "text": "Thursday, March 24th...Toronto's Longest Running Bhangra Party \"LUV TO BHANG\" presents Easter\u2026 https://t.co/zSEz8DRmuk", "created_at": "Wed Mar 02 18:22:49 +0000 2016", "klabel": 113}}, {"geometry": {"type": "Point", "coordinates": [-79.4133301, 43.6550484]}, "type": "Feature", "id": 705097383584112640, "properties": {"loc": [-79.4133301, 43.6550484], "centroid": [-79.53559086767045, 43.823800978219694], "screen_name": "foodfables", "time": 1456961290.0, "tid": 705097383584112640, "text": "Making #fettuccine with my adopted #nonna for the afternoon while learning about and #tasting\u2026 https://t.co/dL0bpH36r0", "created_at": "Wed Mar 02 18:28:10 +0000 2016", "klabel": 113}}, {"geometry": {"type": "Point", "coordinates": [-79.4094162, 43.6517792]}, "type": "Feature", "id": 705102464480108544, "properties": {"loc": [-79.4094162, 43.6517792], "centroid": [-79.53559086767045, 43.823800978219694], "screen_name": "HashtagGallery", "time": 1456962502.0, "tid": 705102464480108544, "text": "Setting up for the #Unrelated show opening tomorrow. @bigsips x @hashtaggallery \n\n7pm at\u2026 https://t.co/z5kyRUeCb6", "created_at": "Wed Mar 02 18:48:22 +0000 2016", "klabel": 113}}, {"geometry": {"type": "Point", "coordinates": [-79.4094162, 43.6517792]}, "type": "Feature", "id": 705106147804618753, "properties": {"loc": [-79.4094162, 43.6517792], "centroid": [-79.53559086767045, 43.823800978219694], "screen_name": "HashtagGallery", "time": 1456963380.0, "tid": 705106147804618753, "text": "Love Your...\nEric Clement (@bigsips )\n24\" x30\"\n2016\n\nPart of the #Unrelated show March 3-13 @\u2026 https://t.co/i0FTqgTDjP", "created_at": "Wed Mar 02 19:03:00 +0000 2016", "klabel": 113}}, {"geometry": {"type": "Point", "coordinates": [-79.4257813, 43.6539497]}, "type": "Feature", "id": 705113747254177792, "properties": {"loc": [-79.4257813, 43.6539497], "centroid": [-79.53559086767045, 43.823800978219694], "screen_name": "CycleCouture", "time": 1456965192.0, "tid": 705113747254177792, "text": "Do your worst Toronto. You got nothing on the @spotbikes Acme! #torontocycling #bikerepair\u2026 https://t.co/gjdmxyY58x", "created_at": "Wed Mar 02 19:33:12 +0000 2016", "klabel": 113}}, {"geometry": {"type": "Point", "coordinates": [-79.4133301, 43.6550484]}, "type": "Feature", "id": 705130438352879625, "properties": {"loc": [-79.4133301, 43.6550484], "centroid": [-79.53559086767045, 43.823800978219694], "screen_name": "annabelwlee", "time": 1456969171.0, "tid": 705130438352879625, "text": "Obsessed with Nonna Giuseppina \ud83d\ude18\ud83c\udf45 #NonnaLovesMutti @ Dish Cooking Studio https://t.co/ZQkPZ8tJ4j", "created_at": "Wed Mar 02 20:39:31 +0000 2016", "klabel": 113}}, {"geometry": {"type": "Point", "coordinates": [-79.4257126, 43.6539307]}, "type": "Feature", "id": 705140217368412161, "properties": {"loc": [-79.4257126, 43.6539307], "centroid": [-79.53559086767045, 43.823800978219694], "screen_name": "theemmetray", "time": 1456971503.0, "tid": 705140217368412161, "text": "Guinness Beef Stew @TheEmmetRay with Buttermilk Biscuit #EmmetRayFood #Stew #Guinness\u2026 https://t.co/srxK4vexii", "created_at": "Wed Mar 02 21:18:23 +0000 2016", "klabel": 113}}, {"geometry": {"type": "Point", "coordinates": [-79.41779052, 43.65529494]}, "type": "Feature", "id": 705143199707353092, "properties": {"loc": [-79.41779052, 43.65529494], "centroid": [-79.53559086767045, 43.823800978219694], "screen_name": "RyojiToronto", "time": 1456972214.0, "tid": 705143199707353092, "text": "We're taking our usual spring break and will be open from 5pm weekdays. And still open for lunch\u2026 https://t.co/W0gG6quZKH", "created_at": "Wed Mar 02 21:30:14 +0000 2016", "klabel": 113}}, {"geometry": {"type": "Point", "coordinates": [-79.4165573, 43.6552811]}, "type": "Feature", "id": 705173646407540737, "properties": {"loc": [-79.4165573, 43.6552811], "centroid": [-79.53559086767045, 43.823800978219694], "screen_name": "RomarJohnson", "time": 1456979473.0, "tid": 705173646407540737, "text": "#fa\u00e7adeMontage: Advanced #Tickets available for sale at #junerecords and #ticketfly $6 #MIMICO,\u2026 https://t.co/ie5EMwEo3W", "created_at": "Wed Mar 02 23:31:13 +0000 2016", "klabel": 113}}, {"geometry": {"type": "Point", "coordinates": [-79.42585, 43.65346]}, "type": "Feature", "id": 705182679147409408, "properties": {"loc": [-79.42585, 43.65346], "centroid": [-79.53559086767045, 43.823800978219694], "screen_name": "realcroney", "time": 1456981627.0, "tid": 705182679147409408, "text": "https://t.co/2Zc3iVfqwn good idea people @ West End YMCA https://t.co/WHfLfaqm21", "created_at": "Thu Mar 03 00:07:07 +0000 2016", "klabel": 113}}, {"geometry": {"type": "Point", "coordinates": [-79.4094162, 43.6517792]}, "type": "Feature", "id": 705191913520029697, "properties": {"loc": [-79.4094162, 43.6517792], "centroid": [-79.53559086767045, 43.823800978219694], "screen_name": "HashtagGallery", "time": 1456983828.0, "tid": 705191913520029697, "text": "New work by Johnny Hollick (@hashtaggallery ) for the #Unrelated show March 3-13\n\n#Art #Toronto\u2026 https://t.co/KPSTivIcQH", "created_at": "Thu Mar 03 00:43:48 +0000 2016", "klabel": 113}}, {"geometry": {"type": "Point", "coordinates": [-79.4259109, 43.6540108]}, "type": "Feature", "id": 705228190034354176, "properties": {"loc": [-79.4259109, 43.6540108], "centroid": [-79.53559086767045, 43.823800978219694], "screen_name": "LMGProductions", "time": 1456992477.0, "tid": 705228190034354176, "text": "Tomorrow! #JayEdwards, @rexyspice, and @IAMBIC_BE_US! #SpreadingEmpowermentThroughArt @ Folly\u2026 https://t.co/4XFNqB9lQN", "created_at": "Thu Mar 03 03:07:57 +0000 2016", "klabel": 113}}, {"geometry": {"type": "Point", "coordinates": [-79.4257126, 43.6539307]}, "type": "Feature", "id": 705253763813089280, "properties": {"loc": [-79.4257126, 43.6539307], "centroid": [-79.53559086767045, 43.823800978219694], "screen_name": "theemmetray", "time": 1456998574.0, "tid": 705253763813089280, "text": "Live tonight and every other Wednesday @TheEmmetRay .... The Naive with singer front women\u2026 https://t.co/g9ZT09DYkX", "created_at": "Thu Mar 03 04:49:34 +0000 2016", "klabel": 113}}, {"geometry": {"type": "Point", "coordinates": [-79.42073208, 43.65478593]}, "type": "Feature", "id": 705386209921495040, "properties": {"loc": [-79.42073208, 43.65478593], "centroid": [-79.53559086767045, 43.823800978219694], "screen_name": "AinsleyKerr", "time": 1457030152.0, "tid": 705386209921495040, "text": "Last minute reservations @BarIsabel797?!Thank you @dinrapp for getting us into one of the\u2026 https://t.co/0AWGJwuDkv", "created_at": "Thu Mar 03 13:35:52 +0000 2016", "klabel": 113}}, {"geometry": {"type": "Point", "coordinates": [-79.4097214, 43.6557503]}, "type": "Feature", "id": 705405806716592129, "properties": {"loc": [-79.4097214, 43.6557503], "centroid": [-79.53559086767045, 43.823800978219694], "screen_name": "gibbgab", "time": 1457034824.0, "tid": 705405806716592129, "text": "i need the summer and a smoothie #tb @ La Carnita https://t.co/HVbrOejH2q", "created_at": "Thu Mar 03 14:53:44 +0000 2016", "klabel": 113}}, {"geometry": {"type": "Point", "coordinates": [-79.41716, 43.66012]}, "type": "Feature", "id": 705431859329630208, "properties": {"loc": [-79.41716, 43.66012], "centroid": [-79.53559086767045, 43.823800978219694], "screen_name": "nanopodstudio", "time": 1457041036.0, "tid": 705431859329630208, "text": "Make your own #Mythical #beast in our #Jackalope mount workshop taking place March 12 with\u2026 https://t.co/BPbmQbK15T", "created_at": "Thu Mar 03 16:37:16 +0000 2016", "klabel": 113}}, {"geometry": {"type": "Point", "coordinates": [-79.4191859, 43.65525103]}, "type": "Feature", "id": 705449245868957696, "properties": {"loc": [-79.4191859, 43.65525103], "centroid": [-79.53559086767045, 43.823800978219694], "screen_name": "DJ_Casilimas", "time": 1457045181.0, "tid": 705449245868957696, "text": "\ud83d\udc83\ud83c\udffd\ud83d\udd0a\ud83d\udd25\ud83d\udcaf\ud83d\ude1c This Saturday I'll be guest DJ mana_barlounge alongside djgeomix1 &amp; @djpinax Spinning the\u2026 https://t.co/JZQIW4by87", "created_at": "Thu Mar 03 17:46:21 +0000 2016", "klabel": 113}}, {"geometry": {"type": "Point", "coordinates": [-79.41779052, 43.65529494]}, "type": "Feature", "id": 705459119742984192, "properties": {"loc": [-79.41779052, 43.65529494], "centroid": [-79.53559086767045, 43.823800978219694], "screen_name": "RyojiToronto", "time": 1457047535.0, "tid": 705459119742984192, "text": "We're giving away our first 5 #FREE #RAMEN from our email list tomorrow! It's not too late to\u2026 https://t.co/Cu5PrNFgjb", "created_at": "Thu Mar 03 18:25:35 +0000 2016", "klabel": 113}}, {"geometry": {"type": "Point", "coordinates": [-79.41716, 43.66012]}, "type": "Feature", "id": 705488531456712704, "properties": {"loc": [-79.41716, 43.66012], "centroid": [-79.53559086767045, 43.823800978219694], "screen_name": "nanopodstudio", "time": 1457054547.0, "tid": 705488531456712704, "text": "Taking comfort in #comfortfood of my people #Posole lucky to have #TacosElAsador just around the\u2026 https://t.co/gpQGLUh4mN", "created_at": "Thu Mar 03 20:22:27 +0000 2016", "klabel": 113}}, {"geometry": {"type": "Point", "coordinates": [-79.40880036, 43.65604415]}, "type": "Feature", "id": 705516928912203778, "properties": {"loc": [-79.40880036, 43.65604415], "centroid": [-79.53559086767045, 43.823800978219694], "screen_name": "nattyunchained", "time": 1457061318.0, "tid": 705516928912203778, "text": "I scroll through UberEats the way you scroll through Instagram", "created_at": "Thu Mar 03 22:15:18 +0000 2016", "klabel": 113}}, {"geometry": {"type": "Point", "coordinates": [-79.413998, 43.65528]}, "type": "Feature", "id": 705528277696389120, "properties": {"loc": [-79.413998, 43.65528], "centroid": [-79.53559086767045, 43.823800978219694], "screen_name": "andreayuen", "time": 1457064024.0, "tid": 705528277696389120, "text": "I'm at Krazy Corean in Toronto, Ontario w/ @foodinthecityto https://t.co/xwQOtN2M5N", "created_at": "Thu Mar 03 23:00:24 +0000 2016", "klabel": 113}}, {"geometry": {"type": "Point", "coordinates": [-79.409172, 43.651524]}, "type": "Feature", "id": 705547346197782528, "properties": {"loc": [-79.409172, 43.651524], "centroid": [-79.53559086767045, 43.823800978219694], "screen_name": "ianirving", "time": 1457068570.0, "tid": 705547346197782528, "text": "At the march EmberTO meetup #ember #emberjs #toronto (@ Dundas Video in Toronto) https://t.co/wZt4ApGY00", "created_at": "Fri Mar 04 00:16:10 +0000 2016", "klabel": 113}}, {"geometry": {"type": "Point", "coordinates": [-79.4238129, 43.6544609]}, "type": "Feature", "id": 705563098212597760, "properties": {"loc": [-79.4238129, 43.6544609], "centroid": [-79.53559086767045, 43.823800978219694], "screen_name": "jeremywalmsley", "time": 1457072325.0, "tid": 705563098212597760, "text": "'Where the Buffalo Roam' featured cocktail created by my brotha Max at @trackfieldbar .  He know\u2026 https://t.co/ndNB33k31U", "created_at": "Fri Mar 04 01:18:45 +0000 2016", "klabel": 113}}, {"geometry": {"type": "Point", "coordinates": [-79.4094162, 43.6517792]}, "type": "Feature", "id": 705566599638618112, "properties": {"loc": [-79.4094162, 43.6517792], "centroid": [-79.53559086767045, 43.823800978219694], "screen_name": "HashtagGallery", "time": 1457073160.0, "tid": 705566599638618112, "text": "\"To Hell\"\nEric Clement (@bigsips)\n30\" x24\"\nAcrylic on Panel\n$750\n\nPart of the #UNRELATED show\u2026 https://t.co/CFUo0KiUTh", "created_at": "Fri Mar 04 01:32:40 +0000 2016", "klabel": 113}}, {"geometry": {"type": "Point", "coordinates": [-79.4094162, 43.6517792]}, "type": "Feature", "id": 705568325263163392, "properties": {"loc": [-79.4094162, 43.6517792], "centroid": [-79.53559086767045, 43.823800978219694], "screen_name": "paolocase", "time": 1457073572.0, "tid": 705568325263163392, "text": "Detail, \"SQ002,\" Johnny Hollick. @ #Hashtag Gallery https://t.co/8OJIea2sDg", "created_at": "Fri Mar 04 01:39:32 +0000 2016", "klabel": 113}}, {"geometry": {"type": "Point", "coordinates": [-79.4094162, 43.6517792]}, "type": "Feature", "id": 705569177839403008, "properties": {"loc": [-79.4094162, 43.6517792], "centroid": [-79.53559086767045, 43.823800978219694], "screen_name": "paolocase", "time": 1457073775.0, "tid": 705569177839403008, "text": "Detail, \"DYS001,\" Johnny Hollick. #Art #Toronto @ #Hashtag Gallery https://t.co/E13fqQKQIW", "created_at": "Fri Mar 04 01:42:55 +0000 2016", "klabel": 113}}, {"geometry": {"type": "Point", "coordinates": [-79.4259109, 43.6540108]}, "type": "Feature", "id": 705581747287805952, "properties": {"loc": [-79.4259109, 43.6540108], "centroid": [-79.53559086767045, 43.823800978219694], "screen_name": "Arlene_Paculan", "time": 1457076772.0, "tid": 705581747287805952, "text": "Jay Edwards starting off @lmgproductions' #WonderFest Series here at @follybrewing! #livemusic\u2026 https://t.co/BEbJDj3f7a", "created_at": "Fri Mar 04 02:32:52 +0000 2016", "klabel": 113}}, {"geometry": {"type": "Point", "coordinates": [-79.41276893, 43.65538605]}, "type": "Feature", "id": 705582176641875968, "properties": {"loc": [-79.41276893, 43.65538605], "centroid": [-79.53559086767045, 43.823800978219694], "screen_name": "janetheclapp", "time": 1457076874.0, "tid": 705582176641875968, "text": "Chronic pain issues have come up a lot this week at the studio. Chronic pain is a trauma unto\u2026 https://t.co/nQ1XRQ3Bri", "created_at": "Fri Mar 04 02:34:34 +0000 2016", "klabel": 113}}, {"geometry": {"type": "Point", "coordinates": [-79.41593349, 43.65035623]}, "type": "Feature", "id": 705588086831452162, "properties": {"loc": [-79.41593349, 43.65035623], "centroid": [-79.53559086767045, 43.823800978219694], "screen_name": "LeDolci", "time": 1457078283.0, "tid": 705588086831452162, "text": "This is what happens in #BakingBootcamp Mondays. Join our last 4 classes by signing up for\u2026 https://t.co/PVWz5dnkI7", "created_at": "Fri Mar 04 02:58:03 +0000 2016", "klabel": 113}}, {"geometry": {"type": "Point", "coordinates": [-79.4163208, 43.6641884]}, "type": "Feature", "id": 705590858696040449, "properties": {"loc": [-79.4163208, 43.6641884], "centroid": [-79.53559086767045, 43.823800978219694], "screen_name": "foxadam", "time": 1457078944.0, "tid": 705590858696040449, "text": "#kintonramen #bowlers @ Kinton Ramen https://t.co/ycbZ0le8JC", "created_at": "Fri Mar 04 03:09:04 +0000 2016", "klabel": 113}}, {"geometry": {"type": "Point", "coordinates": [-79.4092484, 43.6518211]}, "type": "Feature", "id": 705593443138084864, "properties": {"loc": [-79.4092484, 43.6518211], "centroid": [-79.53559086767045, 43.823800978219694], "screen_name": "bamtravels", "time": 1457079560.0, "tid": 705593443138084864, "text": "Live art battles at Studio Bar.\n\n#studiobar #bamtravels #thursdayparty #getoutandlive\u2026 https://t.co/3b9zRCDUYB", "created_at": "Fri Mar 04 03:19:20 +0000 2016", "klabel": 113}}, {"geometry": {"type": "Point", "coordinates": [-79.4092484, 43.6518211]}, "type": "Feature", "id": 705595058276270080, "properties": {"loc": [-79.4092484, 43.6518211], "centroid": [-79.53559086767045, 43.823800978219694], "screen_name": "trinishotta", "time": 1457079945.0, "tid": 705595058276270080, "text": "Vibes for the night. #TorontoTropical inside @studiobarto #TROPICALBASS #Caribbean #Latin #soca\u2026 https://t.co/xQ8ym5flRe", "created_at": "Fri Mar 04 03:25:45 +0000 2016", "klabel": 113}}, {"geometry": {"type": "Point", "coordinates": [-79.41632298, 43.65506541]}, "type": "Feature", "id": 705600836928303104, "properties": {"loc": [-79.41632298, 43.65506541], "centroid": [-79.53559086767045, 43.823800978219694], "screen_name": "DjiTubz", "time": 1457081323.0, "tid": 705600836928303104, "text": "\ud83d\udc64 41.1 kHz @ Li'ly Lounge @ Li'ly Lounge, College Street https://t.co/6VBYEiZnYh", "created_at": "Fri Mar 04 03:48:43 +0000 2016", "klabel": 113}}, {"geometry": {"type": "Point", "coordinates": [-79.41632298, 43.65506541]}, "type": "Feature", "id": 705601463490195456, "properties": {"loc": [-79.41632298, 43.65506541], "centroid": [-79.53559086767045, 43.823800978219694], "screen_name": "DjiTubz", "time": 1457081472.0, "tid": 705601463490195456, "text": "\ud83d\udc64 41.1 kHz @ Li'ly Lounge, College Street https://t.co/6VBYEiZnYh", "created_at": "Fri Mar 04 03:51:12 +0000 2016", "klabel": 113}}, {"geometry": {"type": "Point", "coordinates": [-79.4094162, 43.6517792]}, "type": "Feature", "id": 705632292757065728, "properties": {"loc": [-79.4094162, 43.6517792], "centroid": [-79.53559086767045, 43.823800978219694], "screen_name": "h_tothe_D", "time": 1457088823.0, "tid": 705632292757065728, "text": "Head on over to @hashtaggallery and check out the amazing work of my fam, friend and artist\u2026 https://t.co/dj2frhTV4c", "created_at": "Fri Mar 04 05:53:43 +0000 2016", "klabel": 113}}, {"geometry": {"type": "Point", "coordinates": [-79.4114531, 43.65573]}, "type": "Feature", "id": 705749879176327169, "properties": {"loc": [-79.4114531, 43.65573], "centroid": [-79.53559086767045, 43.823800978219694], "screen_name": "tmj_gta_hrta", "time": 1457116858.0, "tid": 705749879176327169, "text": "Interested in a #Hospitality #job near 542 COLLEGE STREET, #TORONTO, ON? This could be a great fit: https://t.co/Ybb5Vs0Wu1 #Veterans", "created_at": "Fri Mar 04 13:40:58 +0000 2016", "klabel": 113}}, {"geometry": {"type": "Point", "coordinates": [-79.41593349, 43.65035623]}, "type": "Feature", "id": 705755420435062784, "properties": {"loc": [-79.41593349, 43.65035623], "centroid": [-79.53559086767045, 43.823800978219694], "screen_name": "LeDolci", "time": 1457118179.0, "tid": 705755420435062784, "text": "Our #MarchBreak Kids #Camp March 14-18, 8:30 a.m. to 2:30 p.m. Still has a few spaces for your\u2026 https://t.co/Xhm2wv9s0P", "created_at": "Fri Mar 04 14:02:59 +0000 2016", "klabel": 113}}, {"geometry": {"type": "Point", "coordinates": [-79.41219, 43.65523]}, "type": "Feature", "id": 705844735731179524, "properties": {"loc": [-79.41219, 43.65523], "centroid": [-79.53559086767045, 43.823800978219694], "screen_name": "__KarrieSmith__", "time": 1457139473.0, "tid": 705844735731179524, "text": "TONIGHT\n\u2514\u25b6 # UNLEASH EVERY FRIDAY @ BLIND TIGER!\n\ud83d\udd36\ud83d\udd36\ud83d\udd36\ud83d\udd36\ud83d\udd36\ud83d\udd36\ud83d\udd36\n559 COLLEGE STREET WEST  (COLLAGE and\u2026 https://t.co/82bInUdvxG", "created_at": "Fri Mar 04 19:57:53 +0000 2016", "klabel": 113}}, {"geometry": {"type": "Point", "coordinates": [-79.41276893, 43.65538605]}, "type": "Feature", "id": 705850927132119044, "properties": {"loc": [-79.41276893, 43.65538605], "centroid": [-79.53559086767045, 43.823800978219694], "screen_name": "janetheclapp", "time": 1457140949.0, "tid": 705850927132119044, "text": "\"When patterns are broken, new worlds can emerge\" (Tuli Kuoferberg). I like challenging clients\u2026 https://t.co/gva9Cu6Nh9", "created_at": "Fri Mar 04 20:22:29 +0000 2016", "klabel": 113}}, {"geometry": {"type": "Point", "coordinates": [-79.417014, 43.650092]}, "type": "Feature", "id": 705856230959480832, "properties": {"loc": [-79.417014, 43.650092], "centroid": [-79.53559086767045, 43.823800978219694], "screen_name": "taranoellephoto", "time": 1457142214.0, "tid": 705856230959480832, "text": "Pulling some amazing #canadian brands for Sunday's shoot w/ Missy Olson \u2764\ufe0f (at @StylistBox in Toronto, Ontario) https://t.co/OZdOd2vjKT", "created_at": "Fri Mar 04 20:43:34 +0000 2016", "klabel": 113}}, {"geometry": {"type": "Point", "coordinates": [-79.41155179, 43.65253483]}, "type": "Feature", "id": 705865050695852033, "properties": {"loc": [-79.41155179, 43.65253483], "centroid": [-79.53559086767045, 43.823800978219694], "screen_name": "taranoellephoto", "time": 1457144317.0, "tid": 705865050695852033, "text": "Finally Home \u2764\ufe0f (@ Tara Noelle Photography in Toronto, ON) https://t.co/mKEc2CV7wb", "created_at": "Fri Mar 04 21:18:37 +0000 2016", "klabel": 113}}, {"geometry": {"type": "Point", "coordinates": [-79.4129633, 43.65542675]}, "type": "Feature", "id": 705868776739348480, "properties": {"loc": [-79.4129633, 43.65542675], "centroid": [-79.53559086767045, 43.823800978219694], "screen_name": "1800Travoy", "time": 1457145205.0, "tid": 705868776739348480, "text": "TONIGHT IS THE NIGHT! I still got some 5$ passes (that only work until midnight \ud83d\ude12) so hit me up\u2026 https://t.co/WulAI3swub", "created_at": "Fri Mar 04 21:33:25 +0000 2016", "klabel": 113}}, {"geometry": {"type": "Point", "coordinates": [-79.41593349, 43.65035623]}, "type": "Feature", "id": 705873369749692417, "properties": {"loc": [-79.41593349, 43.65035623], "centroid": [-79.53559086767045, 43.823800978219694], "screen_name": "LeDolci", "time": 1457146300.0, "tid": 705873369749692417, "text": "We've got these hot chicks in store for you! Come pick them up or pre-order for your #Easter egg\u2026 https://t.co/mD8CVbT2oK", "created_at": "Fri Mar 04 21:51:40 +0000 2016", "klabel": 113}}, {"geometry": {"type": "Point", "coordinates": [-79.4180069, 43.6550713]}, "type": "Feature", "id": 705883928490414084, "properties": {"loc": [-79.4180069, 43.6550713], "centroid": [-79.53559086767045, 43.823800978219694], "screen_name": "torshcaters", "time": 1457148817.0, "tid": 705883928490414084, "text": "Gearing up for norooz \ud83d\udcaa\ud83c\udffc we will be offering SABZI POLO BA MAHI (rainbow trout with fresh herbed\u2026 https://t.co/ZDpSMgzL3c", "created_at": "Fri Mar 04 22:33:37 +0000 2016", "klabel": 113}}, {"geometry": {"type": "Point", "coordinates": [-79.41219, 43.65523]}, "type": "Feature", "id": 705900538395828224, "properties": {"loc": [-79.41219, 43.65523], "centroid": [-79.53559086767045, 43.823800978219694], "screen_name": "__KarrieSmith__", "time": 1457152778.0, "tid": 705900538395828224, "text": "TONIGHT\n\u2514\u25b6 # UNLEASH EVERY FRIDAY @ BLIND TIGER!\n\ud83d\udd36\ud83d\udd36\ud83d\udd36\ud83d\udd36\ud83d\udd36\ud83d\udd36\ud83d\udd36\n559 COLLEGE STREET WEST  (COLLAGE and\u2026 https://t.co/fb4fkXD2Ny", "created_at": "Fri Mar 04 23:39:38 +0000 2016", "klabel": 113}}, {"geometry": {"type": "Point", "coordinates": [-79.41716, 43.66012]}, "type": "Feature", "id": 705900665718120448, "properties": {"loc": [-79.41716, 43.66012], "centroid": [-79.53559086767045, 43.823800978219694], "screen_name": "nanopodstudio", "time": 1457152808.0, "tid": 705900665718120448, "text": "Studio #makeover Day #13 &amp; #paint that will make it like #Halloween everyday #torontoartists\u2026 https://t.co/V4VpyPdgnr", "created_at": "Fri Mar 04 23:40:08 +0000 2016", "klabel": 113}}, {"geometry": {"type": "Point", "coordinates": [-79.4098698, 43.65595647]}, "type": "Feature", "id": 705919173659066368, "properties": {"loc": [-79.4098698, 43.65595647], "centroid": [-79.53559086767045, 43.823800978219694], "screen_name": "beautycubed", "time": 1457157221.0, "tid": 705919173659066368, "text": "It's been a looonngg week (at @DaiLoTo in Toronto, ON) https://t.co/9wFFlr2wEO", "created_at": "Sat Mar 05 00:53:41 +0000 2016", "klabel": 113}}, {"geometry": {"type": "Point", "coordinates": [-79.42002336, 43.65477899]}, "type": "Feature", "id": 705987105806290944, "properties": {"loc": [-79.42002336, 43.65477899], "centroid": [-79.53559086767045, 43.823800978219694], "screen_name": "fwmello", "time": 1457173417.0, "tid": 705987105806290944, "text": "Sequin Sunrise #Toronto #FridayNight @ Revival Bar https://t.co/dFWMJ91hwV", "created_at": "Sat Mar 05 05:23:37 +0000 2016", "klabel": 113}}, {"geometry": {"type": "Point", "coordinates": [-79.42002336, 43.65477899]}, "type": "Feature", "id": 705991908791853056, "properties": {"loc": [-79.42002336, 43.65477899], "centroid": [-79.53559086767045, 43.823800978219694], "screen_name": "GOODMUSICTOM", "time": 1457174562.0, "tid": 705991908791853056, "text": "@thespandettes at revivalbartoronto Funk music always make me wanna get super fucking\u2026 https://t.co/5WJl2JD9Gh", "created_at": "Sat Mar 05 05:42:42 +0000 2016", "klabel": 113}}, {"geometry": {"type": "Point", "coordinates": [-79.4092484, 43.6518211]}, "type": "Feature", "id": 706028070570958848, "properties": {"loc": [-79.4092484, 43.6518211], "centroid": [-79.53559086767045, 43.823800978219694], "screen_name": "jadeleeh", "time": 1457183184.0, "tid": 706028070570958848, "text": "#thanks melanieeeeeej \ud83d\ude48 #solid #advice #dontdoit #6side #tdot #toronto @ STUDIO BAR https://t.co/0UFP9Ic9gq", "created_at": "Sat Mar 05 08:06:24 +0000 2016", "klabel": 113}}, {"geometry": {"type": "Point", "coordinates": [-79.4092484, 43.6518211]}, "type": "Feature", "id": 706045147176259585, "properties": {"loc": [-79.4092484, 43.6518211], "centroid": [-79.53559086767045, 43.823800978219694], "screen_name": "moosebigelow", "time": 1457187255.0, "tid": 706045147176259585, "text": "Judging by the smirk on his face, I'd say he had a good night tonight, round two tomorrow\u2026 https://t.co/UIX2UI3mcW", "created_at": "Sat Mar 05 09:14:15 +0000 2016", "klabel": 113}}, {"geometry": {"type": "Point", "coordinates": [-79.4092484, 43.6518211]}, "type": "Feature", "id": 706167181952880640, "properties": {"loc": [-79.4092484, 43.6518211], "centroid": [-79.53559086767045, 43.823800978219694], "screen_name": "bamtravels", "time": 1457216350.0, "tid": 706167181952880640, "text": "Great event at #TorontoTropical! Congrats to our winners.\n\n#winners #prize #visitkorea #music\u2026 https://t.co/P5eTI5UZQa", "created_at": "Sat Mar 05 17:19:10 +0000 2016", "klabel": 113}}, {"geometry": {"type": "Point", "coordinates": [-79.40978, 43.6560135]}, "type": "Feature", "id": 749757284545331206, "properties": {"loc": [-79.40978, 43.6560135], "centroid": [-79.53559086767045, 43.823800978219694], "screen_name": "yyzgirl", "time": 1467609041.0, "tid": 749757284545331206, "text": "Meant to take this before we started eating &amp; drinking #goodeats #toronto #to #barraval #tapas\u2026 https://t.co/0pttmCARo6", "created_at": "Mon Jul 04 00:10:41 +0000 2016", "klabel": 113}}, {"geometry": {"type": "Point", "coordinates": [-79.42578, 43.65395]}, "type": "Feature", "id": 749757630588022784, "properties": {"loc": [-79.42578, 43.65395], "centroid": [-79.53559086767045, 43.823800978219694], "screen_name": "CycleCouture", "time": 1467609123.0, "tid": 749757630588022784, "text": "Happy pride! #torontopride #pridetoronto @ Cycle Couture - Love your bike https://t.co/cAMpGQEMxl", "created_at": "Mon Jul 04 00:12:03 +0000 2016", "klabel": 113}}, {"geometry": {"type": "Point", "coordinates": [-79.41813558, 43.66144112]}, "type": "Feature", "id": 749764512543301632, "properties": {"loc": [-79.41813558, 43.66144112], "centroid": [-79.53559086767045, 43.823800978219694], "screen_name": "nic_uh_la", "time": 1467610764.0, "tid": 749764512543301632, "text": "Prime bat-watching territory.\n#Toronto #summer #bats @ Bickford Park https://t.co/GxnNBCb27r", "created_at": "Mon Jul 04 00:39:24 +0000 2016", "klabel": 113}}, {"geometry": {"type": "Point", "coordinates": [-79.4092484, 43.6518211]}, "type": "Feature", "id": 749768852804960256, "properties": {"loc": [-79.4092484, 43.6518211], "centroid": [-79.53559086767045, 43.823800978219694], "screen_name": "ILiveRadio", "time": 1467611799.0, "tid": 749768852804960256, "text": "Sol Dust live at the Spot \nStudio Bar @ STUDIO BAR https://t.co/eWCOsOi8xK", "created_at": "Mon Jul 04 00:56:39 +0000 2016", "klabel": 113}}, {"geometry": {"type": "Point", "coordinates": [-79.4092484, 43.6518211]}, "type": "Feature", "id": 749770994244542464, "properties": {"loc": [-79.4092484, 43.6518211], "centroid": [-79.53559086767045, 43.823800978219694], "screen_name": "andymargs", "time": 1467612309.0, "tid": 749770994244542464, "text": "#psychedelic #visuals #cool #3dmapping #vj #crazy #projection #photoftheday #pictoftheday #dj\u2026 https://t.co/PksaGckxLa", "created_at": "Mon Jul 04 01:05:09 +0000 2016", "klabel": 113}}, {"geometry": {"type": "Point", "coordinates": [-79.41615, 43.65532]}, "type": "Feature", "id": 749776470613061632, "properties": {"loc": [-79.41615, 43.65532], "centroid": [-79.53559086767045, 43.823800978219694], "screen_name": "ChefHer0", "time": 1467613615.0, "tid": 749776470613061632, "text": "Check out this amazing restaurant @KasaiGrillHouse ! Thanks for having us :) #chefhero\u2026 https://t.co/HBG4TAsP6Y", "created_at": "Mon Jul 04 01:26:55 +0000 2016", "klabel": 113}}, {"geometry": {"type": "Point", "coordinates": [-79.4120964, 43.6507378]}, "type": "Feature", "id": 749781035588648960, "properties": {"loc": [-79.4120964, 43.6507378], "centroid": [-79.53559086767045, 43.823800978219694], "screen_name": "tpscalls", "time": 1467614703.0, "tid": 749781035588648960, "text": "See Ambulance | Bellwoods Pl &amp; Claremont Pl [14 Div.] 07/03 21:41 #Trinity_Bellwoods #Toronto", "created_at": "Mon Jul 04 01:45:03 +0000 2016", "klabel": 113}}, {"geometry": {"type": "Point", "coordinates": [-79.41615, 43.65532]}, "type": "Feature", "id": 749784759430221824, "properties": {"loc": [-79.41615, 43.65532], "centroid": [-79.53559086767045, 43.823800978219694], "screen_name": "ChefHer0", "time": 1467615591.0, "tid": 749784759430221824, "text": "Our feast @KasaiGrillHouse #chefhero @ Kasai Grill House https://t.co/6epYLDSoXk", "created_at": "Mon Jul 04 01:59:51 +0000 2016", "klabel": 113}}, {"geometry": {"type": "Point", "coordinates": [-79.41134, 43.65138]}, "type": "Feature", "id": 749796004178698240, "properties": {"loc": [-79.41134, 43.65138], "centroid": [-79.53559086767045, 43.823800978219694], "screen_name": "ispyalexandra", "time": 1467618272.0, "tid": 749796004178698240, "text": "@torontojazzfest #brownman #oridagan #oridaganjazz @ M\u00e2y https://t.co/NRupU79cx9", "created_at": "Mon Jul 04 02:44:32 +0000 2016", "klabel": 113}}, {"geometry": {"type": "Point", "coordinates": [-79.4193, 43.6552]}, "type": "Feature", "id": 749964840278560768, "properties": {"loc": [-79.4193, 43.6552], "centroid": [-79.53559086767045, 43.823800978219694], "screen_name": "noorieo", "time": 1467658526.0, "tid": 749964840278560768, "text": "FIENDS @ Mod Club Theatre https://t.co/omAv0jAMQa", "created_at": "Mon Jul 04 13:55:26 +0000 2016", "klabel": 113}}, {"geometry": {"type": "Point", "coordinates": [-79.4193, 43.6552]}, "type": "Feature", "id": 749980277523578881, "properties": {"loc": [-79.4193, 43.6552], "centroid": [-79.53559086767045, 43.823800978219694], "screen_name": "Adis25", "time": 1467662206.0, "tid": 749980277523578881, "text": "@earthgang were LIT last night #fkDonaldTrump @ Mod Club Theatre https://t.co/XVTkOpqvAT", "created_at": "Mon Jul 04 14:56:46 +0000 2016", "klabel": 113}}, {"geometry": {"type": "Point", "coordinates": [-79.41276893, 43.65538605]}, "type": "Feature", "id": 750023444092321792, "properties": {"loc": [-79.41276893, 43.65538605], "centroid": [-79.53559086767045, 43.823800978219694], "screen_name": "janetheclapp", "time": 1467672498.0, "tid": 750023444092321792, "text": "Get grounded fast. Push against a wall. Feel your palms. Feel free to our feet in the ground.\u2026 https://t.co/fbbdkPC2gE", "created_at": "Mon Jul 04 17:48:18 +0000 2016", "klabel": 113}}, {"geometry": {"type": "Point", "coordinates": [-79.421775, 43.65464]}, "type": "Feature", "id": 750034348267626496, "properties": {"loc": [-79.421775, 43.65464], "centroid": [-79.53559086767045, 43.823800978219694], "screen_name": "papajoemambo", "time": 1467675098.0, "tid": 750034348267626496, "text": "Hearts, Minds, Coffee and Bellies with arjun.writer.toronto .\n#meeting #coffee #confab @ Boom\u2026 https://t.co/9UGCZeY8Bg", "created_at": "Mon Jul 04 18:31:38 +0000 2016", "klabel": 113}}, {"geometry": {"type": "Point", "coordinates": [-79.4191758, 43.65533375]}, "type": "Feature", "id": 750041161419587584, "properties": {"loc": [-79.4191758, 43.65533375], "centroid": [-79.53559086767045, 43.823800978219694], "screen_name": "JRMXIIXVI", "time": 1467676722.0, "tid": 750041161419587584, "text": "#FIENDS killed it last night \ud83d\udd25\ud83d\udc4f\ud83c\udffc @fiendbassy #TooHighToRiotTour #TooHighToRiotTourToronto\u2026 https://t.co/n2V3Do1dz1", "created_at": "Mon Jul 04 18:58:42 +0000 2016", "klabel": 113}}, {"geometry": {"type": "Point", "coordinates": [-79.41259, 43.65506]}, "type": "Feature", "id": 750048515468980224, "properties": {"loc": [-79.41259, 43.65506], "centroid": [-79.53559086767045, 43.823800978219694], "screen_name": "416serg", "time": 1467678475.0, "tid": 750048515468980224, "text": "\ud83d\udcd0\u2702\ufe0f @ 342 Manning Ave. https://t.co/o5zPJOreKc", "created_at": "Mon Jul 04 19:27:55 +0000 2016", "klabel": 113}}, {"geometry": {"type": "Point", "coordinates": [-79.4191758, 43.65533375]}, "type": "Feature", "id": 750048737792233472, "properties": {"loc": [-79.4191758, 43.65533375], "centroid": [-79.53559086767045, 43.823800978219694], "screen_name": "JRMXIIXVI", "time": 1467678528.0, "tid": 750048737792233472, "text": "@fiendbassy ft. @the_hics - Ricochet \ud83d\udd0a #TooHighToRiotTour #Dreamville #Bas #TheHics @ Virgin\u2026 https://t.co/lcJREy3NAe", "created_at": "Mon Jul 04 19:28:48 +0000 2016", "klabel": 113}}, {"geometry": {"type": "Point", "coordinates": [-79.41716, 43.66012]}, "type": "Feature", "id": 750063054344196097, "properties": {"loc": [-79.41716, 43.66012], "centroid": [-79.53559086767045, 43.823800978219694], "screen_name": "nanopodstudio", "time": 1467681942.0, "tid": 750063054344196097, "text": "Working with Sphingidae Acherontia lachesis #deathheadmoth #hannibal #installation #specimen\u2026 https://t.co/ckifOnpitS", "created_at": "Mon Jul 04 20:25:42 +0000 2016", "klabel": 113}}, {"geometry": {"type": "Point", "coordinates": [-79.4191758, 43.65533375]}, "type": "Feature", "id": 750065622579499008, "properties": {"loc": [-79.4191758, 43.65533375], "centroid": [-79.53559086767045, 43.823800978219694], "screen_name": "CordellCockett3", "time": 1467682554.0, "tid": 750065622579499008, "text": "Gained a lot of respect for @fiendbassy after his concert last night\ud83d\udd25\ud83d\udd25\ud83d\ude4cDidn't even know who the\u2026 https://t.co/ifnVnQQEXu", "created_at": "Mon Jul 04 20:35:54 +0000 2016", "klabel": 113}}, {"geometry": {"type": "Point", "coordinates": [-79.417053, 43.6500633]}, "type": "Feature", "id": 750070190310887428, "properties": {"loc": [-79.417053, 43.6500633], "centroid": [-79.53559086767045, 43.823800978219694], "screen_name": "tpscalls", "time": 1467683643.0, "tid": 750070190310887428, "text": "Personal Injury Collision | Dundas St W &amp; Crawford St [HP] 07/04 16:50 #Little_Italy #Toronto", "created_at": "Mon Jul 04 20:54:03 +0000 2016", "klabel": 113}}, {"geometry": {"type": "Point", "coordinates": [-79.42585, 43.65346]}, "type": "Feature", "id": 750085343500701696, "properties": {"loc": [-79.42585, 43.65346], "centroid": [-79.53559086767045, 43.823800978219694], "screen_name": "rodneybowers", "time": 1467687256.0, "tid": 750085343500701696, "text": "Just slammin back a couple of burgers\ud83c\udf54\ud83d\udcaa\ud83c\udf54\n#totalgym #motivation #motivationmonday #hustlin\u2026 https://t.co/r1QEGfmMN2", "created_at": "Mon Jul 04 21:54:16 +0000 2016", "klabel": 113}}, {"geometry": {"type": "Point", "coordinates": [-79.41531635, 43.65544878]}, "type": "Feature", "id": 750088926040301568, "properties": {"loc": [-79.41531635, 43.65544878], "centroid": [-79.53559086767045, 43.823800978219694], "screen_name": "Kitty_Radio", "time": 1467688110.0, "tid": 750088926040301568, "text": "My new Radio Family chinradiocanada #salesassistant #salescoordinator #chinradio #chintv\u2026 https://t.co/P9OlymsTKk", "created_at": "Mon Jul 04 22:08:30 +0000 2016", "klabel": 113}}, {"geometry": {"type": "Point", "coordinates": [-79.4193, 43.6552]}, "type": "Feature", "id": 750089452706488320, "properties": {"loc": [-79.4193, 43.6552], "centroid": [-79.53559086767045, 43.823800978219694], "screen_name": "tbxxiiv", "time": 1467688236.0, "tid": 750089452706488320, "text": "ily @dvsndvsn \u2728 @ Mod Club Theatre https://t.co/YyD2h0nQR4", "created_at": "Mon Jul 04 22:10:36 +0000 2016", "klabel": 113}}, {"geometry": {"type": "Point", "coordinates": [-79.416914, 43.66005]}, "type": "Feature", "id": 750092085919907840, "properties": {"loc": [-79.416914, 43.66005], "centroid": [-79.53559086767045, 43.823800978219694], "screen_name": "tpscalls", "time": 1467688863.0, "tid": 750092085919907840, "text": "Personal Injury Collision | Harbord St &amp; Jersey Ave [HP] 07/04 18:17 #Palmerston_Little_Italy #Toronto", "created_at": "Mon Jul 04 22:21:03 +0000 2016", "klabel": 113}}, {"geometry": {"type": "Point", "coordinates": [-79.41951326, 43.6551377]}, "type": "Feature", "id": 750105830981246977, "properties": {"loc": [-79.41951326, 43.6551377], "centroid": [-79.53559086767045, 43.823800978219694], "screen_name": "ElConventoRico", "time": 1467692141.0, "tid": 750105830981246977, "text": "FRIDAY JULY 8th\nFirst Time Performing &amp; Celebrating Her Birthday DESITY joined by Jasmine Black\u2026 https://t.co/xGM4FGpnuB", "created_at": "Mon Jul 04 23:15:41 +0000 2016", "klabel": 113}}, {"geometry": {"type": "Point", "coordinates": [-79.41951326, 43.6551377]}, "type": "Feature", "id": 750106497250721792, "properties": {"loc": [-79.41951326, 43.6551377], "centroid": [-79.53559086767045, 43.823800978219694], "screen_name": "ElConventoRico", "time": 1467692299.0, "tid": 750106497250721792, "text": "#THEMOTHERHOUSE \nSATURDAY NIGHT with MAGIC MALE REVUE, Sasha Montenegro, Devine Darlin &amp;\u2026 https://t.co/YZhAV1tmPj", "created_at": "Mon Jul 04 23:18:19 +0000 2016", "klabel": 113}}, {"geometry": {"type": "Point", "coordinates": [-79.42013209, 43.65748921]}, "type": "Feature", "id": 750131599119884288, "properties": {"loc": [-79.42013209, 43.65748921], "centroid": [-79.53559086767045, 43.823800978219694], "screen_name": "NatalieZed", "time": 1467698284.0, "tid": 750131599119884288, "text": "@lisa_TTRO @amascriver try being in a D&amp;D campaign", "created_at": "Tue Jul 05 00:58:04 +0000 2016", "klabel": 113}}, {"geometry": {"type": "Point", "coordinates": [-79.4191758, 43.65533375]}, "type": "Feature", "id": 750142487910637572, "properties": {"loc": [-79.4191758, 43.65533375], "centroid": [-79.53559086767045, 43.823800978219694], "screen_name": "DeanAivaliotis", "time": 1467700880.0, "tid": 750142487910637572, "text": "Cool shot from a show with @AutumnPortrait - we're playing at Union Station this Friday at 7pm.\u2026 https://t.co/dTpCFkO9AL", "created_at": "Tue Jul 05 01:41:20 +0000 2016", "klabel": 113}}, {"geometry": {"type": "Point", "coordinates": [-79.41636, 43.65524]}, "type": "Feature", "id": 750172688769880064, "properties": {"loc": [-79.41636, 43.65524], "centroid": [-79.53559086767045, 43.823800978219694], "screen_name": "lamont_dex", "time": 1467708081.0, "tid": 750172688769880064, "text": "Roadblock vs BUMP \nJungle vs Garage \n\nJuly 8th at Lily Lounge\u2026 https://t.co/yt0PlGsqnw", "created_at": "Tue Jul 05 03:41:21 +0000 2016", "klabel": 113}}, {"geometry": {"type": "Point", "coordinates": [-79.42199866, 43.65453341]}, "type": "Feature", "id": 750177988612796417, "properties": {"loc": [-79.42199866, 43.65453341], "centroid": [-79.53559086767045, 43.823800978219694], "screen_name": "papajoemambo", "time": 1467709344.0, "tid": 750177988612796417, "text": "Fact.\n#fact #advice @ Fort Pappy 807 College St. Toronto ON https://t.co/rHWTdCB4rN", "created_at": "Tue Jul 05 04:02:24 +0000 2016", "klabel": 113}}, {"geometry": {"type": "Point", "coordinates": [-79.41219, 43.65523]}, "type": "Feature", "id": 750198291762180096, "properties": {"loc": [-79.41219, 43.65523], "centroid": [-79.53559086767045, 43.823800978219694], "screen_name": "DescreetWorld", "time": 1467714185.0, "tid": 750198291762180096, "text": "Come find a future wife/husband ...for the night lol #blindtigerthursday #thursdaynight.\u2026 https://t.co/wUk2nAmCv9", "created_at": "Tue Jul 05 05:23:05 +0000 2016", "klabel": 113}}, {"geometry": {"type": "Point", "coordinates": [-79.4091873, 43.6558609]}, "type": "Feature", "id": 750203371785560064, "properties": {"loc": [-79.4091873, 43.6558609], "centroid": [-79.53559086767045, 43.823800978219694], "screen_name": "aashnisshah", "time": 1467715396.0, "tid": 750203371785560064, "text": "A giant HAPPY BIRTHDAY to the wonderful @lenore_ramirez &lt;3 so happy to have you in my life\u2026 https://t.co/mP0V0MyPWZ", "created_at": "Tue Jul 05 05:43:16 +0000 2016", "klabel": 113}}, {"geometry": {"type": "Point", "coordinates": [-79.414661, 43.660519]}, "type": "Feature", "id": 750279571354845185, "properties": {"loc": [-79.414661, 43.660519], "centroid": [-79.53559086767045, 43.823800978219694], "screen_name": "tofire", "time": 1467733563.0, "tid": 750279571354845185, "text": "Alarm Institution - Manning Avenue b/w Harbord St / Lennox St, Toronto (7 Trucks)", "created_at": "Tue Jul 05 10:46:03 +0000 2016", "klabel": 113}}, {"geometry": {"type": "Point", "coordinates": [-79.414661, 43.660519]}, "type": "Feature", "id": 750279572114051072, "properties": {"loc": [-79.414661, 43.660519], "centroid": [-79.53559086767045, 43.823800978219694], "screen_name": "tofireS", "time": 1467733564.0, "tid": 750279572114051072, "text": "Alarm Institution - Manning Avenue b/w Harbord St / Lennox St, Toronto (7 Trucks)", "created_at": "Tue Jul 05 10:46:04 +0000 2016", "klabel": 113}}, {"geometry": {"type": "Point", "coordinates": [-79.414661, 43.660519]}, "type": "Feature", "id": 750280573894201345, "properties": {"loc": [-79.414661, 43.660519], "centroid": [-79.53559086767045, 43.823800978219694], "screen_name": "tofireS", "time": 1467733803.0, "tid": 750280573894201345, "text": "UD: Alarm Institution - Manning Avenue b/w Harbord St / Lennox St, Toronto (8 Trucks)", "created_at": "Tue Jul 05 10:50:03 +0000 2016", "klabel": 113}}, {"geometry": {"type": "Point", "coordinates": [-79.4096998, 43.6515564]}, "type": "Feature", "id": 750295168671215616, "properties": {"loc": [-79.4096998, 43.6515564], "centroid": [-79.53559086767045, 43.823800978219694], "screen_name": "tpscalls", "time": 1467737282.0, "tid": 750295168671215616, "text": "Property Damage Collision | Dundas St W &amp; Euclid Ave [HP] 07/05 07:42 #Little_Italy #Toronto", "created_at": "Tue Jul 05 11:48:02 +0000 2016", "klabel": 113}}, {"geometry": {"type": "Point", "coordinates": [-79.4096998, 43.6515564]}, "type": "Feature", "id": 750308506985783296, "properties": {"loc": [-79.4096998, 43.6515564], "centroid": [-79.53559086767045, 43.823800978219694], "screen_name": "tofire", "time": 1467740462.0, "tid": 750308506985783296, "text": "Vehicle (Spill Clean Up) - Dundas St b/w Euclid Avenue / Lane West Euclid South Dundas, Toronto (2 Trucks)", "created_at": "Tue Jul 05 12:41:02 +0000 2016", "klabel": 113}}, {"geometry": {"type": "Point", "coordinates": [-79.42190742, 43.65458039]}, "type": "Feature", "id": 750309097837387776, "properties": {"loc": [-79.42190742, 43.65458039], "centroid": [-79.53559086767045, 43.823800978219694], "screen_name": "GFreedomInc", "time": 1467740603.0, "tid": 750309097837387776, "text": "Tuesday, amiright? starving_artist_toronto has VEGAN + GF waffles (x2)- a delicious new\u2026 https://t.co/SZSSQ12XQx", "created_at": "Tue Jul 05 12:43:23 +0000 2016", "klabel": 113}}, {"geometry": {"type": "Point", "coordinates": [-79.4097479, 43.6615139]}, "type": "Feature", "id": 750312290168270848, "properties": {"loc": [-79.4097479, 43.6615139], "centroid": [-79.53559086767045, 43.823800978219694], "screen_name": "tofire", "time": 1467741364.0, "tid": 750312290168270848, "text": "Rescue (Elevator) - Bathurst St b/w Harbord St / Herrick St, Toronto (3 Trucks)", "created_at": "Tue Jul 05 12:56:04 +0000 2016", "klabel": 113}}, {"geometry": {"type": "Point", "coordinates": [-79.4097479, 43.6615139]}, "type": "Feature", "id": 750312290981912576, "properties": {"loc": [-79.4097479, 43.6615139], "centroid": [-79.53559086767045, 43.823800978219694], "screen_name": "tofireS", "time": 1467741364.0, "tid": 750312290981912576, "text": "Rescue (Elevator) - Bathurst St b/w Harbord St / Herrick St, Toronto (3 Trucks)", "created_at": "Tue Jul 05 12:56:04 +0000 2016", "klabel": 113}}, {"geometry": {"type": "Point", "coordinates": [-79.4127143, 43.6603202]}, "type": "Feature", "id": 750324109930889216, "properties": {"loc": [-79.4127143, 43.6603202], "centroid": [-79.53559086767045, 43.823800978219694], "screen_name": "tpscalls", "time": 1467744182.0, "tid": 750324109930889216, "text": "Natural Gas Leak | Ln N Queen W Markham &amp; Ln S Robinson W Palmerston [14 Div.] 07/05 09:38 #Old_Toronto", "created_at": "Tue Jul 05 13:43:02 +0000 2016", "klabel": 113}}, {"geometry": {"type": "Point", "coordinates": [-79.413, 43.655]}, "type": "Feature", "id": 750325566289633280, "properties": {"loc": [-79.413, 43.655], "centroid": [-79.53559086767045, 43.823800978219694], "screen_name": "_fashionate__", "time": 1467744530.0, "tid": 750325566289633280, "text": "2\ufe0f\u20e37\ufe0f\u20e3 yesterday!!\n#styledbyfashionate #bdaydinner #ootd #4thofjuly #dior #alexandermcqueen #ysl\u2026 https://t.co/ZngSinyQ74", "created_at": "Tue Jul 05 13:48:50 +0000 2016", "klabel": 113}}, {"geometry": {"type": "Point", "coordinates": [-79.41995, 43.65468]}, "type": "Feature", "id": 750329414307680256, "properties": {"loc": [-79.41995, 43.65468], "centroid": [-79.53559086767045, 43.823800978219694], "screen_name": "DJKarimK", "time": 1467745447.0, "tid": 750329414307680256, "text": "Tomorrow @ Revival Bar || @dtrreality set up a crazy lineup! Surprise guest to perform too!\u2026 https://t.co/giepFOs4l9", "created_at": "Tue Jul 05 14:04:07 +0000 2016", "klabel": 113}}, {"geometry": {"type": "Point", "coordinates": [-79.4168916, 43.65504476]}, "type": "Feature", "id": 750346191376830464, "properties": {"loc": [-79.4168916, 43.65504476], "centroid": [-79.53559086767045, 43.823800978219694], "screen_name": "daithijc", "time": 1467749447.0, "tid": 750346191376830464, "text": "Queue for ice-cream. 30\u00b0! #toronto #icecreamtruck @ College Street https://t.co/RahMgQMRMB", "created_at": "Tue Jul 05 15:10:47 +0000 2016", "klabel": 113}}, {"geometry": {"type": "Point", "coordinates": [-79.4193, 43.6552]}, "type": "Feature", "id": 751213999945986049, "properties": {"loc": [-79.4193, 43.6552], "centroid": [-79.53559086767045, 43.823800978219694], "screen_name": "Manifesto_TO", "time": 1467956349.0, "tid": 751213999945986049, "text": "Co-presented by @IRememberReggae and @inkevents, @MNFSTO10 is bringing Jamaican contemporary\u2026 https://t.co/rGxrzAIbQx", "created_at": "Fri Jul 08 00:39:09 +0000 2016", "klabel": 113}}, {"geometry": {"type": "Point", "coordinates": [-79.409955, 43.655802]}, "type": "Feature", "id": 751224844361015296, "properties": {"loc": [-79.409955, 43.655802], "centroid": [-79.53559086767045, 43.823800978219694], "screen_name": "jeremypotvin", "time": 1467958934.0, "tid": 751224844361015296, "text": "Today was a good day. (@ LoPan in Toronto, Ontario) https://t.co/dtQ2WJQEQr", "created_at": "Fri Jul 08 01:22:14 +0000 2016", "klabel": 113}}, {"geometry": {"type": "Point", "coordinates": [-79.4193, 43.6552]}, "type": "Feature", "id": 751238275013173248, "properties": {"loc": [-79.4193, 43.6552], "centroid": [-79.53559086767045, 43.823800978219694], "screen_name": "SocaDread", "time": 1467962136.0, "tid": 751238275013173248, "text": "Checking out the @RAW_artists #NaturalBornArtist (Toronto) showcase S/O to the talented\u2026 https://t.co/kThzRKFEHB", "created_at": "Fri Jul 08 02:15:36 +0000 2016", "klabel": 113}}, {"geometry": {"type": "Point", "coordinates": [-79.4193, 43.6552]}, "type": "Feature", "id": 751240667460988929, "properties": {"loc": [-79.4193, 43.6552], "centroid": [-79.53559086767045, 43.823800978219694], "screen_name": "SocaDread", "time": 1467962707.0, "tid": 751240667460988929, "text": "@blairryderx on stage at @RAW_artists #NaturalBornArtist (Toronto) showcase\n\n#TorontoArt\u2026 https://t.co/TXdbDvDz1N", "created_at": "Fri Jul 08 02:25:07 +0000 2016", "klabel": 113}}, {"geometry": {"type": "Point", "coordinates": [-79.4091873, 43.6558609]}, "type": "Feature", "id": 751641640364871681, "properties": {"loc": [-79.4091873, 43.6558609], "centroid": [-79.53559086767045, 43.823800978219694], "screen_name": "julesjulesjules", "time": 1468058306.0, "tid": 751641640364871681, "text": "Found a board game bar. Yay! @ Snakes &amp; Lattes https://t.co/lLX5tCJmK1", "created_at": "Sat Jul 09 04:58:26 +0000 2016", "klabel": 113}}, {"geometry": {"type": "Point", "coordinates": [-79.41552, 43.66395]}, "type": "Feature", "id": 751651148856078336, "properties": {"loc": [-79.41552, 43.66395], "centroid": [-79.53559086767045, 43.823800978219694], "screen_name": "SamNikahwal", "time": 1468060573.0, "tid": 751651148856078336, "text": "When she tries to eat my food, I smack her hand away and talk to the neighbouring group of\u2026 https://t.co/FobNecB7A8", "created_at": "Sat Jul 09 05:36:13 +0000 2016", "klabel": 113}}, {"geometry": {"type": "Point", "coordinates": [-79.40931638, 43.65174689]}, "type": "Feature", "id": 751748088319049728, "properties": {"loc": [-79.40931638, 43.65174689], "centroid": [-79.53559086767045, 43.823800978219694], "screen_name": "knottrudy", "time": 1468083685.0, "tid": 751748088319049728, "text": "Hitting the Stage on Saturday July https://t.co/b0T7Zv3wla Bar on Dundaa st. Its\u2026 https://t.co/8MASnkq5XG", "created_at": "Sat Jul 09 12:01:25 +0000 2016", "klabel": 113}}, {"geometry": {"type": "Point", "coordinates": [-79.40918, 43.65149]}, "type": "Feature", "id": 751800415101026304, "properties": {"loc": [-79.40918, 43.65149], "centroid": [-79.53559086767045, 43.823800978219694], "screen_name": "ntupechka", "time": 1468096161.0, "tid": 751800415101026304, "text": "All set up with practical_magic_  at the bellwoodsfleato. Stop by for chair reiki,  tarot\u2026 https://t.co/CO1OSwUjTw", "created_at": "Sat Jul 09 15:29:21 +0000 2016", "klabel": 113}}, {"geometry": {"type": "Point", "coordinates": [-79.41652535, 43.65499595]}, "type": "Feature", "id": 751805518482706432, "properties": {"loc": [-79.41652535, 43.65499595], "centroid": [-79.53559086767045, 43.823800978219694], "screen_name": "marco_vivoli", "time": 1468097378.0, "tid": 751805518482706432, "text": "#customerappreciationday #patiopartyisback #porchetta #pigroast #livedj #ourbdaybash #today\u2026 https://t.co/O5drlQCAFM", "created_at": "Sat Jul 09 15:49:38 +0000 2016", "klabel": 113}}, {"geometry": {"type": "Point", "coordinates": [-79.41652535, 43.65499595]}, "type": "Feature", "id": 751858150823911426, "properties": {"loc": [-79.41652535, 43.65499595], "centroid": [-79.53559086767045, 43.823800978219694], "screen_name": "marco_vivoli", "time": 1468109926.0, "tid": 751858150823911426, "text": "#Repost @vivolitoronto with repostapp\n\u30fb\u30fb\u30fb\nCelebrating #vivolitoronto #customerappreciation day\u2026 https://t.co/9XC4wA18iM", "created_at": "Sat Jul 09 19:18:46 +0000 2016", "klabel": 113}}, {"geometry": {"type": "Point", "coordinates": [-79.40918, 43.65149]}, "type": "Feature", "id": 751876697121849344, "properties": {"loc": [-79.40918, 43.65149], "centroid": [-79.53559086767045, 43.823800978219694], "screen_name": "ntupechka", "time": 1468114348.0, "tid": 751876697121849344, "text": "When your life is a hot mess and you're looking for answers in the cards like....PLEASE Angels\u2026 https://t.co/VbQb66vAQL", "created_at": "Sat Jul 09 20:32:28 +0000 2016", "klabel": 113}}, {"geometry": {"type": "Point", "coordinates": [-79.41995, 43.65468]}, "type": "Feature", "id": 751891498485051392, "properties": {"loc": [-79.41995, 43.65468], "centroid": [-79.53559086767045, 43.823800978219694], "screen_name": "AvaNoir", "time": 1468117877.0, "tid": 751891498485051392, "text": "On my way to #kittynightsto!\n80's theme tonight and my look is inspired by one of my favourite\u2026 https://t.co/bitStzpS6a", "created_at": "Sat Jul 09 21:31:17 +0000 2016", "klabel": 113}}, {"geometry": {"type": "Point", "coordinates": [-79.41956, 43.65532]}, "type": "Feature", "id": 751905565736103937, "properties": {"loc": [-79.41956, 43.65532], "centroid": [-79.53559086767045, 43.823800978219694], "screen_name": "ElConventoRico", "time": 1468121231.0, "tid": 751905565736103937, "text": "TONIGHT! MAGIC MALE REVUE at 11:20pm &amp; Our Main Show at 12:30am with Sasha Montenegro, Donnarama\u2026 https://t.co/TRrxxU11ng", "created_at": "Sat Jul 09 22:27:11 +0000 2016", "klabel": 113}}, {"geometry": {"type": "Point", "coordinates": [-79.413873, 43.655223]}, "type": "Feature", "id": 751913849452916737, "properties": {"loc": [-79.413873, 43.655223], "centroid": [-79.53559086767045, 43.823800978219694], "screen_name": "tofire", "time": 1468123206.0, "tid": 751913849452916737, "text": "Medical (Unconscious) - Clinton St b/w College St / Lane South Harbord West Manning, Toronto (2 Trucks)", "created_at": "Sat Jul 09 23:00:06 +0000 2016", "klabel": 113}}, {"geometry": {"type": "Point", "coordinates": [-79.41735613, 43.65997222]}, "type": "Feature", "id": 751927372157480960, "properties": {"loc": [-79.41735613, 43.65997222], "centroid": [-79.53559086767045, 43.823800978219694], "screen_name": "MichaleRaske", "time": 1468126430.0, "tid": 751927372157480960, "text": "Spectacular #shakeofthemonth @bandbmaltshopto: #thecanuck (#maple #walnut #buttertart #shake)!!\u2026 https://t.co/nLYODpJ7xU", "created_at": "Sat Jul 09 23:53:50 +0000 2016", "klabel": 113}}, {"geometry": {"type": "Point", "coordinates": [-79.4261113, 43.65351274]}, "type": "Feature", "id": 751930122165481472, "properties": {"loc": [-79.4261113, 43.65351274], "centroid": [-79.53559086767045, 43.823800978219694], "screen_name": "seanbeckingham", "time": 1468127085.0, "tid": 751930122165481472, "text": "Let's get back at this. (@ West End YMCA in Toronto, ON) https://t.co/4ubl42tPlh", "created_at": "Sun Jul 10 00:04:45 +0000 2016", "klabel": 113}}, {"geometry": {"type": "Point", "coordinates": [-79.41716, 43.66012]}, "type": "Feature", "id": 751932687561003008, "properties": {"loc": [-79.41716, 43.66012], "centroid": [-79.53559086767045, 43.823800978219694], "screen_name": "nanopodstudio", "time": 1468127697.0, "tid": 751932687561003008, "text": "Yrs ago the beautiful fantastical generous @katebornstein personally handed me this card. I\u2026 https://t.co/I9j7bLaxSC", "created_at": "Sun Jul 10 00:14:57 +0000 2016", "klabel": 113}}, {"geometry": {"type": "Point", "coordinates": [-79.41305, 43.65563]}, "type": "Feature", "id": 751952888113487872, "properties": {"loc": [-79.41305, 43.65563], "centroid": [-79.53559086767045, 43.823800978219694], "screen_name": "bartenderone", "time": 1468132513.0, "tid": 751952888113487872, "text": "Our boy David turns 26... And rocks his first Blue Blazer! @ CSBKitchen https://t.co/gFQUyJ47It", "created_at": "Sun Jul 10 01:35:13 +0000 2016", "klabel": 113}}, {"geometry": {"type": "Point", "coordinates": [-79.41995, 43.65468]}, "type": "Feature", "id": 751961830172405760, "properties": {"loc": [-79.41995, 43.65468], "centroid": [-79.53559086767045, 43.823800978219694], "screen_name": "ispyalexandra", "time": 1468134645.0, "tid": 751961830172405760, "text": "#madonnaholiday #revivalbar #80sparty revivalbartoronto @ Revival Bar https://t.co/eZWvxTDeTq", "created_at": "Sun Jul 10 02:10:45 +0000 2016", "klabel": 113}}, {"geometry": {"type": "Point", "coordinates": [-79.41995, 43.65468]}, "type": "Feature", "id": 751964745775738880, "properties": {"loc": [-79.41995, 43.65468], "centroid": [-79.53559086767045, 43.823800978219694], "screen_name": "ispyalexandra", "time": 1468135340.0, "tid": 751964745775738880, "text": "#80sparty revivalbartoronto @burgundybrixx @ Revival Bar https://t.co/e5MX9BQ5uG", "created_at": "Sun Jul 10 02:22:20 +0000 2016", "klabel": 113}}, {"geometry": {"type": "Point", "coordinates": [-79.41995, 43.65468]}, "type": "Feature", "id": 751965245946499072, "properties": {"loc": [-79.41995, 43.65468], "centroid": [-79.53559086767045, 43.823800978219694], "screen_name": "ispyalexandra", "time": 1468135460.0, "tid": 751965245946499072, "text": "#revivalbar #80sparty revivalbartoronto @ Revival Bar https://t.co/6iBqgaF6UY", "created_at": "Sun Jul 10 02:24:20 +0000 2016", "klabel": 113}}, {"geometry": {"type": "Point", "coordinates": [-79.41577, 43.65481]}, "type": "Feature", "id": 751969704114204672, "properties": {"loc": [-79.41577, 43.65481], "centroid": [-79.53559086767045, 43.823800978219694], "screen_name": "JennAndTheCity", "time": 1468136523.0, "tid": 751969704114204672, "text": "\"Hey, let's go somewhere that has boozy ice cream floats and a foozeball table.\"\n\n\"Uhh, ok!\" @\u2026 https://t.co/U43s95LKsq", "created_at": "Sun Jul 10 02:42:03 +0000 2016", "klabel": 113}}, {"geometry": {"type": "Point", "coordinates": [-79.40982038, 43.65587991]}, "type": "Feature", "id": 751975851256864768, "properties": {"loc": [-79.40982038, 43.65587991], "centroid": [-79.53559086767045, 43.823800978219694], "screen_name": "SarJaneElliott", "time": 1468137988.0, "tid": 751975851256864768, "text": "Just a casual margarita cheers. ashsmolls katfindlay \ud83c\udf78\ud83c\udf7b\ud83c\udf2e\u2026 https://t.co/r72ONhSnz1", "created_at": "Sun Jul 10 03:06:28 +0000 2016", "klabel": 113}}, {"geometry": {"type": "Point", "coordinates": [-79.41642, 43.65503]}, "type": "Feature", "id": 751988951443918849, "properties": {"loc": [-79.41642, 43.65503], "centroid": [-79.53559086767045, 43.823800978219694], "screen_name": "paulpalele", "time": 1468141111.0, "tid": 751988951443918849, "text": "Date night! \ud83d\udd0a\ud83c\udf78\ud83d\udeac (with Cichi at Lily Lounge) \u2014 https://t.co/aUJ0Krhmbs", "created_at": "Sun Jul 10 03:58:31 +0000 2016", "klabel": 113}}, {"geometry": {"type": "Point", "coordinates": [-79.41995, 43.65468]}, "type": "Feature", "id": 751992168449871873, "properties": {"loc": [-79.41995, 43.65468], "centroid": [-79.53559086767045, 43.823800978219694], "screen_name": "ispyalexandra", "time": 1468141878.0, "tid": 751992168449871873, "text": "@burgundybrixx revivalbartoronto #kittynightstoronto @ Revival Bar https://t.co/tMuCp0GmDF", "created_at": "Sun Jul 10 04:11:18 +0000 2016", "klabel": 113}}, {"geometry": {"type": "Point", "coordinates": [-79.4159533, 43.6640987]}, "type": "Feature", "id": 752083201871474688, "properties": {"loc": [-79.4159533, 43.6640987], "centroid": [-79.53559086767045, 43.823800978219694], "screen_name": "tpscalls", "time": 1468163583.0, "tid": 752083201871474688, "text": "Hazard | Bloor St W &amp; Manning Ave [14 Div.] 07/10 06:07 #Midtown_Toronto", "created_at": "Sun Jul 10 10:13:03 +0000 2016", "klabel": 113}}, {"geometry": {"type": "Point", "coordinates": [-79.42585, 43.65346]}, "type": "Feature", "id": 752108873322995712, "properties": {"loc": [-79.42585, 43.65346], "centroid": [-79.53559086767045, 43.823800978219694], "screen_name": "rodneybowers", "time": 1468169703.0, "tid": 752108873322995712, "text": "Sweating in the morning sun ! #empty streets\n.\n.\n#Sunday #workout #goodmorning #sundaymorning\u2026 https://t.co/8EkSexhdaI", "created_at": "Sun Jul 10 11:55:03 +0000 2016", "klabel": 113}}, {"geometry": {"type": "Point", "coordinates": [-79.4115619, 43.6611465]}, "type": "Feature", "id": 752128249371721728, "properties": {"loc": [-79.4115619, 43.6611465], "centroid": [-79.53559086767045, 43.823800978219694], "screen_name": "tpscalls", "time": 1468174323.0, "tid": 752128249371721728, "text": "Noise Complaint | Ln E Grace S Jersey &amp; Harbord St [14 Div.] 07/10 09:07 #Old_Toronto", "created_at": "Sun Jul 10 13:12:03 +0000 2016", "klabel": 113}}, {"geometry": {"type": "Point", "coordinates": [-79.41995, 43.65468]}, "type": "Feature", "id": 752141673329618944, "properties": {"loc": [-79.41995, 43.65468], "centroid": [-79.53559086767045, 43.823800978219694], "screen_name": "MylesSexton", "time": 1468177523.0, "tid": 752141673329618944, "text": "\ud83d\udc9a\ud83d\udc9b\ud83d\udc9aWhat a neon night \ud83d\udc9a\ud83d\udc9b\ud83d\udc9a  - Created my graphic crescent moon using lancomeofficial new Grandiose\u2026 https://t.co/ucyTpzL442", "created_at": "Sun Jul 10 14:05:23 +0000 2016", "klabel": 113}}, {"geometry": {"type": "Point", "coordinates": [-79.42585, 43.65346]}, "type": "Feature", "id": 752168889174396928, "properties": {"loc": [-79.42585, 43.65346], "centroid": [-79.53559086767045, 43.823800978219694], "screen_name": "rodneybowers", "time": 1468184012.0, "tid": 752168889174396928, "text": "Workout ..During and post. During-Burned an extra 600 calories watching tennis for my cooldown\u2026 https://t.co/kesIIerVZY", "created_at": "Sun Jul 10 15:53:32 +0000 2016", "klabel": 113}}, {"geometry": {"type": "Point", "coordinates": [-79.414931, 43.650494]}, "type": "Feature", "id": 752174306172567556, "properties": {"loc": [-79.414931, 43.650494], "centroid": [-79.53559086767045, 43.823800978219694], "screen_name": "tpscalls", "time": 1468185303.0, "tid": 752174306172567556, "text": "See Ambulance | Bellwoods Pl &amp; Dundas St W [14 Div.] 07/10 12:09 #Trinity_Bellwoods #Toronto", "created_at": "Sun Jul 10 16:15:03 +0000 2016", "klabel": 113}}, {"geometry": {"type": "Point", "coordinates": [-79.414931, 43.650494]}, "type": "Feature", "id": 752177321948377088, "properties": {"loc": [-79.414931, 43.650494], "centroid": [-79.53559086767045, 43.823800978219694], "screen_name": "tpscalls", "time": 1468186022.0, "tid": 752177321948377088, "text": "See Ambulance | Bellwoods Pl &amp; Dundas St W [52 Div.] 07/10 12:21 #Trinity_Bellwoods #Toronto", "created_at": "Sun Jul 10 16:27:02 +0000 2016", "klabel": 113}}, {"geometry": {"type": "Point", "coordinates": [-79.41383837, 43.65094016]}, "type": "Feature", "id": 752182366345555968, "properties": {"loc": [-79.41383837, 43.65094016], "centroid": [-79.53559086767045, 43.823800978219694], "screen_name": "Justin_fotog", "time": 1468187225.0, "tid": 752182366345555968, "text": "I'm at St. Agnes Church in Toronto, ON https://t.co/neqj6YEDO3", "created_at": "Sun Jul 10 16:47:05 +0000 2016", "klabel": 113}}, {"geometry": {"type": "Point", "coordinates": [-79.4173502, 43.6554407]}, "type": "Feature", "id": 752197961916919808, "properties": {"loc": [-79.4173502, 43.6554407], "centroid": [-79.53559086767045, 43.823800978219694], "screen_name": "tmj_gta_hrta", "time": 1468190943.0, "tid": 752197961916919808, "text": "Can you recommend anyone for this #job? https://t.co/EGoJG4NzYJ #Hospitality 680 COLLEGE STREET, #TORONTO, ON #Veterans #Hiring #CareerArc", "created_at": "Sun Jul 10 17:49:03 +0000 2016", "klabel": 113}}, {"geometry": {"type": "Point", "coordinates": [-79.40982038, 43.65587991]}, "type": "Feature", "id": 752202773182185472, "properties": {"loc": [-79.40982038, 43.65587991], "centroid": [-79.53559086767045, 43.823800978219694], "screen_name": "StephDuce", "time": 1468192091.0, "tid": 752202773182185472, "text": "Last night was date night which means tacos!! Cold beer and a tasty margarita too. La Carnita on\u2026 https://t.co/opvYXQTil5", "created_at": "Sun Jul 10 18:08:11 +0000 2016", "klabel": 113}}, {"geometry": {"type": "Point", "coordinates": [-79.42538023, 43.65386958]}, "type": "Feature", "id": 752209538162372608, "properties": {"loc": [-79.42538023, 43.65386958], "centroid": [-79.53559086767045, 43.823800978219694], "screen_name": "BlushPretty", "time": 1468193703.0, "tid": 752209538162372608, "text": "skincentric : at the studio today with this glowing soul. we were focusing on a makeup\u2026 https://t.co/G24PxL5FwV", "created_at": "Sun Jul 10 18:35:03 +0000 2016", "klabel": 113}}, {"geometry": {"type": "Point", "coordinates": [-79.413297, 43.655316]}, "type": "Feature", "id": 752210857703112704, "properties": {"loc": [-79.413297, 43.655316], "centroid": [-79.53559086767045, 43.823800978219694], "screen_name": "Ana__Bento", "time": 1468194018.0, "tid": 752210857703112704, "text": "REAAAAADDDDDDYYY!!!!! \u26bd\ufe0f\ud83c\udfc6\ud83c\uddf5\ud83c\uddf9\ud83d\ude4f\ud83c\udffc #euro2016 #portugalvsfrance #forcaportugal #euroselfie @ Pour Boy\u2026 https://t.co/LSX0MPr7Og", "created_at": "Sun Jul 10 18:40:18 +0000 2016", "klabel": 113}}, {"geometry": {"type": "Point", "coordinates": [-79.4214464, 43.6546645]}, "type": "Feature", "id": 752221123924914176, "properties": {"loc": [-79.4214464, 43.6546645], "centroid": [-79.53559086767045, 43.823800978219694], "screen_name": "tofireS", "time": 1468196466.0, "tid": 752221123924914176, "text": "Fire (Commercial/industrial) - College St b/w Roxton Road / Ossington Avenue, Toronto (7 Trucks)", "created_at": "Sun Jul 10 19:21:06 +0000 2016", "klabel": 113}}, {"geometry": {"type": "Point", "coordinates": [-79.4214464, 43.6546645]}, "type": "Feature", "id": 752221124788977664, "properties": {"loc": [-79.4214464, 43.6546645], "centroid": [-79.53559086767045, 43.823800978219694], "screen_name": "tofiref", "time": 1468196466.0, "tid": 752221124788977664, "text": "Fire (Commercial/industrial) - College St b/w Roxton Road / Ossington Avenue, Toronto (7 Trucks)", "created_at": "Sun Jul 10 19:21:06 +0000 2016", "klabel": 113}}, {"geometry": {"type": "Point", "coordinates": [-79.4117428, 43.6559227]}, "type": "Feature", "id": 752222526571372544, "properties": {"loc": [-79.4117428, 43.6559227], "centroid": [-79.53559086767045, 43.823800978219694], "screen_name": "tmj_gta_hrta", "time": 1468196800.0, "tid": 752222526571372544, "text": "Can you recommend anyone for this #job? Shift Supervisor (CA) - https://t.co/Ybb5Vs0Wu1 #Hospitality 542 COLLEGE STREET, #TORONTO, ON", "created_at": "Sun Jul 10 19:26:40 +0000 2016", "klabel": 113}}, {"geometry": {"type": "Point", "coordinates": [-79.41696912, 43.65509504]}, "type": "Feature", "id": 752262087166930946, "properties": {"loc": [-79.41696912, 43.65509504], "centroid": [-79.53559086767045, 43.823800978219694], "screen_name": "iSlawko", "time": 1468206232.0, "tid": 752262087166930946, "text": "Portugal! @ College Street https://t.co/7LjIjUnm8x", "created_at": "Sun Jul 10 22:03:52 +0000 2016", "klabel": 113}}, {"geometry": {"type": "Point", "coordinates": [-79.41378, 43.65547]}, "type": "Feature", "id": 752268020261740544, "properties": {"loc": [-79.41378, 43.65547], "centroid": [-79.53559086767045, 43.823800978219694], "screen_name": "Ana__Bento", "time": 1468207647.0, "tid": 752268020261740544, "text": "VIVA PORTUGAL!!! #campeoes #euro2016 #PORTUGAL \ud83d\ude4c\ud83c\udffc\ud83d\ude4c\ud83c\udffc\ud83d\ude4c\ud83c\udffc @ Cafe Diplomatico https://t.co/abMa2DqtBF", "created_at": "Sun Jul 10 22:27:27 +0000 2016", "klabel": 113}}, {"geometry": {"type": "Point", "coordinates": [-79.4125754, 43.6586899]}, "type": "Feature", "id": 752268678331305985, "properties": {"loc": [-79.4125754, 43.6586899], "centroid": [-79.53559086767045, 43.823800978219694], "screen_name": "tpscalls", "time": 1468207804.0, "tid": 752268678331305985, "text": "Theft Just Occurred | Ln W Tecumseth S Queen &amp; Euclid Ave [14 Div.] 07/10 18:24 #Toronto", "created_at": "Sun Jul 10 22:30:04 +0000 2016", "klabel": 113}}, {"geometry": {"type": "Point", "coordinates": [-79.4182724, 43.6581495]}, "type": "Feature", "id": 752290323276173312, "properties": {"loc": [-79.4182724, 43.6581495], "centroid": [-79.53559086767045, 43.823800978219694], "screen_name": "tofire", "time": 1468212964.0, "tid": 752290323276173312, "text": "Check Call - Beatrice St b/w Lane North College West Beatrice / Lane South Harbord East Beatrice, Toronto (2 Trucks)", "created_at": "Sun Jul 10 23:56:04 +0000 2016", "klabel": 113}}, {"geometry": {"type": "Point", "coordinates": [-79.41852365, 43.65525501]}, "type": "Feature", "id": 752291934476046337, "properties": {"loc": [-79.41852365, 43.65525501], "centroid": [-79.53559086767045, 43.823800978219694], "screen_name": "jds129", "time": 1468213348.0, "tid": 752291934476046337, "text": "We forced him to have icecream @ Sicilian Sidewalk Cafe https://t.co/jfsuIlRiK9", "created_at": "Mon Jul 11 00:02:28 +0000 2016", "klabel": 113}}, {"geometry": {"type": "Point", "coordinates": [-79.41696912, 43.65509504]}, "type": "Feature", "id": 752299128009396224, "properties": {"loc": [-79.41696912, 43.65509504], "centroid": [-79.53559086767045, 43.823800978219694], "screen_name": "BurntoutSTAR", "time": 1468215063.0, "tid": 752299128009396224, "text": "When you can't control your excitement. (\ud83d\udcf8: totesrelly ) \ud83c\uddf5\ud83c\uddf9 #forca\u2026 https://t.co/JZHjqEqbz0", "created_at": "Mon Jul 11 00:31:03 +0000 2016", "klabel": 113}}, {"geometry": {"type": "Point", "coordinates": [-79.41696912, 43.65509504]}, "type": "Feature", "id": 752299344263385089, "properties": {"loc": [-79.41696912, 43.65509504], "centroid": [-79.53559086767045, 43.823800978219694], "screen_name": "ANA_BAPTISTA20", "time": 1468215115.0, "tid": 752299344263385089, "text": "The streets are crazy !!! \ud83d\ude4c\ud83c\udffb\ud83c\uddf5\ud83c\uddf9 #portugal #eurocup2016 #champions #party #allnight @ College Street https://t.co/Y6QsLewmkF", "created_at": "Mon Jul 11 00:31:55 +0000 2016", "klabel": 113}}, {"geometry": {"type": "Point", "coordinates": [-79.41696912, 43.65509504]}, "type": "Feature", "id": 752306511829925889, "properties": {"loc": [-79.41696912, 43.65509504], "centroid": [-79.53559086767045, 43.823800978219694], "screen_name": "basicats", "time": 1468216824.0, "tid": 752306511829925889, "text": "Unique Touch \ud83d\udd25\ud83d\udca3\u26a1\ufe0f\ud83d\udca5 #Toronto #Canada #fashionblogger #ootd #style #streetstyle #look #blog #trip\u2026 https://t.co/c904W6kOFc", "created_at": "Mon Jul 11 01:00:24 +0000 2016", "klabel": 113}}, {"geometry": {"type": "Point", "coordinates": [-79.417548, 43.655223]}, "type": "Feature", "id": 752314830602833920, "properties": {"loc": [-79.417548, 43.655223], "centroid": [-79.53559086767045, 43.823800978219694], "screen_name": "cluong4", "time": 1468218807.0, "tid": 752314830602833920, "text": "Nomnomnom...summer after dinner gelato (@ Dolce Gelato in Toronto, ON) https://t.co/C7QAeGrYmV", "created_at": "Mon Jul 11 01:33:27 +0000 2016", "klabel": 113}}, {"geometry": {"type": "Point", "coordinates": [-79.40892435, 43.65613904]}, "type": "Feature", "id": 752505690095251456, "properties": {"loc": [-79.40892435, 43.65613904], "centroid": [-79.53559086767045, 43.823800978219694], "screen_name": "AllieMali", "time": 1468264312.0, "tid": 752505690095251456, "text": "I'm at Snakes &amp; Lattes in Toronto, ON https://t.co/wgmpVsYtn0", "created_at": "Mon Jul 11 14:11:52 +0000 2016", "klabel": 113}}, {"geometry": {"type": "Point", "coordinates": [-79.41995, 43.65468]}, "type": "Feature", "id": 752506767481839616, "properties": {"loc": [-79.41995, 43.65468], "centroid": [-79.53559086767045, 43.823800978219694], "screen_name": "whoislissamonet", "time": 1468264568.0, "tid": 752506767481839616, "text": ":: join me this SATURDAY as we dance the night away to the BEST in 90s old school and celebrate\u2026 https://t.co/jJQvooy64y", "created_at": "Mon Jul 11 14:16:08 +0000 2016", "klabel": 113}}, {"geometry": {"type": "Point", "coordinates": [-79.41168, 43.65266]}, "type": "Feature", "id": 752534898104213506, "properties": {"loc": [-79.41168, 43.65266], "centroid": [-79.53559086767045, 43.823800978219694], "screen_name": "taranoellephoto", "time": 1468271275.0, "tid": 752534898104213506, "text": "Yah yah it's Monday we all know \u2764\ufe0f #positivevibes #portraits #bw #women #raw #fashion #freshweek\u2026 https://t.co/azq4nAY37e", "created_at": "Mon Jul 11 16:07:55 +0000 2016", "klabel": 113}}, {"geometry": {"type": "Point", "coordinates": [-79.41239, 43.65253]}, "type": "Feature", "id": 752539955633614849, "properties": {"loc": [-79.41239, 43.65253], "centroid": [-79.53559086767045, 43.823800978219694], "screen_name": "dibzy", "time": 1468272481.0, "tid": 752539955633614849, "text": "#themothership #californiasandwiches when in #Toronto one simply must visit this place.\u2026 https://t.co/PuVmfW7B4v", "created_at": "Mon Jul 11 16:28:01 +0000 2016", "klabel": 113}}, {"geometry": {"type": "Point", "coordinates": [-79.4193, 43.6552]}, "type": "Feature", "id": 752558047235452928, "properties": {"loc": [-79.4193, 43.6552], "centroid": [-79.53559086767045, 43.823800978219694], "screen_name": "Manifesto_TO", "time": 1468276794.0, "tid": 752558047235452928, "text": "TONIGHT! @PROTOJE. @ALLANKNGDM. @Salma_Slims.\n\nTICKETS LINK IN BIO. @ Mod Club Theatre https://t.co/SXDvXnLtzY", "created_at": "Mon Jul 11 17:39:54 +0000 2016", "klabel": 113}}, {"geometry": {"type": "Point", "coordinates": [-79.42585, 43.65346]}, "type": "Feature", "id": 752569651654164485, "properties": {"loc": [-79.42585, 43.65346], "centroid": [-79.53559086767045, 43.823800978219694], "screen_name": "rodneybowers", "time": 1468279561.0, "tid": 752569651654164485, "text": "At 41 , some of us start trying to put life in perspective. \n#yoga #restorative #restorativeyoga\u2026 https://t.co/mlh2KUljMN", "created_at": "Mon Jul 11 18:26:01 +0000 2016", "klabel": 113}}, {"geometry": {"type": "Point", "coordinates": [-79.4097479, 43.6615139]}, "type": "Feature", "id": 752603634848960512, "properties": {"loc": [-79.4097479, 43.6615139], "centroid": [-79.53559086767045, 43.823800978219694], "screen_name": "tofireS", "time": 1468287663.0, "tid": 752603634848960512, "text": "Vehicle (Personal Injury) - Harbord St @ Bathurst St, Toronto (2 Trucks)", "created_at": "Mon Jul 11 20:41:03 +0000 2016", "klabel": 113}}, {"geometry": {"type": "Point", "coordinates": [-79.41269, 43.65517]}, "type": "Feature", "id": 752630641288773632, "properties": {"loc": [-79.41269, 43.65517], "centroid": [-79.53559086767045, 43.823800978219694], "screen_name": "boyrista", "time": 1468294102.0, "tid": 752630641288773632, "text": "A cafe-play on shapes &amp; function. Put the right waste in the right space @ The Green Grind https://t.co/yplwDsJLDX", "created_at": "Mon Jul 11 22:28:22 +0000 2016", "klabel": 113}}, {"geometry": {"type": "Point", "coordinates": [-79.41956, 43.65532]}, "type": "Feature", "id": 752630825666154496, "properties": {"loc": [-79.41956, 43.65532], "centroid": [-79.53559086767045, 43.823800978219694], "screen_name": "ElConventoRico", "time": 1468294146.0, "tid": 752630825666154496, "text": "https://t.co/t8juFRzlnZ\nTWO SHOWS BOTH NIGHTS\nMusic By DJ KNO\n#torontonightlife #collegestreet\u2026 https://t.co/YNRzPPvIsk", "created_at": "Mon Jul 11 22:29:06 +0000 2016", "klabel": 113}}, {"geometry": {"type": "Point", "coordinates": [-79.425171, 43.653857]}, "type": "Feature", "id": 752640126782758914, "properties": {"loc": [-79.425171, 43.653857], "centroid": [-79.53559086767045, 43.823800978219694], "screen_name": "tofire", "time": 1468296364.0, "tid": 752640126782758914, "text": "Medical (Trouble Breathing) - Delaware Avenue b/w College St / Dewson St, Toronto (2 Trucks)", "created_at": "Mon Jul 11 23:06:04 +0000 2016", "klabel": 113}}, {"geometry": {"type": "Point", "coordinates": [-79.42190742, 43.65458039]}, "type": "Feature", "id": 752645797225852928, "properties": {"loc": [-79.42190742, 43.65458039], "centroid": [-79.53559086767045, 43.823800978219694], "screen_name": "GraizeBee", "time": 1468297716.0, "tid": 752645797225852928, "text": "Waffle Brunchwich \ud83d\ude0b #brunch #nomnom #fruits #summersixteen @\u2026 https://t.co/oLQngxJd4v", "created_at": "Mon Jul 11 23:28:36 +0000 2016", "klabel": 113}}, {"geometry": {"type": "Point", "coordinates": [-79.41729, 43.65665]}, "type": "Feature", "id": 752664976066764800, "properties": {"loc": [-79.41729, 43.65665], "centroid": [-79.53559086767045, 43.823800978219694], "screen_name": "KangarooNik", "time": 1468302288.0, "tid": 752664976066764800, "text": "YASSSSSSSS Monday!!!!! @ Beatrice St https://t.co/4Rnn14mOCn", "created_at": "Tue Jul 12 00:44:48 +0000 2016", "klabel": 113}}, {"geometry": {"type": "Point", "coordinates": [-79.410084, 43.655898]}, "type": "Feature", "id": 752675050449465344, "properties": {"loc": [-79.410084, 43.655898], "centroid": [-79.53559086767045, 43.823800978219694], "screen_name": "jeremypotvin", "time": 1468304690.0, "tid": 752675050449465344, "text": "Video content meeting with the dashing Benjamin Rouse. (at @Bar_Raval in Toronto, ON) https://t.co/e4hTGsq47e", "created_at": "Tue Jul 12 01:24:50 +0000 2016", "klabel": 113}}, {"geometry": {"type": "Point", "coordinates": [-79.4091873, 43.6558609]}, "type": "Feature", "id": 752696569552658433, "properties": {"loc": [-79.4091873, 43.6558609], "centroid": [-79.53559086767045, 43.823800978219694], "screen_name": "7Lia7", "time": 1468309821.0, "tid": 752696569552658433, "text": "The other @sourcefed inspired game choice. #carcassonne \u270c\ud83c\udffc\ufe0f @ Snakes &amp; Lattes https://t.co/ydFd5zmCfW", "created_at": "Tue Jul 12 02:50:21 +0000 2016", "klabel": 113}}, {"geometry": {"type": "Point", "coordinates": [-79.40920671, 43.65166783]}, "type": "Feature", "id": 752703020840869891, "properties": {"loc": [-79.40920671, 43.65166783], "centroid": [-79.53559086767045, 43.823800978219694], "screen_name": "papermaps", "time": 1468311359.0, "tid": 752703020840869891, "text": "#Orchards @ Dundas Video https://t.co/v3aiXnsxeC", "created_at": "Tue Jul 12 03:15:59 +0000 2016", "klabel": 113}}, {"geometry": {"type": "Point", "coordinates": [-79.4191758, 43.65533375]}, "type": "Feature", "id": 752706087606951936, "properties": {"loc": [-79.4191758, 43.65533375], "centroid": [-79.53559086767045, 43.823800978219694], "screen_name": "stefiedrew", "time": 1468312090.0, "tid": 752706087606951936, "text": "From Friday night. Walking for pinkiebel at the @RAWtoronto showcase! \ud83d\udc96\n\nPhoto by\u2026 https://t.co/hOeJJStbMu", "created_at": "Tue Jul 12 03:28:10 +0000 2016", "klabel": 113}}, {"geometry": {"type": "Point", "coordinates": [-79.40957482, 43.65159748]}, "type": "Feature", "id": 752718416398606336, "properties": {"loc": [-79.40957482, 43.65159748], "centroid": [-79.53559086767045, 43.823800978219694], "screen_name": "dunkerz", "time": 1468315029.0, "tid": 752718416398606336, "text": "Sucking the marrow out of life \ud83d\ude3b\ud83c\udf74 @ Campagnolo https://t.co/IUinxccw6v", "created_at": "Tue Jul 12 04:17:09 +0000 2016", "klabel": 113}}, {"geometry": {"type": "Point", "coordinates": [-79.4191758, 43.65533375]}, "type": "Feature", "id": 752730360954425344, "properties": {"loc": [-79.4191758, 43.65533375], "centroid": [-79.53559086767045, 43.823800978219694], "screen_name": "KattBX", "time": 1468317877.0, "tid": 752730360954425344, "text": "#Torontonitelife\ud83c\udde8\ud83c\udde6 \ud83d\udca8\ud83d\udca8\ud83c\udf43\ud83c\udf43 #Protoje #Show #InnerCircle #FAMILYOVABOSSES\u2026 https://t.co/46Ttu6fJXz", "created_at": "Tue Jul 12 05:04:37 +0000 2016", "klabel": 113}}, {"geometry": {"type": "Point", "coordinates": [-79.4193, 43.6552]}, "type": "Feature", "id": 752764410125545473, "properties": {"loc": [-79.4193, 43.6552], "centroid": [-79.53559086767045, 43.823800978219694], "screen_name": "TSEDANIEL", "time": 1468325995.0, "tid": 752764410125545473, "text": "@protoje #royatyfree #ancientfuture @manifesto_to @chekothari @ Mod Club Theatre https://t.co/9i46hfu9il", "created_at": "Tue Jul 12 07:19:55 +0000 2016", "klabel": 113}}, {"geometry": {"type": "Point", "coordinates": [-79.4193, 43.6552]}, "type": "Feature", "id": 752765641266962436, "properties": {"loc": [-79.4193, 43.6552], "centroid": [-79.53559086767045, 43.823800978219694], "screen_name": "TSEDANIEL", "time": 1468326289.0, "tid": 752765641266962436, "text": "@protoje #royaltyfree #ancientfuture @manifesto_to @chekothari @ Mod Club Theatre https://t.co/F1XUY8y00Y", "created_at": "Tue Jul 12 07:24:49 +0000 2016", "klabel": 113}}, {"geometry": {"type": "Point", "coordinates": [-79.4193, 43.6552]}, "type": "Feature", "id": 752765224126652416, "properties": {"loc": [-79.4193, 43.6552], "centroid": [-79.53559086767045, 43.823800978219694], "screen_name": "TSEDANIEL", "time": 1468326189.0, "tid": 752765224126652416, "text": "@protoje #royatyfree #ancientfuture @manifesto_to @chekothari @ Mod Club Theatre https://t.co/9cR3ZHjOx3", "created_at": "Tue Jul 12 07:23:09 +0000 2016", "klabel": 113}}, {"geometry": {"type": "Point", "coordinates": [-79.4193, 43.6552]}, "type": "Feature", "id": 752766707370958848, "properties": {"loc": [-79.4193, 43.6552], "centroid": [-79.53559086767045, 43.823800978219694], "screen_name": "TSEDANIEL", "time": 1468326543.0, "tid": 752766707370958848, "text": "@protoje #royaltyfree #ancientfuture @manifesto_to @chekothari @ Mod Club Theatre https://t.co/LEpEQq1U5h", "created_at": "Tue Jul 12 07:29:03 +0000 2016", "klabel": 113}}, {"geometry": {"type": "Point", "coordinates": [-79.4117428, 43.6559227]}, "type": "Feature", "id": 752844700218826753, "properties": {"loc": [-79.4117428, 43.6559227], "centroid": [-79.53559086767045, 43.823800978219694], "screen_name": "tmj_gta_hrta", "time": 1468345138.0, "tid": 752844700218826753, "text": "Can you recommend anyone for this #job? https://t.co/1oSTXh2z6C #Hospitality 542 COLLEGE STREET, #TORONTO, ON #Veterans #Hiring #CareerArc", "created_at": "Tue Jul 12 12:38:58 +0000 2016", "klabel": 113}}, {"geometry": {"type": "Point", "coordinates": [-79.4191758, 43.65533375]}, "type": "Feature", "id": 752855383383891968, "properties": {"loc": [-79.4191758, 43.65533375], "centroid": [-79.53559086767045, 43.823800978219694], "screen_name": "iamrouletta", "time": 1468347685.0, "tid": 752855383383891968, "text": "#WhoKnows @protoje  \n\n#reggae #music #protoje #iremember #rastafari #singers #bands #Toronto\u2026 https://t.co/KMnPeojJp1", "created_at": "Tue Jul 12 13:21:25 +0000 2016", "klabel": 113}}, {"geometry": {"type": "Point", "coordinates": [-79.41276893, 43.65538605]}, "type": "Feature", "id": 752887422929829889, "properties": {"loc": [-79.41276893, 43.65538605], "centroid": [-79.53559086767045, 43.823800978219694], "screen_name": "janetheclapp", "time": 1468355324.0, "tid": 752887422929829889, "text": "Double digits for this 'puppy'. Urbanfitt's therapy dog. My nightly spooning buddy. My gentle\u2026 https://t.co/RwtSV3mWfR", "created_at": "Tue Jul 12 15:28:44 +0000 2016", "klabel": 113}}, {"geometry": {"type": "Point", "coordinates": [-79.41134, 43.65138]}, "type": "Feature", "id": 752900911916126208, "properties": {"loc": [-79.41134, 43.65138], "centroid": [-79.53559086767045, 43.823800978219694], "screen_name": "miniPongToronto", "time": 1468358540.0, "tid": 752900911916126208, "text": "Just posted a photo @ M\u00e2y https://t.co/c1GB7mwEyL", "created_at": "Tue Jul 12 16:22:20 +0000 2016", "klabel": 113}}, {"geometry": {"type": "Point", "coordinates": [-79.4193, 43.6552]}, "type": "Feature", "id": 752908443565101056, "properties": {"loc": [-79.4193, 43.6552], "centroid": [-79.53559086767045, 43.823800978219694], "screen_name": "tysondang", "time": 1468360335.0, "tid": 752908443565101056, "text": "Follow me on Instagram :) #\u30c9\u30e9\u30de @ Mod Club Theatre https://t.co/vu1uJPsSZq", "created_at": "Tue Jul 12 16:52:15 +0000 2016", "klabel": 113}}, {"geometry": {"type": "Point", "coordinates": [-79.42571748, 43.65384559]}, "type": "Feature", "id": 752939665771159552, "properties": {"loc": [-79.42571748, 43.65384559], "centroid": [-79.53559086767045, 43.823800978219694], "screen_name": "theemmetray", "time": 1468367779.0, "tid": 752939665771159552, "text": "Where else can you go to get a $10 prix fixe and all the Crokinole you can play, #SummerLUSHious\u2026 https://t.co/NsqQJQFi9U", "created_at": "Tue Jul 12 18:56:19 +0000 2016", "klabel": 113}}, {"geometry": {"type": "Point", "coordinates": [-79.41413519, 43.65522505]}, "type": "Feature", "id": 752993054106189826, "properties": {"loc": [-79.41413519, 43.65522505], "centroid": [-79.53559086767045, 43.823800978219694], "screen_name": "life_of_Y", "time": 1468380508.0, "tid": 752993054106189826, "text": "I'm at @HapaIzakaya in Toronto, ON https://t.co/NIQKCOtLg7", "created_at": "Tue Jul 12 22:28:28 +0000 2016", "klabel": 113}}, {"geometry": {"type": "Point", "coordinates": [-79.4101, 43.6559]}, "type": "Feature", "id": 753019350248988677, "properties": {"loc": [-79.4101, 43.6559], "centroid": [-79.53559086767045, 43.823800978219694], "screen_name": "ChairmanScouser", "time": 1468386778.0, "tid": 753019350248988677, "text": "Now that's what I call  #supertuesday - Drinking a Crosscut Canadian Ale at @bar_raval - https://t.co/g3L5m6C6CD #photo", "created_at": "Wed Jul 13 00:12:58 +0000 2016", "klabel": 113}}, {"geometry": {"type": "Point", "coordinates": [-79.41317937, 43.65084291]}, "type": "Feature", "id": 753030080788561921, "properties": {"loc": [-79.41317937, 43.65084291], "centroid": [-79.53559086767045, 43.823800978219694], "screen_name": "tyrelasaurus", "time": 1468389336.0, "tid": 753030080788561921, "text": "We're in Washago for the next 3 days, so here is a picture of us NOT drunk in Toronto yesterday.\u2026 https://t.co/ZBGHVKs4wN", "created_at": "Wed Jul 13 00:55:36 +0000 2016", "klabel": 113}}, {"geometry": {"type": "Point", "coordinates": [-79.41598, 43.65484]}, "type": "Feature", "id": 753035004154826752, "properties": {"loc": [-79.41598, 43.65484], "centroid": [-79.53559086767045, 43.823800978219694], "screen_name": "SoiThaiTO", "time": 1468390510.0, "tid": 753035004154826752, "text": "Peckish or starving, we can satisfy all conditions \ud83d\ude03\n.\n\n#SoiThaiTO #TORONTO #torontofood\u2026 https://t.co/hjpHYDUoyV", "created_at": "Wed Jul 13 01:15:10 +0000 2016", "klabel": 113}}, {"geometry": {"type": "Point", "coordinates": [-79.40957482, 43.65159748]}, "type": "Feature", "id": 753040913803251712, "properties": {"loc": [-79.40957482, 43.65159748], "centroid": [-79.53559086767045, 43.823800978219694], "screen_name": "followsummergg", "time": 1468391919.0, "tid": 753040913803251712, "text": "ROASTED ASPARAGUS &amp; WHITE RADICCHIO SALAD (without the crispy prosciutto), melon, toasted pine\u2026 https://t.co/Dpg0Pewnzi", "created_at": "Wed Jul 13 01:38:39 +0000 2016", "klabel": 113}}, {"geometry": {"type": "Point", "coordinates": [-79.40957482, 43.65159748]}, "type": "Feature", "id": 753044101482749952, "properties": {"loc": [-79.40957482, 43.65159748], "centroid": [-79.53559086767045, 43.823800978219694], "screen_name": "followsummergg", "time": 1468392679.0, "tid": 753044101482749952, "text": "Scallops and PorkBelly!? @campagnolo_ #yum #toronto #torontofood #fstravels .\n.\n.\n\n#food\u2026 https://t.co/E3CSznNqN8", "created_at": "Wed Jul 13 01:51:19 +0000 2016", "klabel": 113}}, {"geometry": {"type": "Point", "coordinates": [-79.40957482, 43.65159748]}, "type": "Feature", "id": 753046821258133505, "properties": {"loc": [-79.40957482, 43.65159748], "centroid": [-79.53559086767045, 43.823800978219694], "screen_name": "followsummergg", "time": 1468393327.0, "tid": 753046821258133505, "text": "And so it begins @campagnolo_ \n#food #Toronto .\n.\n.\n.\n#foodporn #foodlover #foodpics #foodie\u2026 https://t.co/ZoQT9M6BdY", "created_at": "Wed Jul 13 02:02:07 +0000 2016", "klabel": 113}}, {"geometry": {"type": "Point", "coordinates": [-79.41134, 43.65138]}, "type": "Feature", "id": 753051338263506945, "properties": {"loc": [-79.41134, 43.65138], "centroid": [-79.53559086767045, 43.823800978219694], "screen_name": "miniPongToronto", "time": 1468394404.0, "tid": 753051338263506945, "text": "FREE \ud83c\udfd3\ud83c\udfd3 EVERYWHERE -\n\ud83d\udc49PLEASE TELL YOUR FRIENDS \ud83d\udc49SHARE @minipongtoronto -\n\ud83d\udc40\nYOU CAN MAKE IT\u2026 https://t.co/qYEJkqJLhW", "created_at": "Wed Jul 13 02:20:04 +0000 2016", "klabel": 113}}, {"geometry": {"type": "Point", "coordinates": [-79.41716, 43.66012]}, "type": "Feature", "id": 753076990966689793, "properties": {"loc": [-79.41716, 43.66012], "centroid": [-79.53559086767045, 43.823800978219694], "screen_name": "nanopodstudio", "time": 1468400520.0, "tid": 753076990966689793, "text": "Each with their secret super powers. Crake: the Shaman. Pnut: the minx. Oryx: little big\u2026 https://t.co/IVxWaoOXcG", "created_at": "Wed Jul 13 04:02:00 +0000 2016", "klabel": 113}}, {"geometry": {"type": "Point", "coordinates": [-79.4220975, 43.6563781]}, "type": "Feature", "id": 753136388703477761, "properties": {"loc": [-79.4220975, 43.6563781], "centroid": [-79.53559086767045, 43.823800978219694], "screen_name": "tpscalls", "time": 1468414682.0, "tid": 753136388703477761, "text": "Noise Complaint | Shaw St &amp; Roxton Rd [14 Div.] 07/13 03:51 #Old_Toronto", "created_at": "Wed Jul 13 07:58:02 +0000 2016", "klabel": 113}}, {"geometry": {"type": "Point", "coordinates": [-79.41716, 43.66012]}, "type": "Feature", "id": 753264928186703873, "properties": {"loc": [-79.41716, 43.66012], "centroid": [-79.53559086767045, 43.823800978219694], "screen_name": "nanopodstudio", "time": 1468445328.0, "tid": 753264928186703873, "text": "Years ago #tbt lilypad supplies to now construct soft squishy audible objects! @schemafactor\u2026 https://t.co/0u9WDdGqy1", "created_at": "Wed Jul 13 16:28:48 +0000 2016", "klabel": 113}}, {"geometry": {"type": "Point", "coordinates": [-79.41276893, 43.65538605]}, "type": "Feature", "id": 753266248084054016, "properties": {"loc": [-79.41276893, 43.65538605], "centroid": [-79.53559086767045, 43.823800978219694], "screen_name": "janetheclapp", "time": 1468445643.0, "tid": 753266248084054016, "text": "BODY WISDOM WEDNESDAY...When we live disconnected from the somatic emotional sensations in our\u2026 https://t.co/r8bED3WeMz", "created_at": "Wed Jul 13 16:34:03 +0000 2016", "klabel": 113}}, {"geometry": {"type": "Point", "coordinates": [-79.414931, 43.650494]}, "type": "Feature", "id": 753290408529108992, "properties": {"loc": [-79.414931, 43.650494], "centroid": [-79.53559086767045, 43.823800978219694], "screen_name": "tofire", "time": 1468451403.0, "tid": 753290408529108992, "text": "UD: [2 Alm] Fire (Commercial/industrial) - Dundas St b/w Beatrice St / Trinity Bellwoods Park Trail, Toronto (19 Trucks)", "created_at": "Wed Jul 13 18:10:03 +0000 2016", "klabel": 113}}, {"geometry": {"type": "Point", "coordinates": [-79.414931, 43.650494]}, "type": "Feature", "id": 753290409606950912, "properties": {"loc": [-79.414931, 43.650494], "centroid": [-79.53559086767045, 43.823800978219694], "screen_name": "tofire2", "time": 1468451403.0, "tid": 753290409606950912, "text": "UD: [2 Alm] Fire (Commercial/industrial) - Dundas St b/w Beatrice St / Trinity Bellwoods Park Trail, Toronto (19 Trucks)", "created_at": "Wed Jul 13 18:10:03 +0000 2016", "klabel": 113}}, {"geometry": {"type": "Point", "coordinates": [-79.418973, 43.658063]}, "type": "Feature", "id": 753290911367462912, "properties": {"loc": [-79.418973, 43.658063], "centroid": [-79.53559086767045, 43.823800978219694], "screen_name": "tpscalls", "time": 1468451523.0, "tid": 753290911367462912, "text": "Fire | Beatrice St &amp; Montrose Ave [14 Div.] 07/13 14:07 #Little_Italy #Toronto", "created_at": "Wed Jul 13 18:12:03 +0000 2016", "klabel": 113}}, {"geometry": {"type": "Point", "coordinates": [-79.413873, 43.655223]}, "type": "Feature", "id": 753291931376058368, "properties": {"loc": [-79.413873, 43.655223], "centroid": [-79.53559086767045, 43.823800978219694], "screen_name": "tofireS", "time": 1468451766.0, "tid": 753291931376058368, "text": "Check Call - Clinton St b/w College St / Lane South Harbord West Manning, Toronto (2 Trucks)", "created_at": "Wed Jul 13 18:16:06 +0000 2016", "klabel": 113}}, {"geometry": {"type": "Point", "coordinates": [-79.413873, 43.655223]}, "type": "Feature", "id": 753291930449084416, "properties": {"loc": [-79.413873, 43.655223], "centroid": [-79.53559086767045, 43.823800978219694], "screen_name": "tofire", "time": 1468451766.0, "tid": 753291930449084416, "text": "Check Call - Clinton St b/w College St / Lane South Harbord West Manning, Toronto (2 Trucks)", "created_at": "Wed Jul 13 18:16:06 +0000 2016", "klabel": 113}}, {"geometry": {"type": "Point", "coordinates": [-79.41956, 43.65532]}, "type": "Feature", "id": 753304337154183168, "properties": {"loc": [-79.41956, 43.65532], "centroid": [-79.53559086767045, 43.823800978219694], "screen_name": "ElConventoRico", "time": 1468454724.0, "tid": 753304337154183168, "text": "SATURDAY NIGHTS are always more then you expected with MAGIC MALE REVUE at 11:20pm MAIN SHOW AT\u2026 https://t.co/duWyw1m6WI", "created_at": "Wed Jul 13 19:05:24 +0000 2016", "klabel": 113}}, {"geometry": {"type": "Point", "coordinates": [-79.4193, 43.6552]}, "type": "Feature", "id": 753315676627013632, "properties": {"loc": [-79.4193, 43.6552], "centroid": [-79.53559086767045, 43.823800978219694], "screen_name": "colekenzi", "time": 1468457427.0, "tid": 753315676627013632, "text": "The Outlaw Josey Wales. \n\n#zelladay #joseywales #modclub #toronto #summer #2k16 #birthdaypresent\u2026 https://t.co/DLkIHHnaB1", "created_at": "Wed Jul 13 19:50:27 +0000 2016", "klabel": 113}}, {"geometry": {"type": "Point", "coordinates": [-79.414931, 43.650494]}, "type": "Feature", "id": 753316834577874944, "properties": {"loc": [-79.414931, 43.650494], "centroid": [-79.53559086767045, 43.823800978219694], "screen_name": "tofire", "time": 1468457703.0, "tid": 753316834577874944, "text": "UD: [2 Alm] Fire (Commercial/industrial) - Dundas St b/w Beatrice St / Trinity Bellwoods Park Trail, Toronto (20 Trucks)", "created_at": "Wed Jul 13 19:55:03 +0000 2016", "klabel": 113}}, {"geometry": {"type": "Point", "coordinates": [-79.414931, 43.650494]}, "type": "Feature", "id": 753316837279096833, "properties": {"loc": [-79.414931, 43.650494], "centroid": [-79.53559086767045, 43.823800978219694], "screen_name": "tofireS", "time": 1468457704.0, "tid": 753316837279096833, "text": "UD: [2 Alm] Fire (Commercial/industrial) - Dundas St b/w Beatrice St / Trinity Bellwoods Park Trail, Toronto (20 Trucks)", "created_at": "Wed Jul 13 19:55:04 +0000 2016", "klabel": 113}}, {"geometry": {"type": "Point", "coordinates": [-79.414931, 43.650494]}, "type": "Feature", "id": 753316838159835136, "properties": {"loc": [-79.414931, 43.650494], "centroid": [-79.53559086767045, 43.823800978219694], "screen_name": "tofiref", "time": 1468457704.0, "tid": 753316838159835136, "text": "UD: [2 Alm] Fire (Commercial/industrial) - Dundas St b/w Beatrice St / Trinity Bellwoods Park Trail, Toronto (20 Trucks)", "created_at": "Wed Jul 13 19:55:04 +0000 2016", "klabel": 113}}, {"geometry": {"type": "Point", "coordinates": [-79.41219, 43.65523]}, "type": "Feature", "id": 753321933253537792, "properties": {"loc": [-79.41219, 43.65523], "centroid": [-79.53559086767045, 43.823800978219694], "screen_name": "DescreetWorld", "time": 1468458919.0, "tid": 753321933253537792, "text": "-  Every Thursday Start Your Weekend @mccrazychris  559 College St W  #TRAP #Reggae + More .\u2026 https://t.co/nAhDRYEmn5", "created_at": "Wed Jul 13 20:15:19 +0000 2016", "klabel": 113}}, {"geometry": {"type": "Point", "coordinates": [-79.4094162, 43.6517792]}, "type": "Feature", "id": 753327022974312448, "properties": {"loc": [-79.4094162, 43.6517792], "centroid": [-79.53559086767045, 43.823800978219694], "screen_name": "HashtagGallery", "time": 1468460133.0, "tid": 753327022974312448, "text": "Only a few days left to check out the #Pride group show! \n\n#gallery #opencall #toronto\u2026 https://t.co/bchTuNo0J9", "created_at": "Wed Jul 13 20:35:33 +0000 2016", "klabel": 113}}, {"geometry": {"type": "Point", "coordinates": [-79.41219, 43.65523]}, "type": "Feature", "id": 753333459813298176, "properties": {"loc": [-79.41219, 43.65523], "centroid": [-79.53559086767045, 43.823800978219694], "screen_name": "djagile", "time": 1468461667.0, "tid": 753333459813298176, "text": "This #Saturday at our new home @mccrazychris 559 College Street West @allvinylto returns for our\u2026 https://t.co/z7oc9aq5Fi", "created_at": "Wed Jul 13 21:01:07 +0000 2016", "klabel": 113}}, {"geometry": {"type": "Point", "coordinates": [-79.40904, 43.65152]}, "type": "Feature", "id": 753336176765984769, "properties": {"loc": [-79.40904, 43.65152], "centroid": [-79.53559086767045, 43.823800978219694], "screen_name": "sovereignstudio", "time": 1468462315.0, "tid": 753336176765984769, "text": "Astrophysicists keeping their #pingame strong \ud83d\udcaa\ud83c\udffc\n.\n.\n.\n@Dunkap_Institute #pins #lapelpins\u2026 https://t.co/ksjXAyQiZk", "created_at": "Wed Jul 13 21:11:55 +0000 2016", "klabel": 113}}, {"geometry": {"type": "Point", "coordinates": [-79.4094162, 43.6517792]}, "type": "Feature", "id": 753365491176079360, "properties": {"loc": [-79.4094162, 43.6517792], "centroid": [-79.53559086767045, 43.823800978219694], "screen_name": "HashtagGallery", "time": 1468469304.0, "tid": 753365491176079360, "text": "A little treat from Danielle Cole (daniellecole.ca) for our #Pride show.\n\n#PrideAndPredjudice\u2026 https://t.co/hw8hzBezmg", "created_at": "Wed Jul 13 23:08:24 +0000 2016", "klabel": 113}}, {"geometry": {"type": "Point", "coordinates": [-79.4191758, 43.65533375]}, "type": "Feature", "id": 753367224103084036, "properties": {"loc": [-79.4191758, 43.65533375], "centroid": [-79.53559086767045, 43.823800978219694], "screen_name": "SamanTHab483", "time": 1468469717.0, "tid": 753367224103084036, "text": "@zelladay is fucking amazing \ud83d\ude0d\ud83d\ude0d @ Virgin Mobile Mod Club https://t.co/cqo4IIRixb", "created_at": "Wed Jul 13 23:15:17 +0000 2016", "klabel": 113}}, {"geometry": {"type": "Point", "coordinates": [-79.42571748, 43.65384559]}, "type": "Feature", "id": 753387210670501888, "properties": {"loc": [-79.42571748, 43.65384559], "centroid": [-79.53559086767045, 43.823800978219694], "screen_name": "BeatrizPoluk", "time": 1468474482.0, "tid": 753387210670501888, "text": "My baby @seanpoluk check sound done! Tonight in #toronto at @theemmetray 9pm-12 #blues #bluesea\u2026 https://t.co/EUe0xniZfU", "created_at": "Thu Jul 14 00:34:42 +0000 2016", "klabel": 113}}, {"geometry": {"type": "Point", "coordinates": [-79.41307854, 43.65525875]}, "type": "Feature", "id": 753405536230641665, "properties": {"loc": [-79.41307854, 43.65525875], "centroid": [-79.53559086767045, 43.823800978219694], "screen_name": "littlezywot", "time": 1468478852.0, "tid": 753405536230641665, "text": "Taking a minute with the TTS. The only way to avoid melting!! \ud83c\udfc4\ud83c\udffc #heatwave #TO #cocktails #love\u2026 https://t.co/cKYa2u8uAS", "created_at": "Thu Jul 14 01:47:32 +0000 2016", "klabel": 113}}, {"geometry": {"type": "Point", "coordinates": [-79.42571748, 43.65384559]}, "type": "Feature", "id": 753406464178450433, "properties": {"loc": [-79.42571748, 43.65384559], "centroid": [-79.53559086767045, 43.823800978219694], "screen_name": "BeatrizPoluk", "time": 1468479073.0, "tid": 753406464178450433, "text": "@seanpoluk Right now in #toronto at @theemmetray  #livethelittlethings #musicismylife #musically\u2026 https://t.co/h9fz4Z2NYJ", "created_at": "Thu Jul 14 01:51:13 +0000 2016", "klabel": 113}}, {"geometry": {"type": "Point", "coordinates": [-79.410084, 43.655898]},