{"type": "FeatureCollection", "features": [{"geometry": {"type": "Point", "coordinates": [-79.3747827, 43.7052302]}, "type": "Feature", "id": 705125063960309760, "properties": {"loc": [-79.3747827, 43.7052302], "centroid": [-79.29879109457526, 43.77520684599106], "screen_name": "tmj_gta_hrta", "time": 1456967890.0, "tid": 705125063960309760, "text": "#Hospitality #Job in 1545 BAYVIEW AVENUE, #TORONTO, ON: Shift Supervisor (CA) at Starbucks https://t.co/HS5t0GKOQp #Veterans #Jobs #Hiring", "created_at": "Wed Mar 02 20:18:10 +0000 2016", "klabel": 115}}, {"geometry": {"type": "Point", "coordinates": [-79.37937845, 43.7117038]}, "type": "Feature", "id": 705371752269008896, "properties": {"loc": [-79.37937845, 43.7117038], "centroid": [-79.29879109457526, 43.77520684599106], "screen_name": "rowhousenest", "time": 1457026705.0, "tid": 705371752269008896, "text": "TBT to magic hour in my dads canoe with my two sweet hunnies \ud83d\udc6b\ud83d\udc36 @ Algonquin Provincial Park https://t.co/ox4H5dTK1X", "created_at": "Thu Mar 03 12:38:25 +0000 2016", "klabel": 115}}, {"geometry": {"type": "Point", "coordinates": [-79.37977932, 43.72711657]}, "type": "Feature", "id": 705473293369937921, "properties": {"loc": [-79.37977932, 43.72711657], "centroid": [-79.29879109457526, 43.77520684599106], "screen_name": "bijoydesai97", "time": 1457050914.0, "tid": 705473293369937921, "text": "Meeting the Principal of Glendon College, Donald Ipperciel hosted by the GCSU Presents:\u2026 https://t.co/XQ4KOPCsTZ", "created_at": "Thu Mar 03 19:21:54 +0000 2016", "klabel": 115}}, {"geometry": {"type": "Point", "coordinates": [-79.3768256, 43.7215696]}, "type": "Feature", "id": 705787082015272960, "properties": {"loc": [-79.3768256, 43.7215696], "centroid": [-79.29879109457526, 43.77520684599106], "screen_name": "tmj_ON_it", "time": 1457125727.0, "tid": 705787082015272960, "text": "Can you recommend anyone for this #job? Web Developer - https://t.co/c8Tcn7Vscq #NorthYork, ON #WebDesign #Hiring #CareerArc", "created_at": "Fri Mar 04 16:08:47 +0000 2016", "klabel": 115}}, {"geometry": {"type": "Point", "coordinates": [-79.37356616, 43.72475291]}, "type": "Feature", "id": 750021407954927620, "properties": {"loc": [-79.37356616, 43.72475291], "centroid": [-79.29879109457526, 43.77520684599106], "screen_name": "SarahsTails", "time": 1467672013.0, "tid": 750021407954927620, "text": "#odin loving the #water @ Estates of Sunnybrook https://t.co/HHctq0Mt9j", "created_at": "Mon Jul 04 17:40:13 +0000 2016", "klabel": 115}}, {"geometry": {"type": "Point", "coordinates": [-79.37881844, 43.72709047]}, "type": "Feature", "id": 750118879221862400, "properties": {"loc": [-79.37881844, 43.72709047], "centroid": [-79.29879109457526, 43.77520684599106], "screen_name": "CanadianFlags", "time": 1467695251.0, "tid": 750118879221862400, "text": "Glendon College. Toronto, Canada. @ Glendon Campus, York University https://t.co/5XHfpudkkj", "created_at": "Tue Jul 05 00:07:31 +0000 2016", "klabel": 115}}, {"geometry": {"type": "Point", "coordinates": [-79.37356616, 43.72475291]}, "type": "Feature", "id": 750123843558182914, "properties": {"loc": [-79.37356616, 43.72475291], "centroid": [-79.29879109457526, 43.77520684599106], "screen_name": "carolynkilbourn", "time": 1467696435.0, "tid": 750123843558182914, "text": "Shout out to my business partner, @blogsley, always a lifesaver! #prlife #carlaw #toronto\u2026 https://t.co/Rw6xG2GfdF", "created_at": "Tue Jul 05 00:27:15 +0000 2016", "klabel": 115}}, {"geometry": {"type": "Point", "coordinates": [-79.38205423, 43.71727417]}, "type": "Feature", "id": 750294682014326784, "properties": {"loc": [-79.38205423, 43.71727417], "centroid": [-79.29879109457526, 43.77520684599106], "screen_name": "sebcentner", "time": 1467737166.0, "tid": 750294682014326784, "text": "Early morning coffee on the deck with #lolaandlily #toronto #summer #sunrise #petsofinstagram @\u2026 https://t.co/otjnPhoXga", "created_at": "Tue Jul 05 11:46:06 +0000 2016", "klabel": 115}}, {"geometry": {"type": "Point", "coordinates": [-79.3745861, 43.7042562]}, "type": "Feature", "id": 750371423777067008, "properties": {"loc": [-79.3745861, 43.7042562], "centroid": [-79.29879109457526, 43.77520684599106], "screen_name": "tpscalls", "time": 1467755463.0, "tid": 750371423777067008, "text": "Holding One With Trouble | Wicksteed Ave &amp; Millwood Rd [41 Div.] 07/05 12:45 #Toronto", "created_at": "Tue Jul 05 16:51:03 +0000 2016", "klabel": 115}}, {"geometry": {"type": "Point", "coordinates": [-79.385359, 43.7255412]}, "type": "Feature", "id": 751626197726101505, "properties": {"loc": [-79.385359, 43.7255412], "centroid": [-79.29879109457526, 43.77520684599106], "screen_name": "tpscalls", "time": 1468054624.0, "tid": 751626197726101505, "text": "Break &amp; Enter | St Ives Ave &amp; Mildenhall Rd [53 Div.] 07/08 23:53 #Toronto", "created_at": "Sat Jul 09 03:57:04 +0000 2016", "klabel": 115}}, {"geometry": {"type": "Point", "coordinates": [-79.37937845, 43.7117038]}, "type": "Feature", "id": 751784168057626625, "properties": {"loc": [-79.37937845, 43.7117038], "centroid": [-79.29879109457526, 43.77520684599106], "screen_name": "JessWattCanada", "time": 1468092287.0, "tid": 751784168057626625, "text": "Our dear friend Jessalita is taking a weekend to herself up in #algonquinpark before heading\u2026 https://t.co/Ax6BT49rx2", "created_at": "Sat Jul 09 14:24:47 +0000 2016", "klabel": 115}}, {"geometry": {"type": "Point", "coordinates": [-79.37497926, 43.70624981]}, "type": "Feature", "id": 751797389212651520, "properties": {"loc": [-79.37497926, 43.70624981], "centroid": [-79.29879109457526, 43.77520684599106], "screen_name": "85alex", "time": 1468095439.0, "tid": 751797389212651520, "text": "As the @canadapostcorp location on Bayview..Supppsed to open at 11,sign saying \u201copening at 11:15\u201d on the desk nobody is here,big line #fail", "created_at": "Sat Jul 09 15:17:19 +0000 2016", "klabel": 115}}, {"geometry": {"type": "Point", "coordinates": [-79.37356616, 43.72475291]}, "type": "Feature", "id": 751825758956449792, "properties": {"loc": [-79.37356616, 43.72475291], "centroid": [-79.29879109457526, 43.77520684599106], "screen_name": "delightfloral", "time": 1468102203.0, "tid": 751825758956449792, "text": "These fluffy pretties for today's #wedding celebration \u2601\ufe0f\ud83c\udf51\u2601\ufe0f @ Estates of Sunnybrook https://t.co/evKdM152qq", "created_at": "Sat Jul 09 17:10:03 +0000 2016", "klabel": 115}}, {"geometry": {"type": "Point", "coordinates": [-79.37521663, 43.70551326]}, "type": "Feature", "id": 751866187630333952, "properties": {"loc": [-79.37521663, 43.70551326], "centroid": [-79.29879109457526, 43.77520684599106], "screen_name": "Paul_BNL", "time": 1468111842.0, "tid": 751866187630333952, "text": "Out walking the niece in Toronto today. #gorgeousday #Bergsmagroup #family @ Bayview Avenue,\u2026 https://t.co/xpbXKKMRe3", "created_at": "Sat Jul 09 19:50:42 +0000 2016", "klabel": 115}}, {"geometry": {"type": "Point", "coordinates": [-79.37521663, 43.70551326]}, "type": "Feature", "id": 751879570345717760, "properties": {"loc": [-79.37521663, 43.70551326], "centroid": [-79.29879109457526, 43.77520684599106], "screen_name": "Paul_BNL", "time": 1468115033.0, "tid": 751879570345717760, "text": "Fam jam day. #nephew @ Bayview Avenue, Downtown Toronto https://t.co/Q5xfRZlmqN", "created_at": "Sat Jul 09 20:43:53 +0000 2016", "klabel": 115}}, {"geometry": {"type": "Point", "coordinates": [-79.37356616, 43.72475291]}, "type": "Feature", "id": 751894716325650432, "properties": {"loc": [-79.37356616, 43.72475291], "centroid": [-79.29879109457526, 43.77520684599106], "screen_name": "DJan2ny", "time": 1468118644.0, "tid": 751894716325650432, "text": "All set for an #intamitewedding with @rebecca_chan congrats to Helen &amp; Vipin :) #torontowedding\u2026 https://t.co/TRDBRQ6l4P", "created_at": "Sat Jul 09 21:44:04 +0000 2016", "klabel": 115}}, {"geometry": {"type": "Point", "coordinates": [-79.3802143, 43.7059993]}, "type": "Feature", "id": 751915351835811840, "properties": {"loc": [-79.3802143, 43.7059993], "centroid": [-79.29879109457526, 43.77520684599106], "screen_name": "tofireN", "time": 1468123564.0, "tid": 751915351835811840, "text": "Medical (Allergy) - Manor Road b/w Thurston Road / Cleveland St, Toronto (2 Trucks)", "created_at": "Sat Jul 09 23:06:04 +0000 2016", "klabel": 115}}, {"geometry": {"type": "Point", "coordinates": [-79.38226786, 43.71723403]}, "type": "Feature", "id": 752182051269378048, "properties": {"loc": [-79.38226786, 43.71723403], "centroid": [-79.29879109457526, 43.77520684599106], "screen_name": "e_c_martin", "time": 1468187150.0, "tid": 752182051269378048, "text": "Running free #toronto #midtown #sherwoodpark #shesamonkey #bailey\u2026 https://t.co/ch9BkRHbeM", "created_at": "Sun Jul 10 16:45:50 +0000 2016", "klabel": 115}}, {"geometry": {"type": "Point", "coordinates": [-79.38226786, 43.71723403]}, "type": "Feature", "id": 752182984707543040, "properties": {"loc": [-79.38226786, 43.71723403], "centroid": [-79.29879109457526, 43.77520684599106], "screen_name": "e_c_martin", "time": 1468187373.0, "tid": 752182984707543040, "text": "Rolling and snortin #sundayfunday #fun #happy #minigoldendoodle\u2026 https://t.co/g0IMVdIXGN", "created_at": "Sun Jul 10 16:49:33 +0000 2016", "klabel": 115}}, {"geometry": {"type": "Point", "coordinates": [-79.37356616, 43.72475291]}, "type": "Feature", "id": 752219534715748353, "properties": {"loc": [-79.37356616, 43.72475291], "centroid": [-79.29879109457526, 43.77520684599106], "screen_name": "delightfloral", "time": 1468196087.0, "tid": 752219534715748353, "text": "Always love coming back here @estatesofsunny every corner is just picture perfect \ud83c\udf80 Congrats to\u2026 https://t.co/BT2dFBQkZo", "created_at": "Sun Jul 10 19:14:47 +0000 2016", "klabel": 115}}, {"geometry": {"type": "Point", "coordinates": [-79.3749342, 43.7051161]}, "type": "Feature", "id": 752221119978082304, "properties": {"loc": [-79.3749342, 43.7051161], "centroid": [-79.29879109457526, 43.77520684599106], "screen_name": "tofire", "time": 1468196465.0, "tid": 752221119978082304, "text": "Medical (Seizures/convulsions) - Bayview Avenue b/w Belsize Dr / Manor Road East, East York (2 Trucks)", "created_at": "Sun Jul 10 19:21:05 +0000 2016", "klabel": 115}}, {"geometry": {"type": "Point", "coordinates": [-79.3749342, 43.7051161]}, "type": "Feature", "id": 752221121337036800, "properties": {"loc": [-79.3749342, 43.7051161], "centroid": [-79.29879109457526, 43.77520684599106], "screen_name": "tofireS", "time": 1468196465.0, "tid": 752221121337036800, "text": "Medical (Seizures/convulsions) - Bayview Avenue b/w Belsize Dr / Manor Road East, East York (2 Trucks)", "created_at": "Sun Jul 10 19:21:05 +0000 2016", "klabel": 115}}, {"geometry": {"type": "Point", "coordinates": [-79.3788445, 43.7209989]}, "type": "Feature", "id": 752229673166405633, "properties": {"loc": [-79.3788445, 43.7209989], "centroid": [-79.29879109457526, 43.77520684599106], "screen_name": "tofire", "time": 1468198504.0, "tid": 752229673166405633, "text": "Alarm Institution - Bayview Avenue b/w Blythwood Road / Hargrave Lane, North York (7 Trucks)", "created_at": "Sun Jul 10 19:55:04 +0000 2016", "klabel": 115}}, {"geometry": {"type": "Point", "coordinates": [-79.382604, 43.7400592]}, "type": "Feature", "id": 752600872924971008, "properties": {"loc": [-79.382604, 43.7400592], "centroid": [-79.29879109457526, 43.77520684599106], "screen_name": "tofireN", "time": 1468287005.0, "tid": 752600872924971008, "text": "Natural Gas Leak - Arjay Crescent b/w Bayview Avenue / Bayview Avenue, North York (5 Trucks)", "created_at": "Mon Jul 11 20:30:05 +0000 2016", "klabel": 115}}, {"geometry": {"type": "Point", "coordinates": [-79.37602, 43.708241]}, "type": "Feature", "id": 752626315635884034, "properties": {"loc": [-79.37602, 43.708241], "centroid": [-79.29879109457526, 43.77520684599106], "screen_name": "mysaucykitchen", "time": 1468293071.0, "tid": 752626315635884034, "text": "A spot of tea and a sweet @rahieronbayview. #tea #sweets #spotoftea #afternoontea\u2026 https://t.co/yAOFR1krrM", "created_at": "Mon Jul 11 22:11:11 +0000 2016", "klabel": 115}}, {"geometry": {"type": "Point", "coordinates": [-79.37499, 43.70463]}, "type": "Feature", "id": 753033373132656640, "properties": {"loc": [-79.37499, 43.70463], "centroid": [-79.29879109457526, 43.77520684599106], "screen_name": "artonbayview", "time": 1468390121.0, "tid": 753033373132656640, "text": "Now in the window #artoftheday JoeSampson's  toward the finish #artofinstagram #shoreline\u2026 https://t.co/v9XTPlnrLo", "created_at": "Wed Jul 13 01:08:41 +0000 2016", "klabel": 115}}, {"geometry": {"type": "Point", "coordinates": [-79.3775829, 43.7139023]}, "type": "Feature", "id": 753356593874477057, "properties": {"loc": [-79.3775829, 43.7139023], "centroid": [-79.29879109457526, 43.77520684599106], "screen_name": "tpscalls", "time": 1468467183.0, "tid": 753356593874477057, "text": "Personal Injury Collision | Bayview Ave &amp; Broadway Ave [HP] 07/13 18:27 #Mount_Pleasant_East #Toronto", "created_at": "Wed Jul 13 22:33:03 +0000 2016", "klabel": 115}}, {"geometry": {"type": "Point", "coordinates": [-79.37499, 43.70463]}, "type": "Feature", "id": 753402210869018628, "properties": {"loc": [-79.37499, 43.70463], "centroid": [-79.29879109457526, 43.77520684599106], "screen_name": "artonbayview", "time": 1468478059.0, "tid": 753402210869018628, "text": "Hot town summer in the city Stefan Galvanek #toronto #painting #paintingoftheday #artofinstagram\u2026 https://t.co/36jHd0Xqhs", "created_at": "Thu Jul 14 01:34:19 +0000 2016", "klabel": 115}}, {"geometry": {"type": "Point", "coordinates": [-79.388, 43.722]}, "type": "Feature", "id": 753590148877590529, "properties": {"loc": [-79.388, 43.722], "centroid": [-79.29879109457526, 43.77520684599106], "screen_name": "jtjazzy1", "time": 1468522867.0, "tid": 753590148877590529, "text": "Happy 26th Anniversary to my best friend!!! Love you to infinity and beyond!!\nThanks for putting\u2026 https://t.co/i0wR2led5A", "created_at": "Thu Jul 14 14:01:07 +0000 2016", "klabel": 115}}, {"geometry": {"type": "Point", "coordinates": [-79.37715076, 43.71111135]}, "type": "Feature", "id": 753642867013234688, "properties": {"loc": [-79.37715076, 43.71111135], "centroid": [-79.29879109457526, 43.77520684599106], "screen_name": "christielli", "time": 1468535436.0, "tid": 753642867013234688, "text": "Baseball thing that warms my heart: 2Lo took a bunch of the young guys to Cabo for the break.", "created_at": "Thu Jul 14 17:30:36 +0000 2016", "klabel": 115}}, {"geometry": {"type": "Point", "coordinates": [-79.38553997, 43.70962004]}, "type": "Feature", "id": 753652345175678976, "properties": {"loc": [-79.38553997, 43.70962004], "centroid": [-79.29879109457526, 43.77520684599106], "screen_name": "christielli", "time": 1468537695.0, "tid": 753652345175678976, "text": "@mattinwpg @CurlyMishap I feel you guys should know there's a cat cafe opening up dove  the street from me.", "created_at": "Thu Jul 14 18:08:15 +0000 2016", "klabel": 115}}, {"geometry": {"type": "Point", "coordinates": [-79.3746244, 43.7052461]}, "type": "Feature", "id": 753664162052440064, "properties": {"loc": [-79.3746244, 43.7052461], "centroid": [-79.29879109457526, 43.77520684599106], "screen_name": "tmj_gta_hrta", "time": 1468540513.0, "tid": 753664162052440064, "text": "See our latest 1545 BAYVIEW AVENUE, #TORONTO, ON #job and click to apply: Barista (CA) - https://t.co/D5cUgfkW9R #Hospitality #Veterans", "created_at": "Thu Jul 14 18:55:13 +0000 2016", "klabel": 115}}, {"geometry": {"type": "Point", "coordinates": [-79.38553579, 43.70962589]}, "type": "Feature", "id": 753669136673308672, "properties": {"loc": [-79.38553579, 43.70962589], "centroid": [-79.29879109457526, 43.77520684599106], "screen_name": "christielli", "time": 1468541699.0, "tid": 753669136673308672, "text": "@JesseHair didn't you see her? https://t.co/dhUYYUgEA4", "created_at": "Thu Jul 14 19:14:59 +0000 2016", "klabel": 115}}, {"geometry": {"type": "Point", "coordinates": [-79.36390153, 43.72402847]}, "type": "Feature", "id": 753727597775818752, "properties": {"loc": [-79.36390153, 43.72402847], "centroid": [-79.29879109457526, 43.77520684599106], "screen_name": "TheKQ", "time": 1468555637.0, "tid": 753727597775818752, "text": "More treats mom! #equstrian #jumper #willandkate #bayroan @ Sunnybrook Stables LTD https://t.co/3l8yNU1Jea", "created_at": "Thu Jul 14 23:07:17 +0000 2016", "klabel": 115}}, {"geometry": {"type": "Point", "coordinates": [-79.3782267, 43.7129727]}, "type": "Feature", "id": 753801286449963008, "properties": {"loc": [-79.3782267, 43.7129727], "centroid": [-79.29879109457526, 43.77520684599106], "screen_name": "tpscalls", "time": 1468573206.0, "tid": 753801286449963008, "text": "Unknown Trouble | Craig Cres &amp; Glazebrook Ave [53 Div.] 07/14 23:57 #Midtown_Toronto", "created_at": "Fri Jul 15 04:00:06 +0000 2016", "klabel": 115}}, {"geometry": {"type": "Point", "coordinates": [-79.385022, 43.7059659]}, "type": "Feature", "id": 753854370253594624, "properties": {"loc": [-79.385022, 43.7059659], "centroid": [-79.29879109457526, 43.77520684599106], "screen_name": "tpscalls", "time": 1468585862.0, "tid": 753854370253594624, "text": "Unknown Trouble | Summerhill Rd &amp; Hillside Ave [22 Div.] 07/15 03:25 #Midtown_Toronto", "created_at": "Fri Jul 15 07:31:02 +0000 2016", "klabel": 115}}, {"geometry": {"type": "Point", "coordinates": [-79.3794549, 43.7070766]}, "type": "Feature", "id": 754031799601364992, "properties": {"loc": [-79.3794549, 43.7070766], "centroid": [-79.29879109457526, 43.77520684599106], "screen_name": "tofireS", "time": 1468628164.0, "tid": 754031799601364992, "text": "Alarm Commercial/industrial - Hillsdale Avenue b/w Cleveland St / Bayview Avenue, Toronto (6 Trucks)", "created_at": "Fri Jul 15 19:16:04 +0000 2016", "klabel": 115}}, {"geometry": {"type": "Point", "coordinates": [-79.3794549, 43.7070766]}, "type": "Feature", "id": 754031798531788800, "properties": {"loc": [-79.3794549, 43.7070766], "centroid": [-79.29879109457526, 43.77520684599106], "screen_name": "tofire", "time": 1468628164.0, "tid": 754031798531788800, "text": "Alarm Commercial/industrial - Hillsdale Avenue b/w Cleveland St / Bayview Avenue, Toronto (6 Trucks)", "created_at": "Fri Jul 15 19:16:04 +0000 2016", "klabel": 115}}, {"geometry": {"type": "Point", "coordinates": [-79.3756457, 43.717183]}, "type": "Feature", "id": 754081876554485760, "properties": {"loc": [-79.3756457, 43.717183], "centroid": [-79.29879109457526, 43.77520684599106], "screen_name": "tofire", "time": 1468640104.0, "tid": 754081876554485760, "text": "Fire (Highrise Residential) - Burkebrook Pl @ Kilgour Road, North York (7 Trucks)", "created_at": "Fri Jul 15 22:35:04 +0000 2016", "klabel": 115}}, {"geometry": {"type": "Point", "coordinates": [-79.3756457, 43.717183]}, "type": "Feature", "id": 754081877565276161, "properties": {"loc": [-79.3756457, 43.717183], "centroid": [-79.29879109457526, 43.77520684599106], "screen_name": "tofireS", "time": 1468640104.0, "tid": 754081877565276161, "text": "Fire (Highrise Residential) - Burkebrook Pl @ Kilgour Road, North York (7 Trucks)", "created_at": "Fri Jul 15 22:35:04 +0000 2016", "klabel": 115}}, {"geometry": {"type": "Point", "coordinates": [-79.3788071, 43.721489]}, "type": "Feature", "id": 754085141065109504, "properties": {"loc": [-79.3788071, 43.721489], "centroid": [-79.29879109457526, 43.77520684599106], "screen_name": "elldoedemosse", "time": 1468640882.0, "tid": 754085141065109504, "text": "for your eyes only, I'll show you my heart. for when you're lonely and forget who you are. i'm\u2026 https://t.co/79qQNJzYtU", "created_at": "Fri Jul 15 22:48:02 +0000 2016", "klabel": 115}}, {"geometry": {"type": "Point", "coordinates": [-79.3788445, 43.7209989]}, "type": "Feature", "id": 754090695095414784, "properties": {"loc": [-79.3788445, 43.7209989], "centroid": [-79.29879109457526, 43.77520684599106], "screen_name": "tofire", "time": 1468642206.0, "tid": 754090695095414784, "text": "Fire (Grass/rubbish) - Bayview Avenue b/w Blythwood Road / Hargrave Lane, North York (2 Trucks)", "created_at": "Fri Jul 15 23:10:06 +0000 2016", "klabel": 115}}, {"geometry": {"type": "Point", "coordinates": [-79.3788445, 43.7209989]}, "type": "Feature", "id": 754090697125400576, "properties": {"loc": [-79.3788445, 43.7209989], "centroid": [-79.29879109457526, 43.77520684599106], "screen_name": "tofiref", "time": 1468642207.0, "tid": 754090697125400576, "text": "Fire (Grass/rubbish) - Bayview Avenue b/w Blythwood Road / Hargrave Lane, North York (2 Trucks)", "created_at": "Fri Jul 15 23:10:07 +0000 2016", "klabel": 115}}, {"geometry": {"type": "Point", "coordinates": [-79.3889304, 43.7294192]}, "type": "Feature", "id": 754113836886716416, "properties": {"loc": [-79.3889304, 43.7294192], "centroid": [-79.29879109457526, 43.77520684599106], "screen_name": "tpscalls", "time": 1468647724.0, "tid": 754113836886716416, "text": "Break &amp; Enter Just Occurred | Proctor Cres &amp; Braeside Rd [32 Div.] 07/15 20:36 #Wanless_Park #Toronto", "created_at": "Sat Jul 16 00:42:04 +0000 2016", "klabel": 115}}, {"geometry": {"type": "Point", "coordinates": [-79.37356616, 43.72475291]}, "type": "Feature", "id": 754149957351923712, "properties": {"loc": [-79.37356616, 43.72475291], "centroid": [-79.29879109457526, 43.77520684599106], "screen_name": "LittleHarpist", "time": 1468656335.0, "tid": 754149957351923712, "text": "It was a gorgeous evening for this gorgeous bride in a gorgeous garden @estatesofsunny\u2026 https://t.co/vZfal4Wyvg", "created_at": "Sat Jul 16 03:05:35 +0000 2016", "klabel": 115}}, {"geometry": {"type": "Point", "coordinates": [-79.3793846, 43.7135315]}, "type": "Feature", "id": 754191598846611456, "properties": {"loc": [-79.3793846, 43.7135315], "centroid": [-79.29879109457526, 43.77520684599106], "screen_name": "tpscalls", "time": 1468666264.0, "tid": 754191598846611456, "text": "Noisy Party | Roehampton Ave &amp; Broadway Ave [53 Div.] 07/16 01:46 #Toronto", "created_at": "Sat Jul 16 05:51:04 +0000 2016", "klabel": 115}}, {"geometry": {"type": "Point", "coordinates": [-79.382808, 43.7319023]}, "type": "Feature", "id": 754284492320182272, "properties": {"loc": [-79.382808, 43.7319023], "centroid": [-79.29879109457526, 43.77520684599106], "screen_name": "tmj_gta_acct", "time": 1468688411.0, "tid": 754284492320182272, "text": "See our latest #Toronto, ON #job and click to apply: Controller - https://t.co/ZSNsErme4o #Accounting #Hiring #CareerArc", "created_at": "Sat Jul 16 12:00:11 +0000 2016", "klabel": 115}}, {"geometry": {"type": "Point", "coordinates": [-79.382808, 43.7319023]}, "type": "Feature", "id": 754375593257414656, "properties": {"loc": [-79.382808, 43.7319023], "centroid": [-79.29879109457526, 43.77520684599106], "screen_name": "RHFAJobs", "time": 1468710131.0, "tid": 754375593257414656, "text": "Can you recommend anyone for this #job? https://t.co/r1xGS3Brrp #RHFAJobs #Toronto, ON #Hiring", "created_at": "Sat Jul 16 18:02:11 +0000 2016", "klabel": 115}}, {"geometry": {"type": "Point", "coordinates": [-79.384885, 43.709475]}, "type": "Feature", "id": 754444264986308608, "properties": {"loc": [-79.384885, 43.709475], "centroid": [-79.29879109457526, 43.77520684599106], "screen_name": "tofireN", "time": 1468726504.0, "tid": 754444264986308608, "text": "Medical (Check Call) - Eglinton Avenue b/w Petman Avenue / Marmot St, Toronto (2 Trucks)", "created_at": "Sat Jul 16 22:35:04 +0000 2016", "klabel": 115}}, {"geometry": {"type": "Point", "coordinates": [-79.384885, 43.709475]}, "type": "Feature", "id": 754444264063508480, "properties": {"loc": [-79.384885, 43.709475], "centroid": [-79.29879109457526, 43.77520684599106], "screen_name": "tofire", "time": 1468726504.0, "tid": 754444264063508480, "text": "Medical (Check Call) - Eglinton Avenue b/w Petman Avenue / Marmot St, Toronto (2 Trucks)", "created_at": "Sat Jul 16 22:35:04 +0000 2016", "klabel": 115}}, {"geometry": {"type": "Point", "coordinates": [-79.3788445, 43.7209989]}, "type": "Feature", "id": 754450815809617920, "properties": {"loc": [-79.3788445, 43.7209989], "centroid": [-79.29879109457526, 43.77520684599106], "screen_name": "tofireN", "time": 1468728066.0, "tid": 754450815809617920, "text": "Alarm Institution - Bayview Avenue b/w Blythwood Road / Hargrave Lane, North York (7 Trucks)", "created_at": "Sat Jul 16 23:01:06 +0000 2016", "klabel": 115}}, {"geometry": {"type": "Point", "coordinates": [-79.37881844, 43.72709047]}, "type": "Feature", "id": 754670223719104512, "properties": {"loc": [-79.37881844, 43.72709047], "centroid": [-79.29879109457526, 43.77520684599106], "screen_name": "DougJamesTaylor", "time": 1468780377.0, "tid": 754670223719104512, "text": "What an amazing day yesterday! #PrepNetwork at #GlendonCollege. Feeling more confident.\u2026 https://t.co/tg0Ea4Piwl", "created_at": "Sun Jul 17 13:32:57 +0000 2016", "klabel": 115}}, {"geometry": {"type": "Point", "coordinates": [-79.381598, 43.734607]}, "type": "Feature", "id": 754690768854327296, "properties": {"loc": [-79.381598, 43.734607], "centroid": [-79.29879109457526, 43.77520684599106], "screen_name": "sebcentner", "time": 1468785275.0, "tid": 754690768854327296, "text": "If you are going to do it, always do it with #style #tennis #summer #veuve #jaune @ Granite Club https://t.co/vnnsvhRA6t", "created_at": "Sun Jul 17 14:54:35 +0000 2016", "klabel": 115}}, {"geometry": {"type": "Point", "coordinates": [-79.3897803, 43.7225671]}, "type": "Feature", "id": 754698944106622976, "properties": {"loc": [-79.3897803, 43.7225671], "centroid": [-79.29879109457526, 43.77520684599106], "screen_name": "tpscalls", "time": 1468787224.0, "tid": 754698944106622976, "text": "Noise Complaint | Glenallan Rd &amp; Dawlish Ave [53 Div.] 07/17 11:23 #Midtown_Toronto", "created_at": "Sun Jul 17 15:27:04 +0000 2016", "klabel": 115}}, {"geometry": {"type": "Point", "coordinates": [-79.38226786, 43.71723403]}, "type": "Feature", "id": 754708617950064640, "properties": {"loc": [-79.38226786, 43.71723403], "centroid": [-79.29879109457526, 43.77520684599106], "screen_name": "e_c_martin", "time": 1468789530.0, "tid": 754708617950064640, "text": "When at the park, get dirty #sherwoodpark #minigoldendoodle #bailey\u2026 https://t.co/G0A5UJIBFd", "created_at": "Sun Jul 17 16:05:30 +0000 2016", "klabel": 115}}, {"geometry": {"type": "Point", "coordinates": [-79.3787406, 43.7020385]}, "type": "Feature", "id": 754732673202085889, "properties": {"loc": [-79.3787406, 43.7020385], "centroid": [-79.29879109457526, 43.77520684599106], "screen_name": "tofireN", "time": 1468795266.0, "tid": 754732673202085889, "text": "Carbon Monoxide (Non Medical) - Martin Crescent @ Davisville Avenue, Toronto (2 Trucks)", "created_at": "Sun Jul 17 17:41:06 +0000 2016", "klabel": 115}}, {"geometry": {"type": "Point", "coordinates": [-79.3771938, 43.7110519]}, "type": "Feature", "id": 754792560481140736, "properties": {"loc": [-79.3771938, 43.7110519], "centroid": [-79.29879109457526, 43.77520684599106], "screen_name": "tpscalls", "time": 1468809544.0, "tid": 754792560481140736, "text": "Impaired Driver | Bayview Ave &amp; Eglinton Ave E [HP] 07/17 17:35 #Sherwood_Park #Toronto", "created_at": "Sun Jul 17 21:39:04 +0000 2016", "klabel": 115}}, {"geometry": {"type": "Point", "coordinates": [-79.3771938, 43.7110519]}, "type": "Feature", "id": 754793313673306112, "properties": {"loc": [-79.3771938, 43.7110519], "centroid": [-79.29879109457526, 43.77520684599106], "screen_name": "tpscalls", "time": 1468809724.0, "tid": 754793313673306112, "text": "Impaired Driver | Bayview Ave &amp; Eglinton Ave E [53 Div.] 07/17 17:38 #Sherwood_Park #Toronto", "created_at": "Sun Jul 17 21:42:04 +0000 2016", "klabel": 115}}, {"geometry": {"type": "Point", "coordinates": [-79.37937845, 43.7117038]}, "type": "Feature", "id": 754860896724324352, "properties": {"loc": [-79.37937845, 43.7117038], "centroid": [-79.29879109457526, 43.77520684599106], "screen_name": "julia_wong", "time": 1468825837.0, "tid": 754860896724324352, "text": "A fern covered pathway. Pretty nice place for a hike. Got in 23k\u2026 https://t.co/WTf2SwveAA", "created_at": "Mon Jul 18 02:10:37 +0000 2016", "klabel": 115}}, {"geometry": {"type": "Point", "coordinates": [-79.38539481, 43.70961688]}, "type": "Feature", "id": 754868891822723072, "properties": {"loc": [-79.38539481, 43.70961688], "centroid": [-79.29879109457526, 43.77520684599106], "screen_name": "christielli", "time": 1468827743.0, "tid": 754868891822723072, "text": "Was out for drinks and the waitress insisted my party had one more drink than we actually did. Had to argue with her about it. (1/2)", "created_at": "Mon Jul 18 02:42:23 +0000 2016", "klabel": 115}}, {"geometry": {"type": "Point", "coordinates": [-79.3854299, 43.70968342]}, "type": "Feature", "id": 754869639126155264, "properties": {"loc": [-79.3854299, 43.70968342], "centroid": [-79.29879109457526, 43.77520684599106], "screen_name": "christielli", "time": 1468827921.0, "tid": 754869639126155264, "text": "She finally relented, yet I always feel so shitty when I'm assertive. 99% sure error was hers. Hate feeling guilty for assertiveness. (2/2)", "created_at": "Mon Jul 18 02:45:21 +0000 2016", "klabel": 115}}, {"geometry": {"type": "Point", "coordinates": [-79.37639977, 43.72162428]}, "type": "Feature", "id": 754954132037988352, "properties": {"loc": [-79.37639977, 43.72162428], "centroid": [-79.29879109457526, 43.77520684599106], "screen_name": "st33lma8nolia", "time": 1468848066.0, "tid": 754954132037988352, "text": "#picsfromkevin during night shift. Poor Danni. \"Where's my hooman\u2026 https://t.co/l0f7uSdEyk", "created_at": "Mon Jul 18 08:21:06 +0000 2016", "klabel": 115}}, {"geometry": {"type": "Point", "coordinates": [-79.388, 43.722]}, "type": "Feature", "id": 755023299881512961, "properties": {"loc": [-79.388, 43.722], "centroid": [-79.29879109457526, 43.77520684599106], "screen_name": "jtjazzy1", "time": 1468864557.0, "tid": 755023299881512961, "text": "It is hard to forget someone who gave you so much to remember!! Miss you everyday mom!!! \ud83d\udc7c\ud83c\udffc\ud83d\ude18\ud83d\udc95 @\u2026 https://t.co/1tAIavTZWj", "created_at": "Mon Jul 18 12:55:57 +0000 2016", "klabel": 115}}, {"geometry": {"type": "Point", "coordinates": [-79.3783575, 43.7044283]}, "type": "Feature", "id": 755199490504658945, "properties": {"loc": [-79.3783575, 43.7044283], "centroid": [-79.29879109457526, 43.77520684599106], "screen_name": "tpscalls", "time": 1468906564.0, "tid": 755199490504658945, "text": "Break &amp; Enter | Thurston Rd &amp; Cleveland St [53 Div.] 07/18 20:31 #Midtown_Toronto", "created_at": "Tue Jul 19 00:36:04 +0000 2016", "klabel": 115}}, {"geometry": {"type": "Point", "coordinates": [-79.37881844, 43.72709047]}, "type": "Feature", "id": 755788438566268928, "properties": {"loc": [-79.37881844, 43.72709047], "centroid": [-79.29879109457526, 43.77520684599106], "screen_name": "calpinkney", "time": 1469046980.0, "tid": 755788438566268928, "text": "Friends and family hold each other close. \u2764\ufe0f @ Glendon Campus, York University https://t.co/5Og2kGsvaJ", "created_at": "Wed Jul 20 15:36:20 +0000 2016", "klabel": 115}}, {"geometry": {"type": "Point", "coordinates": [-79.38542069, 43.709642]}, "type": "Feature", "id": 755845535320444928, "properties": {"loc": [-79.38542069, 43.709642], "centroid": [-79.29879109457526, 43.77520684599106], "screen_name": "christielli", "time": 1469060593.0, "tid": 755845535320444928, "text": "@mattinwpg very good!!!", "created_at": "Wed Jul 20 19:23:13 +0000 2016", "klabel": 115}}, {"geometry": {"type": "Point", "coordinates": [-79.37085, 43.71078]}, "type": "Feature", "id": 755847674025349120, "properties": {"loc": [-79.37085, 43.71078], "centroid": [-79.29879109457526, 43.77520684599106], "screen_name": "hctapparel", "time": 1469061103.0, "tid": 755847674025349120, "text": "Best of luck to the HCT sponsored lawn bowling team 'Beyonc\u00e9 Bowls' in week 3 at @lawnsummer\u2026 https://t.co/PuPjqQVIQv", "created_at": "Wed Jul 20 19:31:43 +0000 2016", "klabel": 115}}, {"geometry": {"type": "Point", "coordinates": [-79.37356616, 43.72475291]}, "type": "Feature", "id": 756469859152691200, "properties": {"loc": [-79.37356616, 43.72475291], "centroid": [-79.29879109457526, 43.77520684599106], "screen_name": "bowsandlavender", "time": 1469209443.0, "tid": 756469859152691200, "text": "Hidden away in the gardens amongst the estates of Sunnybrook. @ Estates of Sunnybrook https://t.co/NxHKRjQfUp", "created_at": "Fri Jul 22 12:44:03 +0000 2016", "klabel": 115}}, {"geometry": {"type": "Point", "coordinates": [-79.377218, 43.7046683]}, "type": "Feature", "id": 756555936748150784, "properties": {"loc": [-79.377218, 43.7046683], "centroid": [-79.29879109457526, 43.77520684599106], "screen_name": "tofireS", "time": 1469229966.0, "tid": 756555936748150784, "text": "Alarm Residential - Belsize Dr b/w Cheston Road / Gresham Road, Toronto (6 Trucks)", "created_at": "Fri Jul 22 18:26:06 +0000 2016", "klabel": 115}}, {"geometry": {"type": "Point", "coordinates": [-79.37356616, 43.72475291]}, "type": "Feature", "id": 756936361756590080, "properties": {"loc": [-79.37356616, 43.72475291], "centroid": [-79.29879109457526, 43.77520684599106], "screen_name": "BohemianGroupTO", "time": 1469320666.0, "tid": 756936361756590080, "text": "We clean up ok. #loveinhd #wedding #congratulations Hana and Derek!\u2026 https://t.co/Kr1SyTaZt4", "created_at": "Sat Jul 23 19:37:46 +0000 2016", "klabel": 115}}, {"geometry": {"type": "Point", "coordinates": [-79.3731, 43.7111]}, "type": "Feature", "id": 757015860603072516, "properties": {"loc": [-79.3731, 43.7111], "centroid": [-79.29879109457526, 43.77520684599106], "screen_name": "KristaWhite1000", "time": 1469339620.0, "tid": 757015860603072516, "text": "And now some pitching advice @ Leaside High School https://t.co/jMFQ8UdjzW", "created_at": "Sun Jul 24 00:53:40 +0000 2016", "klabel": 115}}, {"geometry": {"type": "Point", "coordinates": [-79.3866632, 43.7212042]}, "type": "Feature", "id": 757068057332314113, "properties": {"loc": [-79.3866632, 43.7212042], "centroid": [-79.29879109457526, 43.77520684599106], "screen_name": "tpscalls", "time": 1469352065.0, "tid": 757068057332314113, "text": "Noisy Party | Strathgowan Cres &amp; Stratheden Rd [53 Div.] 07/24 00:17 #Midtown_Toronto", "created_at": "Sun Jul 24 04:21:05 +0000 2016", "klabel": 115}}, {"geometry": {"type": "Point", "coordinates": [-79.3800216, 43.7230195]}, "type": "Feature", "id": 757120391164878848, "properties": {"loc": [-79.3800216, 43.7230195], "centroid": [-79.29879109457526, 43.77520684599106], "screen_name": "tpscalls", "time": 1469364542.0, "tid": 757120391164878848, "text": "Arrest | Blythwood Rd &amp; Hargrave Lane [53 Div.] 07/24 03:42 #Midtown_Toronto", "created_at": "Sun Jul 24 07:49:02 +0000 2016", "klabel": 115}}, {"geometry": {"type": "Point", "coordinates": [-79.37881844, 43.72709047]}, "type": "Feature", "id": 757177647675736064, "properties": {"loc": [-79.37881844, 43.72709047], "centroid": [-79.29879109457526, 43.77520684599106], "screen_name": "Berkus_", "time": 1469378193.0, "tid": 757177647675736064, "text": "Turned around for two seconds  to find a garbage  can for my coffee\u2026 https://t.co/rxfs6lFK4h", "created_at": "Sun Jul 24 11:36:33 +0000 2016", "klabel": 115}}, {"geometry": {"type": "Point", "coordinates": [-79.37937845, 43.7117038]}, "type": "Feature", "id": 757189845873721344, "properties": {"loc": [-79.37937845, 43.7117038], "centroid": [-79.29879109457526, 43.77520684599106], "screen_name": "allisnotwell", "time": 1469381101.0, "tid": 757189845873721344, "text": "Sausage party! ...and I can't believe that someone packed in a brick, heh. #algonquin\u2026 https://t.co/Ee5BrKdH0T", "created_at": "Sun Jul 24 12:25:01 +0000 2016", "klabel": 115}}, {"geometry": {"type": "Point", "coordinates": [-79.38259893, 43.71700657]}, "type": "Feature", "id": 757253346952671232, "properties": {"loc": [-79.38259893, 43.71700657], "centroid": [-79.29879109457526, 43.77520684599106], "screen_name": "e_c_martin", "time": 1469396241.0, "tid": 757253346952671232, "text": "New haircut gives Bailey a lot more air when jumping #haircut\u2026 https://t.co/WDJ5UH3PUW", "created_at": "Sun Jul 24 16:37:21 +0000 2016", "klabel": 115}}, {"geometry": {"type": "Point", "coordinates": [-79.37881844, 43.72709047]}, "type": "Feature", "id": 757305211853672452, "properties": {"loc": [-79.37881844, 43.72709047], "centroid": [-79.29879109457526, 43.77520684599106], "screen_name": "carmelasagula", "time": 1469408607.0, "tid": 757305211853672452, "text": "Editing away! Here is a sneak peak from Derek and Ashley's wedding. One of my faves.\u2026 https://t.co/43YgaTMfgf", "created_at": "Sun Jul 24 20:03:27 +0000 2016", "klabel": 115}}, {"geometry": {"type": "Point", "coordinates": [-79.387358, 43.723022]}, "type": "Feature", "id": 757323487891623936, "properties": {"loc": [-79.387358, 43.723022], "centroid": [-79.29879109457526, 43.77520684599106], "screen_name": "tofireN", "time": 1469412964.0, "tid": 757323487891623936, "text": "Fire Alarm (Check Call) - Dawlish Avenue b/w Fidelia Avenue / Mildenhall Road, North York (2 Trucks)", "created_at": "Sun Jul 24 21:16:04 +0000 2016", "klabel": 115}}, {"geometry": {"type": "Point", "coordinates": [-79.38198602, 43.73304294]}, "type": "Feature", "id": 757631520282738688, "properties": {"loc": [-79.38198602, 43.73304294], "centroid": [-79.29879109457526, 43.77520684599106], "screen_name": "sfortnum", "time": 1469486405.0, "tid": 757631520282738688, "text": "I'm at Granite Club in Toronto, Ontario https://t.co/TYOfqcQDSw", "created_at": "Mon Jul 25 17:40:05 +0000 2016", "klabel": 115}}, {"geometry": {"type": "Point", "coordinates": [-79.386201, 43.709206]}, "type": "Feature", "id": 757642839161470976, "properties": {"loc": [-79.386201, 43.709206], "centroid": [-79.29879109457526, 43.77520684599106], "screen_name": "tofire", "time": 1469489103.0, "tid": 757642839161470976, "text": "Alarm Highrise Residential - Eglinton Avenue b/w Forman Avenue / Petman Avenue, Toronto (6 Trucks)", "created_at": "Mon Jul 25 18:25:03 +0000 2016", "klabel": 115}}, {"geometry": {"type": "Point", "coordinates": [-79.386201, 43.709206]}, "type": "Feature", "id": 757642840176484353, "properties": {"loc": [-79.386201, 43.709206], "centroid": [-79.29879109457526, 43.77520684599106], "screen_name": "tofireN", "time": 1469489104.0, "tid": 757642840176484353, "text": "Alarm Highrise Residential - Eglinton Avenue b/w Forman Avenue / Petman Avenue, Toronto (6 Trucks)", "created_at": "Mon Jul 25 18:25:04 +0000 2016", "klabel": 115}}, {"geometry": {"type": "Point", "coordinates": [-79.37639977, 43.72162428]}, "type": "Feature", "id": 757651252587143168, "properties": {"loc": [-79.37639977, 43.72162428], "centroid": [-79.29879109457526, 43.77520684599106], "screen_name": "bodybybasch", "time": 1469491109.0, "tid": 757651252587143168, "text": "Keeping it cool \ud83c\udf79 \ud83d\ude29\ud83d\udc40 Kind of nervous \ud83d\ude4e\ud83c\udffb @ Sunnybrook Health Sciences Centre https://t.co/Sv838XPlwI", "created_at": "Mon Jul 25 18:58:29 +0000 2016", "klabel": 115}}, {"geometry": {"type": "Point", "coordinates": [-79.3767873, 43.7067038]}, "type": "Feature", "id": 757682104327168002, "properties": {"loc": [-79.3767873, 43.7067038], "centroid": [-79.29879109457526, 43.77520684599106], "screen_name": "tofire", "time": 1469498465.0, "tid": 757682104327168002, "text": "Wires Down (Hydro) - Gresham Road @ Manor Road East, Toronto (2 Trucks)", "created_at": "Mon Jul 25 21:01:05 +0000 2016", "klabel": 115}}, {"geometry": {"type": "Point", "coordinates": [-79.3767873, 43.7067038]}, "type": "Feature", "id": 757682105300180993, "properties": {"loc": [-79.3767873, 43.7067038], "centroid": [-79.29879109457526, 43.77520684599106], "screen_name": "tofireS", "time": 1469498465.0, "tid": 757682105300180993, "text": "Wires Down (Hydro) - Gresham Road @ Manor Road East, Toronto (2 Trucks)", "created_at": "Mon Jul 25 21:01:05 +0000 2016", "klabel": 115}}, {"geometry": {"type": "Point", "coordinates": [-79.365557, 43.718728]}, "type": "Feature", "id": 757682114418642945, "properties": {"loc": [-79.365557, 43.718728], "centroid": [-79.29879109457526, 43.77520684599106], "screen_name": "tofireS", "time": 1469498467.0, "tid": 757682114418642945, "text": "Fire (Hydro Vault) - Brentcliffe Road @ Glenvale Boulevard, North York (7 Trucks)", "created_at": "Mon Jul 25 21:01:07 +0000 2016", "klabel": 115}}, {"geometry": {"type": "Point", "coordinates": [-79.365557, 43.718728]}, "type": "Feature", "id": 757682115421102080, "properties": {"loc": [-79.365557, 43.718728], "centroid": [-79.29879109457526, 43.77520684599106], "screen_name": "tofiref", "time": 1469498468.0, "tid": 757682115421102080, "text": "Fire (Hydro Vault) - Brentcliffe Road @ Glenvale Boulevard, North York (7 Trucks)", "created_at": "Mon Jul 25 21:01:08 +0000 2016", "klabel": 115}}, {"geometry": {"type": "Point", "coordinates": [-79.3771938, 43.7110519]}, "type": "Feature", "id": 757814219135868928, "properties": {"loc": [-79.3771938, 43.7110519], "centroid": [-79.29879109457526, 43.77520684599106], "screen_name": "tpscalls", "time": 1469529964.0, "tid": 757814219135868928, "text": "Hazard | Bayview Ave &amp; Eglinton Ave E [53 Div.] 07/26 01:39 #Midtown_Toronto", "created_at": "Tue Jul 26 05:46:04 +0000 2016", "klabel": 115}}, {"geometry": {"type": "Point", "coordinates": [-79.37276649, 43.72224656]}, "type": "Feature", "id": 757932656185212928, "properties": {"loc": [-79.37276649, 43.72224656], "centroid": [-79.29879109457526, 43.77520684599106], "screen_name": "MerHep", "time": 1469558201.0, "tid": 757932656185212928, "text": "Frustrated- #TTC is doing its best but 3rd bus route not on sched-late  &amp;packed like sardines&amp; more being let on. Late for work.1/2", "created_at": "Tue Jul 26 13:36:41 +0000 2016", "klabel": 115}}, {"geometry": {"type": "Point", "coordinates": [-79.3729199, 43.71841]}, "type": "Feature", "id": 757954320553869312, "properties": {"loc": [-79.3729199, 43.71841], "centroid": [-79.29879109457526, 43.77520684599106], "screen_name": "Hanigsberg", "time": 1469563366.0, "tid": 757954320553869312, "text": "A selection of the excellent #hbstudent #research presentations at\u2026 https://t.co/Y7xPKiS7gr", "created_at": "Tue Jul 26 15:02:46 +0000 2016", "klabel": 115}}, {"geometry": {"type": "Point", "coordinates": [-79.37937845, 43.7117038]}, "type": "Feature", "id": 758144501659668484, "properties": {"loc": [-79.37937845, 43.7117038], "centroid": [-79.29879109457526, 43.77520684599106], "screen_name": "stevengoetz", "time": 1469608709.0, "tid": 758144501659668484, "text": "flowers\n2016-07-01 #Algonquin #ProvincialPark #Ontario #Canada #Canadian #exploring #enjoycanada\u2026 https://t.co/WjPnEnGGcR", "created_at": "Wed Jul 27 03:38:29 +0000 2016", "klabel": 115}}, {"geometry": {"type": "Point", "coordinates": [-79.37327583, 43.7245877]}, "type": "Feature", "id": 758186362940059648, "properties": {"loc": [-79.37327583, 43.7245877], "centroid": [-79.29879109457526, 43.77520684599106], "screen_name": "JTMJ22", "time": 1469618690.0, "tid": 758186362940059648, "text": "And this happened one month ago already. #beauties #beautiful #bride Haley and her #bridesmaids.\u2026 https://t.co/2Mz6SJyy3F", "created_at": "Wed Jul 27 06:24:50 +0000 2016", "klabel": 115}}, {"geometry": {"type": "Point", "coordinates": [-79.37937845, 43.7117038]}, "type": "Feature", "id": 758326289375821824, "properties": {"loc": [-79.37937845, 43.7117038], "centroid": [-79.29879109457526, 43.77520684599106], "screen_name": "stevengoetz", "time": 1469652051.0, "tid": 758326289375821824, "text": "cool ferns, bro\n2016-07-02 #Algonquin #ProvincialPark #Ontario #Canada #Canadian #exploring\u2026 https://t.co/rUrCyuWVoa", "created_at": "Wed Jul 27 15:40:51 +0000 2016", "klabel": 115}}, {"geometry": {"type": "Point", "coordinates": [-79.389295, 43.720582]}, "type": "Feature", "id": 758370131848364032, "properties": {"loc": [-79.389295, 43.720582], "centroid": [-79.29879109457526, 43.77520684599106], "screen_name": "tofireN", "time": 1469662503.0, "tid": 758370131848364032, "text": "UD: Alarm Residential - Strathgowan Crescent b/w Strathgowan Avenue / Glengowan Road, Toronto (6 Trucks)", "created_at": "Wed Jul 27 18:35:03 +0000 2016", "klabel": 115}}, {"geometry": {"type": "Point", "coordinates": [-79.37937845, 43.7117038]}, "type": "Feature", "id": 758401876975026178, "properties": {"loc": [-79.37937845, 43.7117038], "centroid": [-79.29879109457526, 43.77520684599106], "screen_name": "stevengoetz", "time": 1469670072.0, "tid": 758401876975026178, "text": "stratton lake\n2016-07-02 #Algonquin #ProvincialPark #Ontario #Canada #Canadian #exploring\u2026 https://t.co/8AEquZyzpj", "created_at": "Wed Jul 27 20:41:12 +0000 2016", "klabel": 115}}, {"geometry": {"type": "Point", "coordinates": [-79.37937845, 43.7117038]}, "type": "Feature", "id": 758417135441997824, "properties": {"loc": [-79.37937845, 43.7117038], "centroid": [-79.29879109457526, 43.77520684599106], "screen_name": "stevengoetz", "time": 1469673710.0, "tid": 758417135441997824, "text": "hi andrew!\n2016-07-02 #Algonquin #ProvincialPark #Ontario #Canada #Canadian #exploring\u2026 https://t.co/0uWZ1GBBmh", "created_at": "Wed Jul 27 21:41:50 +0000 2016", "klabel": 115}}, {"geometry": {"type": "Point", "coordinates": [-79.3785673, 43.7010137]}, "type": "Feature", "id": 758519869876891648, "properties": {"loc": [-79.3785673, 43.7010137], "centroid": [-79.29879109457526, 43.77520684599106], "screen_name": "tpscalls", "time": 1469698204.0, "tid": 758519869876891648, "text": "Person With A Knife | Forman Ave &amp; Martin Rd [53 Div.] 07/28 00:25 #Midtown_Toronto", "created_at": "Thu Jul 28 04:30:04 +0000 2016", "klabel": 115}}, {"geometry": {"type": "Point", "coordinates": [-79.37639977, 43.72162428]}, "type": "Feature", "id": 758746377971126272, "properties": {"loc": [-79.37639977, 43.72162428], "centroid": [-79.29879109457526, 43.77520684599106], "screen_name": "_La_RubiaGata", "time": 1469752207.0, "tid": 758746377971126272, "text": "LongingFor @ Sunnybrook Health Sciences Centre https://t.co/pd0CgCoyAF", "created_at": "Thu Jul 28 19:30:07 +0000 2016", "klabel": 115}}, {"geometry": {"type": "Point", "coordinates": [-79.37881844, 43.72709047]}, "type": "Feature", "id": 758852868036112385, "properties": {"loc": [-79.37881844, 43.72709047], "centroid": [-79.29879109457526, 43.77520684599106], "screen_name": "Rockstar_99_", "time": 1469777597.0, "tid": 758852868036112385, "text": "Cheat Codes - Sex\nCoreography: Julio Cesar Vidal. @ Glendon Campus, York University https://t.co/aRZc7YULsx", "created_at": "Fri Jul 29 02:33:17 +0000 2016", "klabel": 115}}, {"geometry": {"type": "Point", "coordinates": [-79.372143, 43.731954]}, "type": "Feature", "id": 759018398755848194, "properties": {"loc": [-79.372143, 43.731954], "centroid": [-79.29879109457526, 43.77520684599106], "screen_name": "tpscalls", "time": 1469817062.0, "tid": 759018398755848194, "text": "See Ambulance | Lawrence Ave E &amp; Par Ave [43 Div.] 07/29 09:25 #Bridle_Path #Toronto", "created_at": "Fri Jul 29 13:31:02 +0000 2016", "klabel": 115}}, {"geometry": {"type": "Point", "coordinates": [-79.38554435, 43.70967326]}, "type": "Feature", "id": 759175865699856384, "properties": {"loc": [-79.38554435, 43.70967326], "centroid": [-79.29879109457526, 43.77520684599106], "screen_name": "christielli", "time": 1469854605.0, "tid": 759175865699856384, "text": "Used #mybluejays points to get an Edwing Tshirt for my dad, but now want to keep for myself. https://t.co/sQPyi5Oq4d", "created_at": "Fri Jul 29 23:56:45 +0000 2016", "klabel": 115}}, {"geometry": {"type": "Point", "coordinates": [-79.3811874, 43.7312088]}, "type": "Feature", "id": 759181643093532674, "properties": {"loc": [-79.3811874, 43.7312088], "centroid": [-79.29879109457526, 43.77520684599106], "screen_name": "chrisheffler", "time": 1469855983.0, "tid": 759181643093532674, "text": "Tree down... @ Don Valley Trails https://t.co/ZEv4kXFXtz", "created_at": "Sat Jul 30 00:19:43 +0000 2016", "klabel": 115}}, {"geometry": {"type": "Point", "coordinates": [-79.3780304, 43.716761]}, "type": "Feature", "id": 759459818818117632, "properties": {"loc": [-79.3780304, 43.716761], "centroid": [-79.29879109457526, 43.77520684599106], "screen_name": "tofireN", "time": 1469922305.0, "tid": 759459818818117632, "text": "Vehicle (Personal Injury) - Bayview Avenue @ Kilgour Road, East York (2 Trucks)", "created_at": "Sat Jul 30 18:45:05 +0000 2016", "klabel": 115}}, {"geometry": {"type": "Point", "coordinates": [-79.3787279, 43.7082069]}, "type": "Feature", "id": 759480195791355904, "properties": {"loc": [-79.3787279, 43.7082069], "centroid": [-79.29879109457526, 43.77520684599106], "screen_name": "tofire", "time": 1469927163.0, "tid": 759480195791355904, "text": "Medical (Check Call) - Hoyle Avenue b/w Soudan Avenue / Eglinton Avenue East, Toronto (2 Trucks)", "created_at": "Sat Jul 30 20:06:03 +0000 2016", "klabel": 115}}, {"geometry": {"type": "Point", "coordinates": [-79.37354411, 43.72476574]}, "type": "Feature", "id": 759843684615467009, "properties": {"loc": [-79.37354411, 43.72476574], "centroid": [-79.29879109457526, 43.77520684599106], "screen_name": "jtjazzy1", "time": 1470013826.0, "tid": 759843684615467009, "text": "Sista love!!! My daughters bat mitzvah!!\n#celebration#dancing#fun @ Vaughn Estate Of Sunnybrook https://t.co/X1DNBst6q7", "created_at": "Sun Jul 31 20:10:26 +0000 2016", "klabel": 115}}, {"geometry": {"type": "Point", "coordinates": [-79.3793846, 43.7135315]}, "type": "Feature", "id": 759847113253646336, "properties": {"loc": [-79.3793846, 43.7135315], "centroid": [-79.29879109457526, 43.77520684599106], "screen_name": "tpscalls", "time": 1470014643.0, "tid": 759847113253646336, "text": "Theft | Roehampton Ave &amp; Broadway Ave [53 Div.] 07/31 16:18 #Toronto", "created_at": "Sun Jul 31 20:24:03 +0000 2016", "klabel": 115}}, {"geometry": {"type": "Point", "coordinates": [-79.37354411, 43.72476574]}, "type": "Feature", "id": 759849155699150849, "properties": {"loc": [-79.37354411, 43.72476574], "centroid": [-79.29879109457526, 43.77520684599106], "screen_name": "jtjazzy1", "time": 1470015130.0, "tid": 759849155699150849, "text": "The bat mitzvah girl!! #mazeltov#family#fun @ Vaughn Estate Of Sunnybrook https://t.co/9HgQoOUGvz", "created_at": "Sun Jul 31 20:32:10 +0000 2016", "klabel": 115}}, {"geometry": {"type": "Point", "coordinates": [-79.382808, 43.7319023]}, "type": "Feature", "id": 759849963824177152, "properties": {"loc": [-79.382808, 43.7319023], "centroid": [-79.29879109457526, 43.77520684599106], "screen_name": "tmj_gta_acct", "time": 1470015323.0, "tid": 759849963824177152, "text": "Interested in a #job near #Toronto, ON? This could be a great fit: https://t.co/ZSNsErme4o #Accounting #Hiring #CareerArc", "created_at": "Sun Jul 31 20:35:23 +0000 2016", "klabel": 115}}, {"geometry": {"type": "Point", "coordinates": [-79.37356616, 43.72475291]}, "type": "Feature", "id": 759877467670716416, "properties": {"loc": [-79.37356616, 43.72475291], "centroid": [-79.29879109457526, 43.77520684599106], "screen_name": "yyztwinkie", "time": 1470021880.0, "tid": 759877467670716416, "text": "It's almost time...    \n\n\u2022\n\u2022\n#MattAndSandrasWedding #\ud83d\udc70\ud83c\udffb #\ud83d\udc8f#\ud83c\udf7e#\ud83c\udf89 @\u2026 https://t.co/LxTeguctaI", "created_at": "Sun Jul 31 22:24:40 +0000 2016", "klabel": 115}}, {"geometry": {"type": "Point", "coordinates": [-79.3771938, 43.7110519]}, "type": "Feature", "id": 759897699143548928, "properties": {"loc": [-79.3771938, 43.7110519], "centroid": [-79.29879109457526, 43.77520684599106], "screen_name": "tpscalls", "time": 1470026704.0, "tid": 759897699143548928, "text": "Unknown Trouble | Eglinton Ave E &amp; Bayview Ave [53 Div.] 07/31 19:36 #Sherwood_Park #Toronto", "created_at": "Sun Jul 31 23:45:04 +0000 2016", "klabel": 115}}, {"geometry": {"type": "Point", "coordinates": [-79.37356616, 43.72475291]}, "type": "Feature", "id": 759906278793764868, "properties": {"loc": [-79.37356616, 43.72475291], "centroid": [-79.29879109457526, 43.77520684599106], "screen_name": "yyztwinkie", "time": 1470028749.0, "tid": 759906278793764868, "text": "We're missing the bride... \n\n#Caricatures #SandraAndMattsWedding\u2026 https://t.co/OoSU5fInlc", "created_at": "Mon Aug 01 00:19:09 +0000 2016", "klabel": 115}}, {"geometry": {"type": "Point", "coordinates": [-79.37356616, 43.72475291]}, "type": "Feature", "id": 759912350379978753, "properties": {"loc": [-79.37356616, 43.72475291], "centroid": [-79.29879109457526, 43.77520684599106], "screen_name": "yyztwinkie", "time": 1470030197.0, "tid": 759912350379978753, "text": "#Sisters #MattAndSandrasWedding #\ud83d\udc6f @ Estates of Sunnybrook https://t.co/T9j0H2BBvU", "created_at": "Mon Aug 01 00:43:17 +0000 2016", "klabel": 115}}, {"geometry": {"type": "Point", "coordinates": [-79.37356616, 43.72475291]}, "type": "Feature", "id": 759969098604351489, "properties": {"loc": [-79.37356616, 43.72475291], "centroid": [-79.29879109457526, 43.77520684599106], "screen_name": "yyztwinkie", "time": 1470043727.0, "tid": 759969098604351489, "text": "Mmmmm, passion fruit \n\n#MattAndSandrasWedding @ Estates of Sunnybrook https://t.co/e38TVWBQ3z", "created_at": "Mon Aug 01 04:28:47 +0000 2016", "klabel": 115}}, {"geometry": {"type": "Point", "coordinates": [-79.37937845, 43.7117038]}, "type": "Feature", "id": 760109767499087872, "properties": {"loc": [-79.37937845, 43.7117038], "centroid": [-79.29879109457526, 43.77520684599106], "screen_name": "locovideo", "time": 1470077265.0, "tid": 760109767499087872, "text": "#canoetrip #goodtimes #daycarepals #algonquinpark @ Algonquin\u2026 https://t.co/aYAV2CBlSq", "created_at": "Mon Aug 01 13:47:45 +0000 2016", "klabel": 115}}, {"geometry": {"type": "Point", "coordinates": [-79.3855392, 43.70966424]}, "type": "Feature", "id": 760168163019481088, "properties": {"loc": [-79.3855392, 43.70966424], "centroid": [-79.29879109457526, 43.77520684599106], "screen_name": "christielli", "time": 1470091187.0, "tid": 760168163019481088, "text": "My pal @MathewTsang is not funny. https://t.co/7KU2jor9oI", "created_at": "Mon Aug 01 17:39:47 +0000 2016", "klabel": 115}}, {"geometry": {"type": "Point", "coordinates": [-79.3756457, 43.717183]}, "type": "Feature", "id": 760169753327570945, "properties": {"loc": [-79.3756457, 43.717183], "centroid": [-79.29879109457526, 43.77520684599106], "screen_name": "tofireS", "time": 1470091567.0, "tid": 760169753327570945, "text": "Medical (Unconscious) - Burkebrook Pl @ Kilgour Road, North York (2 Trucks)", "created_at": "Mon Aug 01 17:46:07 +0000 2016", "klabel": 115}}, {"geometry": {"type": "Point", "coordinates": [-79.3800216, 43.7230195]}, "type": "Feature", "id": 760490601380970496, "properties": {"loc": [-79.3800216, 43.7230195], "centroid": [-79.29879109457526, 43.77520684599106], "screen_name": "tpscalls", "time": 1470168063.0, "tid": 760490601380970496, "text": "Theft Of Vehicle | Blythwood Rd &amp; Hargrave Lane [53 Div.] 08/02 10:56 #Midtown_Toronto", "created_at": "Tue Aug 02 15:01:03 +0000 2016", "klabel": 115}}, {"geometry": {"type": "Point", "coordinates": [-79.3781669, 43.7167302]}, "type": "Feature", "id": 760534645645668352, "properties": {"loc": [-79.3781669, 43.7167302], "centroid": [-79.29879109457526, 43.77520684599106], "screen_name": "tofireS", "time": 1470178564.0, "tid": 760534645645668352, "text": "Tems Transferred (Read Remarks) - Bayview Avenue b/w Kilgour Road / Burke Brook, North York (2 Trucks)", "created_at": "Tue Aug 02 17:56:04 +0000 2016", "klabel": 115}}, {"geometry": {"type": "Point", "coordinates": [-79.37937845, 43.7117038]}, "type": "Feature", "id": 760535018972282880, "properties": {"loc": [-79.37937845, 43.7117038], "centroid": [-79.29879109457526, 43.77520684599106], "screen_name": "TheJupiterSpin", "time": 1470178653.0, "tid": 760535018972282880, "text": "Snagged this yesterday on the paddle out of the deep bush. #algonquin @ Algonquin Provincial Park https://t.co/MRBOQVrn5d", "created_at": "Tue Aug 02 17:57:33 +0000 2016", "klabel": 115}}, {"geometry": {"type": "Point", "coordinates": [-79.3910159, 43.72023]}, "type": "Feature", "id": 760543450399928320, "properties": {"loc": [-79.3910159, 43.72023], "centroid": [-79.29879109457526, 43.77520684599106], "screen_name": "tofireN", "time": 1470180663.0, "tid": 760543450399928320, "text": "Alarm Residential - Garland Avenue b/w Strathgowan Avenue / Glengowan Road, Toronto (6 Trucks)", "created_at": "Tue Aug 02 18:31:03 +0000 2016", "klabel": 115}}, {"geometry": {"type": "Point", "coordinates": [-79.3910159, 43.72023]}, "type": "Feature", "id": 760544710444318720, "properties": {"loc": [-79.3910159, 43.72023], "centroid": [-79.29879109457526, 43.77520684599106], "screen_name": "tofire", "time": 1470180963.0, "tid": 760544710444318720, "text": "UD: Alarm Residential - Garland Avenue b/w Strathgowan Avenue / Glengowan Road, Toronto (7 Trucks)", "created_at": "Tue Aug 02 18:36:03 +0000 2016", "klabel": 115}}, {"geometry": {"type": "Point", "coordinates": [-79.37937845, 43.7117038]}, "type": "Feature", "id": 760659291284070400, "properties": {"loc": [-79.37937845, 43.7117038], "centroid": [-79.29879109457526, 43.77520684599106], "screen_name": "AKIEE_", "time": 1470208282.0, "tid": 760659291284070400, "text": "\u30dc\u30fc\u30c8\u6f15\u3044\u3067\u6e56\u3068\u68ee\u3057\u304b\u306a\u3044\u666f\u8272\u3092\u898b\u308b\u3002\u590f\u306e\u30ab\u30ca\u30c0\u6e80\u55ab\u3002\u6bce\u5e74\u3053\u3053\u306b\u6765\u305f\u3044\u3002#canoe #canadiancanoe #lakeview #torontolife @ Algonquin\u2026 https://t.co/ENkI28cuP9", "created_at": "Wed Aug 03 02:11:22 +0000 2016", "klabel": 115}}, {"geometry": {"type": "Point", "coordinates": [-79.37937845, 43.7117038]}, "type": "Feature", "id": 760852627328499712, "properties": {"loc": [-79.37937845, 43.7117038], "centroid": [-79.29879109457526, 43.77520684599106], "screen_name": "allisnotwell", "time": 1470254376.0, "tid": 760852627328499712, "text": "Keeping warm. #algonquin #algonquinpark #ontario #camping #portaging #campfire #camp #fire #warm\u2026 https://t.co/K4k2I2opsc", "created_at": "Wed Aug 03 14:59:36 +0000 2016", "klabel": 115}}, {"geometry": {"type": "Point", "coordinates": [-79.3734413, 43.7086916]}, "type": "Feature", "id": 760932262275874816, "properties": {"loc": [-79.3734413, 43.7086916], "centroid": [-79.29879109457526, 43.77520684599106], "screen_name": "tpscalls", "time": 1470273363.0, "tid": 760932262275874816, "text": "Assist Pc | Belsize Dr &amp; Fleming Cres [PK53] 08/03 16:09 #Toronto", "created_at": "Wed Aug 03 20:16:03 +0000 2016", "klabel": 115}}, {"geometry": {"type": "Point", "coordinates": [-79.3734413, 43.7086916]}, "type": "Feature", "id": 760933016961179648, "properties": {"loc": [-79.3734413, 43.7086916], "centroid": [-79.29879109457526, 43.77520684599106], "screen_name": "tpscalls", "time": 1470273543.0, "tid": 760933016961179648, "text": "Assist Pc | Belsize Dr &amp; Fleming Cres [53 Div.] 08/03 16:14 #Toronto", "created_at": "Wed Aug 03 20:19:03 +0000 2016", "klabel": 115}}, {"geometry": {"type": "Point", "coordinates": [-79.38552139, 43.70965409]}, "type": "Feature", "id": 761392984009170944, "properties": {"loc": [-79.38552139, 43.70965409], "centroid": [-79.29879109457526, 43.77520684599106], "screen_name": "christielli", "time": 1470383208.0, "tid": 761392984009170944, "text": "My current thoughts on the Astros: FINISH THEM!!! #BlueJays", "created_at": "Fri Aug 05 02:46:48 +0000 2016", "klabel": 115}}, {"geometry": {"type": "Point", "coordinates": [-79.37639977, 43.72162428]}, "type": "Feature", "id": 761671234056818689, "properties": {"loc": [-79.37639977, 43.72162428], "centroid": [-79.29879109457526, 43.77520684599106], "screen_name": "st33lma8nolia", "time": 1470449548.0, "tid": 761671234056818689, "text": "Me today bc I finish at 0130 Saturday morning. #nurseproblems\u2026 https://t.co/m3ua7jA9Y8", "created_at": "Fri Aug 05 21:12:28 +0000 2016", "klabel": 115}}, {"geometry": {"type": "Point", "coordinates": [-79.37558111, 43.7066575]}, "type": "Feature", "id": 761722288932790272, "properties": {"loc": [-79.37558111, 43.7066575], "centroid": [-79.29879109457526, 43.77520684599106], "screen_name": "arnie2nirvana", "time": 1470461720.0, "tid": 761722288932790272, "text": "#thaifoodatitsbest\ud83d\udc4d #bayview #goodfuntimes #datenight\u2764\ufe0f #awesomemussels @ Lemongrass Restaurant\u2026 https://t.co/oH4xxTrzhg", "created_at": "Sat Aug 06 00:35:20 +0000 2016", "klabel": 115}}, {"geometry": {"type": "Point", "coordinates": [-79.37585, 43.70677]}, "type": "Feature", "id": 761802615080366080, "properties": {"loc": [-79.37585, 43.70677], "centroid": [-79.29879109457526, 43.77520684599106], "screen_name": "theyoungatheart", "time": 1470480871.0, "tid": 761802615080366080, "text": "Yes please!!! \ud83c\udf66 #icecream #summernights #outfit @ Hollywood Gelato https://t.co/lU2XgEaFzl", "created_at": "Sat Aug 06 05:54:31 +0000 2016", "klabel": 115}}, {"geometry": {"type": "Point", "coordinates": [-79.3783575, 43.7044283]}, "type": "Feature", "id": 761922032330309632, "properties": {"loc": [-79.3783575, 43.7044283], "centroid": [-79.29879109457526, 43.77520684599106], "screen_name": "tpscalls", "time": 1470509342.0, "tid": 761922032330309632, "text": "Missing Person Located | Mount Pleasant Rd &amp; Cleveland St [53 Div.] 08/06 09:42 #Midtown_Toronto", "created_at": "Sat Aug 06 13:49:02 +0000 2016", "klabel": 115}}, {"geometry": {"type": "Point", "coordinates": [-79.3781, 43.7226]}, "type": "Feature", "id": 761973345965441024, "properties": {"loc": [-79.3781, 43.7226], "centroid": [-79.29879109457526, 43.77520684599106], "screen_name": "NewTecDeputy", "time": 1470521577.0, "tid": 761973345965441024, "text": "A nice day for a visit to TO on a family B-day! We're including some university scouting as well...UofT &amp; Ryerson https://t.co/l8SRbZOXSk", "created_at": "Sat Aug 06 17:12:57 +0000 2016", "klabel": 115}}, {"geometry": {"type": "Point", "coordinates": [-79.38125, 43.733]}, "type": "Feature", "id": 761975200074334210, "properties": {"loc": [-79.38125, 43.733], "centroid": [-79.29879109457526, 43.77520684599106], "screen_name": "loganhardy15", "time": 1470522019.0, "tid": 761975200074334210, "text": "Cool beans \nFollow my backup asap! @loganhardy15\u2026 https://t.co/831GfTeL7r", "created_at": "Sat Aug 06 17:20:19 +0000 2016", "klabel": 115}}, {"geometry": {"type": "Point", "coordinates": [-79.37488, 43.70504]}, "type": "Feature", "id": 762103807333531648, "properties": {"loc": [-79.37488, 43.70504], "centroid": [-79.29879109457526, 43.77520684599106], "screen_name": "artonbayview", "time": 1470552681.0, "tid": 762103807333531648, "text": "Stefan Galvanek stopped in with his latest #muskoka #landscape after the rain is a fresh\u2026 https://t.co/ScKJ3QFvys", "created_at": "Sun Aug 07 01:51:21 +0000 2016", "klabel": 115}}, {"geometry": {"type": "Point", "coordinates": [-79.3900099, 43.7256071]}, "type": "Feature", "id": 762134185431670784, "properties": {"loc": [-79.3900099, 43.7256071], "centroid": [-79.29879109457526, 43.77520684599106], "screen_name": "tpscalls", "time": 1470559924.0, "tid": 762134185431670784, "text": "Break &amp; Enter | Dundurn Rd &amp; St Ives Ave [53 Div.] 08/06 23:47 #Midtown_Toronto", "created_at": "Sun Aug 07 03:52:04 +0000 2016", "klabel": 115}}, {"geometry": {"type": "Point", "coordinates": [-79.382808, 43.7319023]}, "type": "Feature", "id": 762638361672552449, "properties": {"loc": [-79.382808, 43.7319023], "centroid": [-79.29879109457526, 43.77520684599106], "screen_name": "tmj_gta_acct", "time": 1470680129.0, "tid": 762638361672552449, "text": "Interested in a #job near #Toronto, ON? This could be a great fit: https://t.co/ZSNsErme4o #Accounting #Hiring #CareerArc", "created_at": "Mon Aug 08 13:15:29 +0000 2016", "klabel": 115}}, {"geometry": {"type": "Point", "coordinates": [-79.37881844, 43.72709047]}, "type": "Feature", "id": 762868536507150338, "properties": {"loc": [-79.37881844, 43.72709047], "centroid": [-79.29879109457526, 43.77520684599106], "screen_name": "ItsYiing", "time": 1470735007.0, "tid": 762868536507150338, "text": "Can't hide my excitement ! #JANGL @ Glendon Campus, York University https://t.co/nxaMDGkYOC", "created_at": "Tue Aug 09 04:30:07 +0000 2016", "klabel": 115}}, {"geometry": {"type": "Point", "coordinates": [-79.3746244, 43.7052461]}, "type": "Feature", "id": 763076543329345536, "properties": {"loc": [-79.3746244, 43.7052461], "centroid": [-79.29879109457526, 43.77520684599106], "screen_name": "tmj_gta_hrta", "time": 1470784599.0, "tid": 763076543329345536, "text": "Can you recommend anyone for this #job? https://t.co/HS5t0GKOQp #Hospitality 1545 BAYVIEW AVENUE, #TORONTO, ON #Veterans #Hiring #CareerArc", "created_at": "Tue Aug 09 18:16:39 +0000 2016", "klabel": 115}}, {"geometry": {"type": "Point", "coordinates": [-79.37572084, 43.7068385]}, "type": "Feature", "id": 763106104607924225, "properties": {"loc": [-79.37572084, 43.7068385], "centroid": [-79.29879109457526, 43.77520684599106], "screen_name": "dchanyyz", "time": 1470791647.0, "tid": 763106104607924225, "text": "#gelato @ Hollywood Gelato https://t.co/lxHGq5GXNW", "created_at": "Tue Aug 09 20:14:07 +0000 2016", "klabel": 115}}, {"geometry": {"type": "Point", "coordinates": [-79.3737381, 43.7020301]}, "type": "Feature", "id": 763125216696537088, "properties": {"loc": [-79.3737381, 43.7020301], "centroid": [-79.29879109457526, 43.77520684599106], "screen_name": "tofireS", "time": 1470796204.0, "tid": 763125216696537088, "text": "Vehicle (Personal Injury) - Bayview Avenue b/w Balliol St / Davisville Avenue, Toronto (2 Trucks)", "created_at": "Tue Aug 09 21:30:04 +0000 2016", "klabel": 115}}, {"geometry": {"type": "Point", "coordinates": [-79.3800216, 43.7230195]}, "type": "Feature", "id": 763475020354125825, "properties": {"loc": [-79.3800216, 43.7230195], "centroid": [-79.29879109457526, 43.77520684599106], "screen_name": "tpscalls", "time": 1470879604.0, "tid": 763475020354125825, "text": "Missing Vulnerable Person | Blythwood Rd &amp; Hargrave Lane [53 Div.] 08/10 16:34 #Midtown_Toronto", "created_at": "Wed Aug 10 20:40:04 +0000 2016", "klabel": 115}}, {"geometry": {"type": "Point", "coordinates": [-79.37488, 43.70504]}, "type": "Feature", "id": 763513320875974656, "properties": {"loc": [-79.37488, 43.70504], "centroid": [-79.29879109457526, 43.77520684599106], "screen_name": "artonbayview", "time": 1470888735.0, "tid": 763513320875974656, "text": "Barbara Southerland #artwork #artoftheday #Canadian #landscape #composition #pleinair\u2026 https://t.co/NTx7V2rdpL", "created_at": "Wed Aug 10 23:12:15 +0000 2016", "klabel": 115}}, {"geometry": {"type": "Point", "coordinates": [-79.3840713, 43.7043365]}, "type": "Feature", "id": 763537434768465920, "properties": {"loc": [-79.3840713, 43.7043365], "centroid": [-79.29879109457526, 43.77520684599106], "screen_name": "tpscalls", "time": 1470894484.0, "tid": 763537434768465920, "text": "Assault | Harwood Rd &amp; Forman Ave [53 Div.] 08/10 20:42 #Midtown_Toronto", "created_at": "Thu Aug 11 00:48:04 +0000 2016", "klabel": 115}}, {"geometry": {"type": "Point", "coordinates": [-79.3811874, 43.7312088]}, "type": "Feature", "id": 763647998798786561, "properties": {"loc": [-79.3811874, 43.7312088], "centroid": [-79.29879109457526, 43.77520684599106], "screen_name": "taiseerahmed", "time": 1470920845.0, "tid": 763647998798786561, "text": "Looking for pokemon... Yeah I play it @ Don Valley Trails https://t.co/2ncS22uZy2", "created_at": "Thu Aug 11 08:07:25 +0000 2016", "klabel": 115}}, {"geometry": {"type": "Point", "coordinates": [-79.3768256, 43.7215696]}, "type": "Feature", "id": 763755926381748224, "properties": {"loc": [-79.3768256, 43.7215696], "centroid": [-79.29879109457526, 43.77520684599106], "screen_name": "tmj_GTA_adm", "time": 1470946577.0, "tid": 763755926381748224, "text": "Can you recommend anyone for this #job? Network Security Administrator - https://t.co/XxyBLfNqEt #IT #Toronto, ON #Hiring #CareerArc", "created_at": "Thu Aug 11 15:16:17 +0000 2016", "klabel": 115}}, {"geometry": {"type": "Point", "coordinates": [-79.37572084, 43.7068385]}, "type": "Feature", "id": 763793193276014592, "properties": {"loc": [-79.37572084, 43.7068385], "centroid": [-79.29879109457526, 43.77520684599106], "screen_name": "HBKidsHospital", "time": 1470955462.0, "tid": 763793193276014592, "text": "Get a sweet treat to beat the heat. \ud83c\udf66\ud83c\udf67Today only, @hollywoodgelato is graciously donating 50% of\u2026 https://t.co/eoL5LmsvDU", "created_at": "Thu Aug 11 17:44:22 +0000 2016", "klabel": 115}}, {"geometry": {"type": "Point", "coordinates": [-79.37937845, 43.7117038]}, "type": "Feature", "id": 763824717526695937, "properties": {"loc": [-79.37937845, 43.7117038], "centroid": [-79.29879109457526, 43.77520684599106], "screen_name": "TheJupiterSpin", "time": 1470962978.0, "tid": 763824717526695937, "text": "The mystery of the wilderness in the morning. #algonquin @ Algonquin Provincial Park https://t.co/Eon1Vc9siZ", "created_at": "Thu Aug 11 19:49:38 +0000 2016", "klabel": 115}}, {"geometry": {"type": "Point", "coordinates": [-79.37450862, 43.71036926]}, "type": "Feature", "id": 763889473885208576, "properties": {"loc": [-79.37450862, 43.71036926], "centroid": [-79.29879109457526, 43.77520684599106], "screen_name": "sabrina_nasner", "time": 1470978417.0, "tid": 763889473885208576, "text": "\ud83c\udf0a @ Albion Falls https://t.co/RyqbLMsavV", "created_at": "Fri Aug 12 00:06:57 +0000 2016", "klabel": 115}}, {"geometry": {"type": "Point", "coordinates": [-79.37901363, 43.73261273]}, "type": "Feature", "id": 763892145811894272, "properties": {"loc": [-79.37901363, 43.73261273], "centroid": [-79.29879109457526, 43.77520684599106], "screen_name": "earltheduke", "time": 1470979054.0, "tid": 763892145811894272, "text": "got to play wet n' wild for my birthday. #iammuskokawoods #CITYCAMP @ Crescent School https://t.co/2bkSIkrVhj", "created_at": "Fri Aug 12 00:17:34 +0000 2016", "klabel": 115}}, {"geometry": {"type": "Point", "coordinates": [-79.37882, 43.71157]}, "type": "Feature", "id": 763897959406772224, "properties": {"loc": [-79.37882, 43.71157], "centroid": [-79.29879109457526, 43.77520684599106], "screen_name": "thyisyours", "time": 1470980440.0, "tid": 763897959406772224, "text": "Happy Birthday, @edzergo10 ! @ TOSTO QUICKFIRE PIZZA PASTA https://t.co/bD3m0eeuLb", "created_at": "Fri Aug 12 00:40:40 +0000 2016", "klabel": 115}}, {"geometry": {"type": "Point", "coordinates": [-79.37488, 43.70504]}, "type": "Feature", "id": 763919499431075842, "properties": {"loc": [-79.37488, 43.70504], "centroid": [-79.29879109457526, 43.77520684599106], "screen_name": "artonbayview", "time": 1470985576.0, "tid": 763919499431075842, "text": "Todd Tremeer #killarney #georgianbay #oilpainting #pleinairpainting #artoftheday #canadian\u2026 https://t.co/H9K4dXhgdh", "created_at": "Fri Aug 12 02:06:16 +0000 2016", "klabel": 115}}, {"geometry": {"type": "Point", "coordinates": [-79.37639977, 43.72162428]}, "type": "Feature", "id": 764231303961206784, "properties": {"loc": [-79.37639977, 43.72162428], "centroid": [-79.29879109457526, 43.77520684599106], "screen_name": "KellyMaslen", "time": 1471059916.0, "tid": 764231303961206784, "text": "Lending a hand #gripofsteel #support #torontodoula #birthwithoutfear #doulalife\ud83c\udf38 @ Sunnybrook\u2026 https://t.co/nmGjthqx3u", "created_at": "Fri Aug 12 22:45:16 +0000 2016", "klabel": 115}}, {"geometry": {"type": "Point", "coordinates": [-79.38535246, 43.70962573]}, "type": "Feature", "id": 764515790955634688, "properties": {"loc": [-79.38535246, 43.70962573], "centroid": [-79.29879109457526, 43.77520684599106], "screen_name": "christielli", "time": 1471127743.0, "tid": 764515790955634688, "text": "Breaking out my @RAYGUNshirts koozie!! (cc: @aliemalie @quietgalapogos) https://t.co/zABRcuSkts", "created_at": "Sat Aug 13 17:35:43 +0000 2016", "klabel": 115}}, {"geometry": {"type": "Point", "coordinates": [-79.385309, 43.706884]}, "type": "Feature", "id": 764522194483412992, "properties": {"loc": [-79.385309, 43.706884], "centroid": [-79.29879109457526, 43.77520684599106], "screen_name": "tofire", "time": 1471129269.0, "tid": 764522194483412992, "text": "Wires Down (Hydro) - Soudan Avenue b/w Forman Avenue / Petman Avenue, Toronto (2 Trucks)", "created_at": "Sat Aug 13 18:01:09 +0000 2016", "klabel": 115}}, {"geometry": {"type": "Point", "coordinates": [-79.3769104, 43.7037709]}, "type": "Feature", "id": 764522188447870976, "properties": {"loc": [-79.3769104, 43.7037709], "centroid": [-79.29879109457526, 43.77520684599106], "screen_name": "tofire", "time": 1471129268.0, "tid": 764522188447870976, "text": "Check Call - Millwood Road b/w Le May Road / Whitewood Road, Toronto (2 Trucks)", "created_at": "Sat Aug 13 18:01:08 +0000 2016", "klabel": 115}}, {"geometry": {"type": "Point", "coordinates": [-79.37356616, 43.72475291]}, "type": "Feature", "id": 764691715123019776, "properties": {"loc": [-79.37356616, 43.72475291], "centroid": [-79.29879109457526, 43.77520684599106], "screen_name": "PeppermintWeds", "time": 1471169686.0, "tid": 764691715123019776, "text": "You'll be my glass of wine and I'll be your shot of whiskey. // \ud83d\udcf7: @wee3sparrows // Style collab\u2026 https://t.co/wWNi3MXDG5", "created_at": "Sun Aug 14 05:14:46 +0000 2016", "klabel": 115}}, {"geometry": {"type": "Point", "coordinates": [-79.3746244, 43.7052461]}, "type": "Feature", "id": 764868392469745664, "properties": {"loc": [-79.3746244, 43.7052461], "centroid": [-79.29879109457526, 43.77520684599106], "screen_name": "tmj_gta_hrta", "time": 1471211809.0, "tid": 764868392469745664, "text": "If you're looking for work in 1545 BAYVIEW AVENUE, #TORONTO, ON, check out this #job: https://t.co/D5cUgfkW9R #Hospitality #Veterans", "created_at": "Sun Aug 14 16:56:49 +0000 2016", "klabel": 115}}, {"geometry": {"type": "Point", "coordinates": [-79.37937845, 43.7117038]}, "type": "Feature", "id": 764901041804447744, "properties": {"loc": [-79.37937845, 43.7117038], "centroid": [-79.29879109457526, 43.77520684599106], "screen_name": "_Jeassah", "time": 1471219594.0, "tid": 764901041804447744, "text": "\ud83d\udc4d\ud83c\udffc\ud83d\udc4d\ud83c\udffc\ud83d\udc4d\ud83c\udffc @ Algonquin Provincial Park https://t.co/H2Ae10ED4Q", "created_at": "Sun Aug 14 19:06:34 +0000 2016", "klabel": 115}}, {"geometry": {"type": "Point", "coordinates": [-79.3771938, 43.7110519]}, "type": "Feature", "id": 764910983244607488, "properties": {"loc": [-79.3771938, 43.7110519], "centroid": [-79.29879109457526, 43.77520684599106], "screen_name": "tofireS", "time": 1471221964.0, "tid": 764910983244607488, "text": "Medical (Personal Injury) - Bayview Avenue b/w Eglinton Avenue East / Roehampton Avenue, Toronto (2 Trucks)", "created_at": "Sun Aug 14 19:46:04 +0000 2016", "klabel": 115}}, {"geometry": {"type": "Point", "coordinates": [-79.3772215, 43.7110548]}, "type": "Feature", "id": 764914922811748352, "properties": {"loc": [-79.3772215, 43.7110548], "centroid": [-79.29879109457526, 43.77520684599106], "screen_name": "TOBikeGeezer", "time": 1471222903.0, "tid": 764914922811748352, "text": "@jon_burnside Assault at corner of Bayview and Eglinton Call me for details", "created_at": "Sun Aug 14 20:01:43 +0000 2016", "klabel": 115}}, {"geometry": {"type": "Point", "coordinates": [-79.3773415, 43.7112552]}, "type": "Feature", "id": 764915078193942532, "properties": {"loc": [-79.3773415, 43.7112552], "centroid": [-79.29879109457526, 43.77520684599106], "screen_name": "TOBikeGeezer", "time": 1471222940.0, "tid": 764915078193942532, "text": "@jon_burnside by the wat its Don W", "created_at": "Sun Aug 14 20:02:20 +0000 2016", "klabel": 115}}, {"geometry": {"type": "Point", "coordinates": [-79.38556386, 43.70961537]}, "type": "Feature", "id": 764978506237345792, "properties": {"loc": [-79.38556386, 43.70961537], "centroid": [-79.29879109457526, 43.77520684599106], "screen_name": "christielli", "time": 1471238063.0, "tid": 764978506237345792, "text": "Awww the camaraderie between DeGrasse and Bolt melted my cold heart.", "created_at": "Mon Aug 15 00:14:23 +0000 2016", "klabel": 115}}, {"geometry": {"type": "Point", "coordinates": [-79.38545701, 43.70956657]}, "type": "Feature", "id": 764997787582955520, "properties": {"loc": [-79.38545701, 43.70956657], "centroid": [-79.29879109457526, 43.77520684599106], "screen_name": "christielli", "time": 1471242660.0, "tid": 764997787582955520, "text": "DEGRASSE!!! #CAN", "created_at": "Mon Aug 15 01:31:00 +0000 2016", "klabel": 115}}, {"geometry": {"type": "Point", "coordinates": [-79.37601397, 43.72084138]}, "type": "Feature", "id": 765027449398759424, "properties": {"loc": [-79.37601397, 43.72084138], "centroid": [-79.29879109457526, 43.77520684599106], "screen_name": "st33lma8nolia", "time": 1471249732.0, "tid": 765027449398759424, "text": "Fuelling for one more #goodvibesonly #nursepower #nightshift\u2026 https://t.co/NsTJp79sMr", "created_at": "Mon Aug 15 03:28:52 +0000 2016", "klabel": 115}}, {"geometry": {"type": "Point", "coordinates": [-79.37937845, 43.7117038]}, "type": "Feature", "id": 765263386183688193, "properties": {"loc": [-79.37937845, 43.7117038], "centroid": [-79.29879109457526, 43.77520684599106], "screen_name": "TheJupiterSpin", "time": 1471305983.0, "tid": 765263386183688193, "text": "The trick is to get the electrical current just right to maintain the force fields structural\u2026 https://t.co/YItuoODkDL", "created_at": "Mon Aug 15 19:06:23 +0000 2016", "klabel": 115}}, {"geometry": {"type": "Point", "coordinates": [-79.3775855, 43.7012035]}, "type": "Feature", "id": 765298280091754497, "properties": {"loc": [-79.3775855, 43.7012035], "centroid": [-79.29879109457526, 43.77520684599106], "screen_name": "tpscalls", "time": 1471314303.0, "tid": 765298280091754497, "text": "Personal Injury Collision | Balliol St &amp; Cleveland St [53 Div.] 08/15 17:18 #Midtown_Toronto", "created_at": "Mon Aug 15 21:25:03 +0000 2016", "klabel": 115}}, {"geometry": {"type": "Point", "coordinates": [-79.382604, 43.7400592]}, "type": "Feature", "id": 765308350158479360, "properties": {"loc": [-79.382604, 43.7400592], "centroid": [-79.29879109457526, 43.77520684599106], "screen_name": "tofire", "time": 1471316704.0, "tid": 765308350158479360, "text": "Medical (Other) - Arjay Crescent b/w Bayview Avenue / Bayview Avenue, North York (2 Trucks)", "created_at": "Mon Aug 15 22:05:04 +0000 2016", "klabel": 115}}, {"geometry": {"type": "Point", "coordinates": [-79.382604, 43.7400592]}, "type": "Feature", "id": 765308351546810368, "properties": {"loc": [-79.382604, 43.7400592], "centroid": [-79.29879109457526, 43.77520684599106], "screen_name": "tofireN", "time": 1471316704.0, "tid": 765308351546810368, "text": "Medical (Other) - Arjay Crescent b/w Bayview Avenue / Bayview Avenue, North York (2 Trucks)", "created_at": "Mon Aug 15 22:05:04 +0000 2016", "klabel": 115}}, {"geometry": {"type": "Point", "coordinates": [-79.3811874, 43.7312088]}, "type": "Feature", "id": 765335162150354944, "properties": {"loc": [-79.3811874, 43.7312088], "centroid": [-79.29879109457526, 43.77520684599106], "screen_name": "OliverZeitoun", "time": 1471323096.0, "tid": 765335162150354944, "text": "Yesterday, shoes4u and I cycled more than 50 KM and spent around 5 hours cruising #toronto #east\u2026 https://t.co/bRDUcq6RrH", "created_at": "Mon Aug 15 23:51:36 +0000 2016", "klabel": 115}}, {"geometry": {"type": "Point", "coordinates": [-79.37545052, 43.70643845]}, "type": "Feature", "id": 765694468762796033, "properties": {"loc": [-79.37545052, 43.70643845], "centroid": [-79.29879109457526, 43.77520684599106], "screen_name": "Kerrir79", "time": 1471408761.0, "tid": 765694468762796033, "text": "Finally getting my Mexican fix. Thanks for joining me @morganlsmusic\u2026 https://t.co/sOcbUtkTlX", "created_at": "Tue Aug 16 23:39:21 +0000 2016", "klabel": 115}}, {"geometry": {"type": "Point", "coordinates": [-79.37499, 43.70463]}, "type": "Feature", "id": 765702350661099520, "properties": {"loc": [-79.37499, 43.70463], "centroid": [-79.29879109457526, 43.77520684599106], "screen_name": "artonbayview", "time": 1471410641.0, "tid": 765702350661099520, "text": "Canada's wilderness is vast and ever changing in its beauty Yvon Breton expresses his love for\u2026 https://t.co/CioPz6RvyT", "created_at": "Wed Aug 17 00:10:41 +0000 2016", "klabel": 115}}, {"geometry": {"type": "Point", "coordinates": [-79.3745861, 43.7042562]}, "type": "Feature", "id": 765885646258966528, "properties": {"loc": [-79.3745861, 43.7042562], "centroid": [-79.29879109457526, 43.77520684599106], "screen_name": "tpscalls", "time": 1471454342.0, "tid": 765885646258966528, "text": "Break &amp; Enter | Rutherglen Rd &amp; Millwood Rd [53 Div.] 08/17 08:14 #Toronto", "created_at": "Wed Aug 17 12:19:02 +0000 2016", "klabel": 115}}, {"geometry": {"type": "Point", "coordinates": [-79.3759, 43.7076]}, "type": "Feature", "id": 765954585068466177, "properties": {"loc": [-79.3759, 43.7076], "centroid": [-79.29879109457526, 43.77520684599106], "screen_name": "AlexandraBrStL", "time": 1471470778.0, "tid": 765954585068466177, "text": "Tr\u00e8s heureuse de me joindre \u00e0 mon coll\u00e8gue @Rob_Oliphant aujourd'hui pour consultation sur #PostesCanada. https://t.co/R3G5mSS9ES", "created_at": "Wed Aug 17 16:52:58 +0000 2016", "klabel": 115}}, {"geometry": {"type": "Point", "coordinates": [-79.37937845, 43.7117038]}, "type": "Feature", "id": 766051487378247681, "properties": {"loc": [-79.37937845, 43.7117038], "centroid": [-79.29879109457526, 43.77520684599106], "screen_name": "LoonieGuy", "time": 1471493881.0, "tid": 766051487378247681, "text": "South Tea Lake, Algonquin Park, Ontario, Canada #prisma #prisma_vibe #algonquinpark\u2026 https://t.co/Jm79jf1MP8", "created_at": "Wed Aug 17 23:18:01 +0000 2016", "klabel": 115}}, {"geometry": {"type": "Point", "coordinates": [-79.37937845, 43.7117038]}, "type": "Feature", "id": 766102264666783744, "properties": {"loc": [-79.37937845, 43.7117038], "centroid": [-79.29879109457526, 43.77520684599106], "screen_name": "J_hodgins54", "time": 1471505988.0, "tid": 766102264666783744, "text": "\ud83d\udd25 @ Algonquin Provincial Park https://t.co/LhDn21MEbQ", "created_at": "Thu Aug 18 02:39:48 +0000 2016", "klabel": 115}}, {"geometry": {"type": "Point", "coordinates": [-79.37639977, 43.72162428]}, "type": "Feature", "id": 766289140895789056, "properties": {"loc": [-79.37639977, 43.72162428], "centroid": [-79.29879109457526, 43.77520684599106], "screen_name": "JoannaFaltyn", "time": 1471550542.0, "tid": 766289140895789056, "text": "hi mom hi dad @ Sunnybrook Health Sciences Centre https://t.co/ec6T6uldoN", "created_at": "Thu Aug 18 15:02:22 +0000 2016", "klabel": 115}}, {"geometry": {"type": "Point", "coordinates": [-79.38216, 43.72792]}, "type": "Feature", "id": 766307813132034048, "properties": {"loc": [-79.38216, 43.72792], "centroid": [-79.29879109457526, 43.77520684599106], "screen_name": "simplicitee_xo", "time": 1471554994.0, "tid": 766307813132034048, "text": "#tbt to The Hope for Hearts Gala this summer when I got to wear this stunning dress by @diyheart\u2026 https://t.co/ozgKdoQfwL", "created_at": "Thu Aug 18 16:16:34 +0000 2016", "klabel": 115}}, {"geometry": {"type": "Point", "coordinates": [-79.377643, 43.704707]}, "type": "Feature", "id": 766320396517990400, "properties": {"loc": [-79.377643, 43.704707], "centroid": [-79.29879109457526, 43.77520684599106], "screen_name": "kevin_colley", "time": 1471557994.0, "tid": 766320396517990400, "text": "\u26ab\ufe0f &amp; \u26aa\ufe0f @ Maurice Cody Jr PS https://t.co/yU1J7JqfJh", "created_at": "Thu Aug 18 17:06:34 +0000 2016", "klabel": 115}}, {"geometry": {"type": "Point", "coordinates": [-79.375446, 43.716632]}, "type": "Feature", "id": 766361790817140740, "properties": {"loc": [-79.375446, 43.716632], "centroid": [-79.29879109457526, 43.77520684599106], "screen_name": "tofireS", "time": 1471567863.0, "tid": 766361790817140740, "text": "Medical (Trouble Breathing) - Glenvale Boulevard b/w Roxville Avenue / Hanna Road, East York (2 Trucks)", "created_at": "Thu Aug 18 19:51:03 +0000 2016", "klabel": 115}}, {"geometry": {"type": "Point", "coordinates": [-79.3737381, 43.7020301]}, "type": "Feature", "id": 766366574076919808, "properties": {"loc": [-79.3737381, 43.7020301], "centroid": [-79.29879109457526, 43.77520684599106], "screen_name": "tofire", "time": 1471569004.0, "tid": 766366574076919808, "text": "Medical (Unconscious) - Bayview Avenue b/w Balliol St / Davisville Avenue, East York (2 Trucks)", "created_at": "Thu Aug 18 20:10:04 +0000 2016", "klabel": 115}}, {"geometry": {"type": "Point", "coordinates": [-79.37608602, 43.70803162]}, "type": "Feature", "id": 766390325590056960, "properties": {"loc": [-79.37608602, 43.70803162], "centroid": [-79.29879109457526, 43.77520684599106], "screen_name": "oliphant714", "time": 1471574667.0, "tid": 766390325590056960, "text": "Spur of the moment. Been wanting to try it. (@ Indian Street Food Co. in Toronto) https://t.co/rlirDkBaTh https://t.co/zdFn4ArM82", "created_at": "Thu Aug 18 21:44:27 +0000 2016", "klabel": 115}}, {"geometry": {"type": "Point", "coordinates": [-79.3729544, 43.7185413]}, "type": "Feature", "id": 766411093530914816, "properties": {"loc": [-79.3729544, 43.7185413], "centroid": [-79.29879109457526, 43.77520684599106], "screen_name": "AccountempsJobs", "time": 1471579618.0, "tid": 766411093530914816, "text": "This #job might be a great fit for you: Payroll Administrator - https://t.co/Ohy3IvXBOv #Accountemps #Accounting #Toronto, ON #Hiring", "created_at": "Thu Aug 18 23:06:58 +0000 2016", "klabel": 115}}, {"geometry": {"type": "Point", "coordinates": [-79.37488, 43.70504]}, "type": "Feature", "id": 766438781901803526, "properties": {"loc": [-79.37488, 43.70504], "centroid": [-79.29879109457526, 43.77520684599106], "screen_name": "artonbayview", "time": 1471586220.0, "tid": 766438781901803526, "text": "Watching the #decathlon reminds me that to achieve  greatness takes years of practice as is\u2026 https://t.co/OgOIF3FP34", "created_at": "Fri Aug 19 00:57:00 +0000 2016", "klabel": 115}}, {"geometry": {"type": "Point", "coordinates": [-79.3839349, 43.711696]}, "type": "Feature", "id": 766774006863261697, "properties": {"loc": [-79.3839349, 43.711696], "centroid": [-79.29879109457526, 43.77520684599106], "screen_name": "tpscalls", "time": 1471666143.0, "tid": 766774006863261697, "text": "Found Child | Rawlinson Ave &amp; Cardiff Rd [53 Div.] 08/19 19:04 #Midtown_Toronto", "created_at": "Fri Aug 19 23:09:03 +0000 2016", "klabel": 115}}, {"geometry": {"type": "Point", "coordinates": [-79.3802464, 43.725564]}, "type": "Feature", "id": 766799680273514496, "properties": {"loc": [-79.3802464, 43.725564], "centroid": [-79.29879109457526, 43.77520684599106], "screen_name": "tofireN", "time": 1471672264.0, "tid": 766799680273514496, "text": "Fire (Institution) - Bayview Avenue b/w St Leonard's Avenue / Lawrence Avenue East, North York (2 Trucks)", "created_at": "Sat Aug 20 00:51:04 +0000 2016", "klabel": 115}}, {"geometry": {"type": "Point", "coordinates": [-79.3900099, 43.7256071]}, "type": "Feature", "id": 766861079104356352, "properties": {"loc": [-79.3900099, 43.7256071], "centroid": [-79.29879109457526, 43.77520684599106], "screen_name": "tpscalls", "time": 1471686903.0, "tid": 766861079104356352, "text": "Prowler On Location | Dundurn Rd &amp; St Ives Ave [53 Div.] 08/20 00:50 #Midtown_Toronto", "created_at": "Sat Aug 20 04:55:03 +0000 2016", "klabel": 115}}, {"geometry": {"type": "Point", "coordinates": [-79.37596, 43.70864]}, "type": "Feature", "id": 766954850970107904, "properties": {"loc": [-79.37596, 43.70864], "centroid": [-79.29879109457526, 43.77520684599106], "screen_name": "LadanKatouzian", "time": 1471709260.0, "tid": 766954850970107904, "text": "This Is YOUR Life...Design It How You LOVE it! Happy Manifesting\u2026 https://t.co/hWYNwXfbRo", "created_at": "Sat Aug 20 11:07:40 +0000 2016", "klabel": 115}}, {"geometry": {"type": "Point", "coordinates": [-79.37572616, 43.70686138]}, "type": "Feature", "id": 767112816851431424, "properties": {"loc": [-79.37572616, 43.70686138], "centroid": [-79.29879109457526, 43.77520684599106], "screen_name": "brandonzoras", "time": 1471746922.0, "tid": 767112816851431424, "text": "2 words - roasted marshmallow - @hollywoodgelato #gelato #roastedmarshmallows @ Hollywood Gelato https://t.co/8qnpAUetwR", "created_at": "Sat Aug 20 21:35:22 +0000 2016", "klabel": 115}}, {"geometry": {"type": "Point", "coordinates": [-79.37348499, 43.72465115]}, "type": "Feature", "id": 767143728955858944, "properties": {"loc": [-79.37348499, 43.72465115], "centroid": [-79.29879109457526, 43.77520684599106], "screen_name": "mjbouey", "time": 1471754292.0, "tid": 767143728955858944, "text": "\ud83d\udc91 bridgetandkyle2016 @ Estates of Sunnybrook https://t.co/1Cbce6XqpT", "created_at": "Sat Aug 20 23:38:12 +0000 2016", "klabel": 115}}, {"geometry": {"type": "Point", "coordinates": [-79.371584, 43.717445]}, "type": "Feature", "id": 767163067138510848, "properties": {"loc": [-79.371584, 43.717445], "centroid": [-79.29879109457526, 43.77520684599106], "screen_name": "tpscalls", "time": 1471758903.0, "tid": 767163067138510848, "text": "See Ambulance | Broadway Ave &amp; Glenvale Blvd [53 Div.] 08/20 20:50 #Leaside #Toronto", "created_at": "Sun Aug 21 00:55:03 +0000 2016", "klabel": 115}}, {"geometry": {"type": "Point", "coordinates": [-79.383562, 43.709742]}, "type": "Feature", "id": 767242336157986816, "properties": {"loc": [-79.383562, 43.709742], "centroid": [-79.29879109457526, 43.77520684599106], "screen_name": "tpscalls", "time": 1471777802.0, "tid": 767242336157986816, "text": "Noisy Party | Petman Ave &amp; Marmot St [53 Div.] 08/21 02:04 #North_Toronto", "created_at": "Sun Aug 21 06:10:02 +0000 2016", "klabel": 115}}, {"geometry": {"type": "Point", "coordinates": [-79.37572616, 43.70686138]}, "type": "Feature", "id": 767418451635961856, "properties": {"loc": [-79.37572616, 43.70686138], "centroid": [-79.29879109457526, 43.77520684599106], "screen_name": "JamesDurling", "time": 1471819791.0, "tid": 767418451635961856, "text": "Perfect day for ice cream! @ Hollywood Gelato https://t.co/a9adTbhPRa", "created_at": "Sun Aug 21 17:49:51 +0000 2016", "klabel": 115}}, {"geometry": {"type": "Point", "coordinates": [-79.3746244, 43.7052461]}, "type": "Feature", "id": 767465155080908800, "properties": {"loc": [-79.3746244, 43.7052461], "centroid": [-79.29879109457526, 43.77520684599106], "screen_name": "tmj_gta_hrta", "time": 1471830926.0, "tid": 767465155080908800, "text": "Can you recommend anyone for this #job? https://t.co/HS5t0H2qeZ #Hospitality 1545 BAYVIEW AVENUE, #TORONTO, ON #Veterans #Hiring #CareerArc", "created_at": "Sun Aug 21 20:55:26 +0000 2016", "klabel": 115}}, {"geometry": {"type": "Point", "coordinates": [-79.3768256, 43.7215696]}, "type": "Feature", "id": 767691318751432704, "properties": {"loc": [-79.3768256, 43.7215696], "centroid": [-79.29879109457526, 43.77520684599106], "screen_name": "tmj_GTA_adm", "time": 1471884848.0, "tid": 767691318751432704, "text": "Interested in a #job near #Toronto, ON? This could be a great fit: https://t.co/XxyBLfNqEt #IT #Hiring #CareerArc", "created_at": "Mon Aug 22 11:54:08 +0000 2016", "klabel": 115}}, {"geometry": {"type": "Point", "coordinates": [-79.3900099, 43.7256071]}, "type": "Feature", "id": 768142272739348480, "properties": {"loc": [-79.3900099, 43.7256071], "centroid": [-79.29879109457526, 43.77520684599106], "screen_name": "tpscalls", "time": 1471992363.0, "tid": 768142272739348480, "text": "Break &amp; Enter | Dinnick Cres &amp; St Ives Ave [53 Div.] 08/23 13:41 #Midtown_Toronto", "created_at": "Tue Aug 23 17:46:03 +0000 2016", "klabel": 115}}, {"geometry": {"type": "Point", "coordinates": [-79.373533, 43.7183877]}, "type": "Feature", "id": 768181079412965376, "properties": {"loc": [-79.373533, 43.7183877], "centroid": [-79.29879109457526, 43.77520684599106], "screen_name": "DoodlePeter", "time": 1472001616.0, "tid": 768181079412965376, "text": "@drwave On the bright side, there\u2019ll likely be a lot more photorealistic paintings of road tunnels on local sheer rock walks.", "created_at": "Tue Aug 23 20:20:16 +0000 2016", "klabel": 115}}, {"geometry": {"type": "Point", "coordinates": [-79.3794549, 43.7070766]}, "type": "Feature", "id": 768181284392820737, "properties": {"loc": [-79.3794549, 43.7070766], "centroid": [-79.29879109457526, 43.77520684599106], "screen_name": "tofireS", "time": 1472001664.0, "tid": 768181284392820737, "text": "Wires Down (Hydro) - Cleveland St b/w Hillsdale Avenue East / Soudan Avenue, Toronto (2 Trucks)", "created_at": "Tue Aug 23 20:21:04 +0000 2016", "klabel": 115}}, {"geometry": {"type": "Point", "coordinates": [-79.37488, 43.70504]}, "type": "Feature", "id": 768260418871685120, "properties": {"loc": [-79.37488, 43.70504], "centroid": [-79.29879109457526, 43.77520684599106], "screen_name": "artonbayview", "time": 1472020532.0, "tid": 768260418871685120, "text": "New arrival today from Todd Tremeer #artoftheday .\n.\n.\nkilarney #frenchriver #muskoka\u2026 https://t.co/TGpRAarjV8", "created_at": "Wed Aug 24 01:35:32 +0000 2016", "klabel": 115}}, {"geometry": {"type": "Point", "coordinates": [-79.377334, 43.712424]}, "type": "Feature", "id": 768509700816199680, "properties": {"loc": [-79.377334, 43.712424], "centroid": [-79.29879109457526, 43.77520684599106], "screen_name": "tofire", "time": 1472079965.0, "tid": 768509700816199680, "text": "Alarm Highrise Residential - Bayview Avenue b/w Craig Crescent / Glazebrook Avenue, Toronto (6 Trucks)", "created_at": "Wed Aug 24 18:06:05 +0000 2016", "klabel": 115}}, {"geometry": {"type": "Point", "coordinates": [-79.377334, 43.712424]}, "type": "Feature", "id": 768509701575307264, "properties": {"loc": [-79.377334, 43.712424], "centroid": [-79.29879109457526, 43.77520684599106], "screen_name": "tofireN", "time": 1472079965.0, "tid": 768509701575307264, "text": "Alarm Highrise Residential - Bayview Avenue b/w Craig Crescent / Glazebrook Avenue, Toronto (6 Trucks)", "created_at": "Wed Aug 24 18:06:05 +0000 2016", "klabel": 115}}, {"geometry": {"type": "Point", "coordinates": [-79.37483844, 43.7047723]}, "type": "Feature", "id": 768588756614012934, "properties": {"loc": [-79.37483844, 43.7047723], "centroid": [-79.29879109457526, 43.77520684599106], "screen_name": "westfallmagic", "time": 1472098813.0, "tid": 768588756614012934, "text": "If only I was taller...... I could swim like this girl! #pennyoleksiak #gold #silver #bronze\u2026 https://t.co/Vzmkwgivum", "created_at": "Wed Aug 24 23:20:13 +0000 2016", "klabel": 115}}, {"geometry": {"type": "Point", "coordinates": [-79.37483844, 43.7047723]}, "type": "Feature", "id": 768602762384904239, "properties": {"loc": [-79.37483844, 43.7047723], "centroid": [-79.29879109457526, 43.77520684599106], "screen_name": "westfallmagic", "time": 1472102153.0, "tid": 768602762384904239, "text": "Performing magic for 4 time Canadian swim medalist Penny Oleksiak! #pennyoleksiak\u2026 https://t.co/R5LxFmdsUI", "created_at": "Thu Aug 25 00:15:53 +0000 2016", "klabel": 115}}, {"geometry": {"type": "Point", "coordinates": [-79.374003, 43.716933]}, "type": "Feature", "id": 768875617177759744, "properties": {"loc": [-79.374003, 43.716933], "centroid": [-79.29879109457526, 43.77520684599106], "screen_name": "tofire", "time": 1472167206.0, "tid": 768875617177759744, "text": "Carbon Monoxide (Non Medical) - Glenvale Boulevard b/w Hanna Road / Tanager Avenue, East York (2 Trucks)", "created_at": "Thu Aug 25 18:20:06 +0000 2016", "klabel": 115}}, {"geometry": {"type": "Point", "coordinates": [-79.3774341, 43.7084715]}, "type": "Feature", "id": 768885164072140800, "properties": {"loc": [-79.3774341, 43.7084715], "centroid": [-79.29879109457526, 43.77520684599106], "screen_name": "tpscalls", "time": 1472169482.0, "tid": 768885164072140800, "text": "Missing Elderly | Hoyle Ave &amp; Mann Ave [53 Div.] 08/25 14:53 #Midtown_Toronto", "created_at": "Thu Aug 25 18:58:02 +0000 2016", "klabel": 115}}, {"geometry": {"type": "Point", "coordinates": [-79.386201, 43.709206]}, "type": "Feature", "id": 768927202826125312, "properties": {"loc": [-79.386201, 43.709206], "centroid": [-79.29879109457526, 43.77520684599106], "screen_name": "tofire", "time": 1472179505.0, "tid": 768927202826125312, "text": "Hazmat Level 1 - Eglinton Avenue b/w Forman Avenue / Petman Avenue, Toronto (2 Trucks)", "created_at": "Thu Aug 25 21:45:05 +0000 2016", "klabel": 115}}, {"geometry": {"type": "Point", "coordinates": [-79.37499, 43.70463]}, "type": "Feature", "id": 768974184902955008, "properties": {"loc": [-79.37499, 43.70463], "centroid": [-79.29879109457526, 43.77520684599106], "screen_name": "chrisheffler", "time": 1472190707.0, "tid": 768974184902955008, "text": "Great night - Great Cigars - Great Music - and much more. @ The Smokin' Cigar - Bayview https://t.co/Q1pfUNCU6m", "created_at": "Fri Aug 26 00:51:47 +0000 2016", "klabel": 115}}, {"geometry": {"type": "Point", "coordinates": [-79.382197, 43.701314]}, "type": "Feature", "id": 769039936720896004, "properties": {"loc": [-79.382197, 43.701314], "centroid": [-79.29879109457526, 43.77520684599106], "screen_name": "tpscalls", "time": 1472206383.0, "tid": 769039936720896004, "text": "Noisy Party | Ln S Davisville E Mt Pleasant &amp; Forsyth Rd [53 Div.] 08/26 01:07 #Midtown_Toronto", "created_at": "Fri Aug 26 05:13:03 +0000 2016", "klabel": 115}}, {"geometry": {"type": "Point", "coordinates": [-79.385022, 43.7059659]}, "type": "Feature", "id": 769087495325843456, "properties": {"loc": [-79.385022, 43.7059659], "centroid": [-79.29879109457526, 43.77520684599106], "screen_name": "tpscalls", "time": 1472217722.0, "tid": 769087495325843456, "text": "Damage | Fleming Cres &amp; Hillsdale Ave E [53 Div.] 08/26 04:15 #Midtown_Toronto", "created_at": "Fri Aug 26 08:22:02 +0000 2016", "klabel": 115}}, {"geometry": {"type": "Point", "coordinates": [-79.388, 43.722]}, "type": "Feature", "id": 769142684434984960, "properties": {"loc": [-79.388, 43.722], "centroid": [-79.29879109457526, 43.77520684599106], "screen_name": "summerspictures", "time": 1472230880.0, "tid": 769142684434984960, "text": "#friday #morningride #humid #getoutside #liveyourdream #vistonr\u00eave #garneau @ Lawrence Park,\u2026 https://t.co/exRUfuDQvz", "created_at": "Fri Aug 26 12:01:20 +0000 2016", "klabel": 115}}, {"geometry": {"type": "Point", "coordinates": [-79.3746244, 43.7052461]}, "type": "Feature", "id": 769280307488919552, "properties": {"loc": [-79.3746244, 43.7052461], "centroid": [-79.29879109457526, 43.77520684599106], "screen_name": "tmj_gta_hrta", "time": 1472263692.0, "tid": 769280307488919552, "text": "If you're looking for work in 1545 BAYVIEW AVENUE, #TORONTO, ON, check out this #job: https://t.co/D5cUgfkW9R #Hospitality #Veterans", "created_at": "Fri Aug 26 21:08:12 +0000 2016", "klabel": 115}}, {"geometry": {"type": "Point", "coordinates": [-79.384885, 43.709475]}, "type": "Feature", "id": 769590310569648129, "properties": {"loc": [-79.384885, 43.709475], "centroid": [-79.29879109457526, 43.77520684599106], "screen_name": "tpscalls", "time": 1472337602.0, "tid": 769590310569648129, "text": "Unknown Trouble | Forman Ave &amp; Petman Ave [53 Div.] 08/27 13:35 #Midtown_Toronto", "created_at": "Sat Aug 27 17:40:02 +0000 2016", "klabel": 115}}, {"geometry": {"type": "Point", "coordinates": [-79.3788445, 43.7209989]},