{"type": "FeatureCollection", "features": [{"geometry": {"type": "Point", "coordinates": [-79.3705, 43.65837]}, "type": "Feature", "id": 705071146056736768, "properties": {"loc": [-79.3705, 43.65837], "centroid": [-79.28091565697635, 43.74141056625], "screen_name": "paddy_leung", "time": 1456955035.0, "tid": 705071146056736768, "text": "When you're given a big space with 20 sheets of fabric, a shit-ton of clothes pins, strings and\u2026 https://t.co/AO0Yq9tFB8", "created_at": "Wed Mar 02 16:43:55 +0000 2016", "klabel": 116}}, {"geometry": {"type": "Point", "coordinates": [-79.374118, 43.66461]}, "type": "Feature", "id": 705075313957433344, "properties": {"loc": [-79.374118, 43.66461], "centroid": [-79.28091565697635, 43.74141056625], "screen_name": "rachelljoness", "time": 1456956029.0, "tid": 705075313957433344, "text": "Listen to me when I say, baby it's always been that way \ud83c\udfb6 @ Phoenix Concert Theater https://t.co/txRFcgRDNq", "created_at": "Wed Mar 02 17:00:29 +0000 2016", "klabel": 116}}, {"geometry": {"type": "Point", "coordinates": [-79.37444444, 43.66166667]}, "type": "Feature", "id": 705137805987618816, "properties": {"loc": [-79.37444444, 43.66166667], "centroid": [-79.28091565697635, 43.74141056625], "screen_name": "randyfmcdonald", "time": 1456970928.0, "tid": 705137805987618816, "text": "Snow sliding down the greenhouse panes #toronto #snow #winter #allangardrns #greenhouse @ Allan\u2026 https://t.co/F7Wfjhcl4M", "created_at": "Wed Mar 02 21:08:48 +0000 2016", "klabel": 116}}, {"geometry": {"type": "Point", "coordinates": [-79.37444444, 43.66166667]}, "type": "Feature", "id": 705144085288460288, "properties": {"loc": [-79.37444444, 43.66166667], "centroid": [-79.28091565697635, 43.74141056625], "screen_name": "randyfmcdonald", "time": 1456972425.0, "tid": 705144085288460288, "text": "Allan Gardens under snow, 2 #toronto #allangardens #snow #winter @ Allan Gardens https://t.co/SjdgnS4igo", "created_at": "Wed Mar 02 21:33:45 +0000 2016", "klabel": 116}}, {"geometry": {"type": "Point", "coordinates": [-79.37444444, 43.66166667]}, "type": "Feature", "id": 705144546812960768, "properties": {"loc": [-79.37444444, 43.66166667], "centroid": [-79.28091565697635, 43.74141056625], "screen_name": "randyfmcdonald", "time": 1456972535.0, "tid": 705144546812960768, "text": "Allan Gardens under snow, 4 #toronto #allangardens #snow #winter @ Allan Gardens https://t.co/GwADNMrjbk", "created_at": "Wed Mar 02 21:35:35 +0000 2016", "klabel": 116}}, {"geometry": {"type": "Point", "coordinates": [-79.37444444, 43.66166667]}, "type": "Feature", "id": 705161110593400832, "properties": {"loc": [-79.37444444, 43.66166667], "centroid": [-79.28091565697635, 43.74141056625], "screen_name": "randyfmcdonald", "time": 1456976484.0, "tid": 705161110593400832, "text": "The goldfish of Allan Gardens #toronto #goldfish #koi #fish #allangardens @ Allan Gardens https://t.co/8Oz8VMHHil", "created_at": "Wed Mar 02 22:41:24 +0000 2016", "klabel": 116}}, {"geometry": {"type": "Point", "coordinates": [-79.37444444, 43.66166667]}, "type": "Feature", "id": 705161711922372609, "properties": {"loc": [-79.37444444, 43.66166667], "centroid": [-79.28091565697635, 43.74141056625], "screen_name": "randyfmcdonald", "time": 1456976628.0, "tid": 705161711922372609, "text": "The giant silver koi of Allan Gardens, 3 #toronto #goldfish #koi #fish #allangardens @ Allan\u2026 https://t.co/jOOOJIh6u9", "created_at": "Wed Mar 02 22:43:48 +0000 2016", "klabel": 116}}, {"geometry": {"type": "Point", "coordinates": [-79.3705, 43.65837]}, "type": "Feature", "id": 705175062853263360, "properties": {"loc": [-79.3705, 43.65837], "centroid": [-79.28091565697635, 43.74141056625], "screen_name": "paolocase", "time": 1456979811.0, "tid": 705175062853263360, "text": "Just posted a photo @ AGO - Art Gallery of Ontario https://t.co/zWWs5kJOKY", "created_at": "Wed Mar 02 23:36:51 +0000 2016", "klabel": 116}}, {"geometry": {"type": "Point", "coordinates": [-79.3705, 43.65837]}, "type": "Feature", "id": 705179231467122688, "properties": {"loc": [-79.3705, 43.65837], "centroid": [-79.28091565697635, 43.74141056625], "screen_name": "paolocase", "time": 1456980805.0, "tid": 705179231467122688, "text": "My shitty attempt at a Carol shot. #AGO #dundaswest @ AGO - Art Gallery of Ontario https://t.co/1S85EYvJ3U", "created_at": "Wed Mar 02 23:53:25 +0000 2016", "klabel": 116}}, {"geometry": {"type": "Point", "coordinates": [-79.37056405, 43.67257452]}, "type": "Feature", "id": 705181529861820416, "properties": {"loc": [-79.37056405, 43.67257452], "centroid": [-79.28091565697635, 43.74141056625], "screen_name": "caiodias", "time": 1456981353.0, "tid": 705181529861820416, "text": "@nihkmiec qual a defini\u00e7\u00e3o de Crush bagre?", "created_at": "Thu Mar 03 00:02:33 +0000 2016", "klabel": 116}}, {"geometry": {"type": "Point", "coordinates": [-79.37056405, 43.67257452]}, "type": "Feature", "id": 705181578750611460, "properties": {"loc": [-79.37056405, 43.67257452], "centroid": [-79.28091565697635, 43.74141056625], "screen_name": "caiodias", "time": 1456981364.0, "tid": 705181578750611460, "text": "#indeed https://t.co/D95QYRYR9i", "created_at": "Thu Mar 03 00:02:44 +0000 2016", "klabel": 116}}, {"geometry": {"type": "Point", "coordinates": [-79.37410645, 43.66736303]}, "type": "Feature", "id": 705181622761562112, "properties": {"loc": [-79.37410645, 43.66736303], "centroid": [-79.28091565697635, 43.74141056625], "screen_name": "cyberguy49", "time": 1456981375.0, "tid": 705181622761562112, "text": "SOCIAL EVENT: Group TV night. I'm at a friends place watching CSI Miami season 7 https://t.co/kv92LH9G2d https://t.co/Ur7lWn2BWS", "created_at": "Thu Mar 03 00:02:55 +0000 2016", "klabel": 116}}, {"geometry": {"type": "Point", "coordinates": [-79.37444444, 43.66166667]}, "type": "Feature", "id": 705182055185981441, "properties": {"loc": [-79.37444444, 43.66166667], "centroid": [-79.28091565697635, 43.74141056625], "screen_name": "randyfmcdonald", "time": 1456981478.0, "tid": 705182055185981441, "text": "Allan Gardens under snow, 5 #toronto #winter #snow #allangardens a @ Allan Gardens https://t.co/SqNITDvL4J", "created_at": "Thu Mar 03 00:04:38 +0000 2016", "klabel": 116}}, {"geometry": {"type": "Point", "coordinates": [-79.3705, 43.65837]}, "type": "Feature", "id": 705184078811701252, "properties": {"loc": [-79.3705, 43.65837], "centroid": [-79.28091565697635, 43.74141056625], "screen_name": "paolocase", "time": 1456981960.0, "tid": 705184078811701252, "text": "Where My #Hood At? Detail, Don Valley on a Grey Day, William Kurelek. @ AGO - Art Gallery of\u2026 https://t.co/bVWpWOv3xF", "created_at": "Thu Mar 03 00:12:40 +0000 2016", "klabel": 116}}, {"geometry": {"type": "Point", "coordinates": [-79.37176849, 43.6655124]}, "type": "Feature", "id": 705184920080150528, "properties": {"loc": [-79.37176849, 43.6655124], "centroid": [-79.28091565697635, 43.74141056625], "screen_name": "JackCox", "time": 1456982161.0, "tid": 705184920080150528, "text": "#torontoatnight #blackandwhite #toronto #noir @ Winchester Park https://t.co/HPVIBu63Nx", "created_at": "Thu Mar 03 00:16:01 +0000 2016", "klabel": 116}}, {"geometry": {"type": "Point", "coordinates": [-79.365, 43.66166667]}, "type": "Feature", "id": 705185710366724096, "properties": {"loc": [-79.365, 43.66166667], "centroid": [-79.28091565697635, 43.74141056625], "screen_name": "ProjectBLT", "time": 1456982349.0, "tid": 705185710366724096, "text": "And today's forecast calls for \ud83c\udf1e @ Regent Park https://t.co/NZdEATdbeT", "created_at": "Thu Mar 03 00:19:09 +0000 2016", "klabel": 116}}, {"geometry": {"type": "Point", "coordinates": [-79.3705, 43.65837]}, "type": "Feature", "id": 705185873734709249, "properties": {"loc": [-79.3705, 43.65837], "centroid": [-79.28091565697635, 43.74141056625], "screen_name": "paolocase", "time": 1456982388.0, "tid": 705185873734709249, "text": "#Shade @ AGO - Art Gallery of Ontario https://t.co/02jAbWo3Ou", "created_at": "Thu Mar 03 00:19:48 +0000 2016", "klabel": 116}}, {"geometry": {"type": "Point", "coordinates": [-79.3705, 43.65837]}, "type": "Feature", "id": 705186541526585345, "properties": {"loc": [-79.3705, 43.65837], "centroid": [-79.28091565697635, 43.74141056625], "screen_name": "sams3o", "time": 1456982547.0, "tid": 705186541526585345, "text": "AGO @ AGO - Art Gallery of Ontario https://t.co/lUlkQej5MJ", "created_at": "Thu Mar 03 00:22:27 +0000 2016", "klabel": 116}}, {"geometry": {"type": "Point", "coordinates": [-79.3705, 43.65837]}, "type": "Feature", "id": 705187537145327616, "properties": {"loc": [-79.3705, 43.65837], "centroid": [-79.28091565697635, 43.74141056625], "screen_name": "sams3o", "time": 1456982785.0, "tid": 705187537145327616, "text": "Just posted a photo @ AGO - Art Gallery of Ontario https://t.co/gT8TwzHT18", "created_at": "Thu Mar 03 00:26:25 +0000 2016", "klabel": 116}}, {"geometry": {"type": "Point", "coordinates": [-79.37246283, 43.66706039]}, "type": "Feature", "id": 705221097520758787, "properties": {"loc": [-79.37246283, 43.66706039], "centroid": [-79.28091565697635, 43.74141056625], "screen_name": "ScotchGuyTO", "time": 1456990786.0, "tid": 705221097520758787, "text": "Super sad to see this #Heelslayer go. #Scotch #Whisky #Whiskey #ScotchPorn #WhiskyPorn\u2026 https://t.co/tSZGcC1Gbc", "created_at": "Thu Mar 03 02:39:46 +0000 2016", "klabel": 116}}, {"geometry": {"type": "Point", "coordinates": [-79.37444444, 43.66166667]}, "type": "Feature", "id": 705225460146376704, "properties": {"loc": [-79.37444444, 43.66166667], "centroid": [-79.28091565697635, 43.74141056625], "screen_name": "randyfmcdonald", "time": 1456991826.0, "tid": 705225460146376704, "text": "Below the dome, 1 #toronto #allangardens  #greenhouse @ Allan Gardens https://t.co/dN9Y3cyUMU", "created_at": "Thu Mar 03 02:57:06 +0000 2016", "klabel": 116}}, {"geometry": {"type": "Point", "coordinates": [-79.37444444, 43.66166667]}, "type": "Feature", "id": 705226060875624449, "properties": {"loc": [-79.37444444, 43.66166667], "centroid": [-79.28091565697635, 43.74141056625], "screen_name": "randyfmcdonald", "time": 1456991970.0, "tid": 705226060875624449, "text": "Boxed orchids #toronto #allangardens #flowers #orchids @ Allan Gardens https://t.co/V3MtNv1jU3", "created_at": "Thu Mar 03 02:59:30 +0000 2016", "klabel": 116}}, {"geometry": {"type": "Point", "coordinates": [-79.37444444, 43.66166667]}, "type": "Feature", "id": 705226502674227200, "properties": {"loc": [-79.37444444, 43.66166667], "centroid": [-79.28091565697635, 43.74141056625], "screen_name": "randyfmcdonald", "time": 1456992075.0, "tid": 705226502674227200, "text": "Boxed orchids and lilies #toronto #allangardens #flowers #orchids #lilies @ Allan Gardens https://t.co/fVRhRU6ScB", "created_at": "Thu Mar 03 03:01:15 +0000 2016", "klabel": 116}}, {"geometry": {"type": "Point", "coordinates": [-79.37444444, 43.66166667]}, "type": "Feature", "id": 705226747327979520, "properties": {"loc": [-79.37444444, 43.66166667], "centroid": [-79.28091565697635, 43.74141056625], "screen_name": "randyfmcdonald", "time": 1456992133.0, "tid": 705226747327979520, "text": "Turtles on the shore #toronto #allangardens #turtles #reptiles #pond #lilies @ Allan Gardens https://t.co/4yIxLF5HdW", "created_at": "Thu Mar 03 03:02:13 +0000 2016", "klabel": 116}}, {"geometry": {"type": "Point", "coordinates": [-79.37471407, 43.6626968]}, "type": "Feature", "id": 705243701468123136, "properties": {"loc": [-79.37471407, 43.6626968], "centroid": [-79.28091565697635, 43.74141056625], "screen_name": "carbonpapers", "time": 1456996175.0, "tid": 705243701468123136, "text": "I'm at The Ready Room in Toronto, ON https://t.co/dEEyYsQYIp", "created_at": "Thu Mar 03 04:09:35 +0000 2016", "klabel": 116}}, {"geometry": {"type": "Point", "coordinates": [-79.374118, 43.66461]}, "type": "Feature", "id": 705243801934295040, "properties": {"loc": [-79.374118, 43.66461], "centroid": [-79.28091565697635, 43.74141056625], "screen_name": "SamNikahwal", "time": 1456996199.0, "tid": 705243801934295040, "text": "Another one! #nofilter #iphone #brysontiller #toronto #trapsoul @ Phoenix Concert Theater https://t.co/lyq4kql6ai", "created_at": "Thu Mar 03 04:09:59 +0000 2016", "klabel": 116}}, {"geometry": {"type": "Point", "coordinates": [-79.36979848, 43.65412423]}, "type": "Feature", "id": 705441568958889984, "properties": {"loc": [-79.36979848, 43.65412423], "centroid": [-79.28091565697635, 43.74141056625], "screen_name": "whoisGwera", "time": 1457043351.0, "tid": 705441568958889984, "text": "Queen/Sherbourne. \u270a#torontograffiti #niccage @ Tin Eye https://t.co/pf0TieIia0", "created_at": "Thu Mar 03 17:15:51 +0000 2016", "klabel": 116}}, {"geometry": {"type": "Point", "coordinates": [-79.36728761, 43.66346528]}, "type": "Feature", "id": 705449725110124544, "properties": {"loc": [-79.36728761, 43.66346528], "centroid": [-79.28091565697635, 43.74141056625], "screen_name": "whitestar2009", "time": 1457045295.0, "tid": 705449725110124544, "text": "Checked in automatically with the Uber Checkin app! https://t.co/BYHxUki1A7 (@ Cosimo's No Frills in Toronto, ON) https://t.co/g9zrnovqML", "created_at": "Thu Mar 03 17:48:15 +0000 2016", "klabel": 116}}, {"geometry": {"type": "Point", "coordinates": [-79.36796755, 43.66427439]}, "type": "Feature", "id": 705450008603201536, "properties": {"loc": [-79.36796755, 43.66427439], "centroid": [-79.28091565697635, 43.74141056625], "screen_name": "whitestar2009", "time": 1457045363.0, "tid": 705450008603201536, "text": "Checked in automatically with the Uber Checkin app! https://t.co/BYHxUki1A7 (@ Cabbagetown in Toronto, ON) https://t.co/Y1F9vH6kYu", "created_at": "Thu Mar 03 17:49:23 +0000 2016", "klabel": 116}}, {"geometry": {"type": "Point", "coordinates": [-79.3737285, 43.667269]}, "type": "Feature", "id": 705456485854265345, "properties": {"loc": [-79.3737285, 43.667269], "centroid": [-79.28091565697635, 43.74141056625], "screen_name": "tofireS", "time": 1457046907.0, "tid": 705456485854265345, "text": "UD: Fire (Highrise Residential) - Wellesley St b/w Bleecker St / Ontario St, Toronto (7 Trucks)", "created_at": "Thu Mar 03 18:15:07 +0000 2016", "klabel": 116}}, {"geometry": {"type": "Point", "coordinates": [-79.3737285, 43.667269]}, "type": "Feature", "id": 705456484897988610, "properties": {"loc": [-79.3737285, 43.667269], "centroid": [-79.28091565697635, 43.74141056625], "screen_name": "tofire", "time": 1457046907.0, "tid": 705456484897988610, "text": "UD: Fire (Highrise Residential) - Wellesley St b/w Bleecker St / Ontario St, Toronto (7 Trucks)", "created_at": "Thu Mar 03 18:15:07 +0000 2016", "klabel": 116}}, {"geometry": {"type": "Point", "coordinates": [-79.3751526, 43.6631508]}, "type": "Feature", "id": 705467346194980866, "properties": {"loc": [-79.3751526, 43.6631508], "centroid": [-79.28091565697635, 43.74141056625], "screen_name": "chris_n_toronto", "time": 1457049496.0, "tid": 705467346194980866, "text": "flower doodle @ 140 Carlton https://t.co/nLg3fsTfTY", "created_at": "Thu Mar 03 18:58:16 +0000 2016", "klabel": 116}}, {"geometry": {"type": "Point", "coordinates": [-79.3709965, 43.658302]}, "type": "Feature", "id": 705480388752367617, "properties": {"loc": [-79.3709965, 43.658302], "centroid": [-79.28091565697635, 43.74141056625], "screen_name": "tofire", "time": 1457052606.0, "tid": 705480388752367617, "text": "Medical (Trouble Breathing) - Dundas St b/w Sherbourne St / Oskenonton Lane, Toronto (2 Trucks)", "created_at": "Thu Mar 03 19:50:06 +0000 2016", "klabel": 116}}, {"geometry": {"type": "Point", "coordinates": [-79.3709965, 43.658302]}, "type": "Feature", "id": 705480393575809024, "properties": {"loc": [-79.3709965, 43.658302], "centroid": [-79.28091565697635, 43.74141056625], "screen_name": "tofireS", "time": 1457052607.0, "tid": 705480393575809024, "text": "Medical (Trouble Breathing) - Dundas St b/w Sherbourne St / Oskenonton Lane, Toronto (2 Trucks)", "created_at": "Thu Mar 03 19:50:07 +0000 2016", "klabel": 116}}, {"geometry": {"type": "Point", "coordinates": [-79.3747099, 43.66095]}, "type": "Feature", "id": 705525129065975808, "properties": {"loc": [-79.3747099, 43.66095], "centroid": [-79.28091565697635, 43.74141056625], "screen_name": "chelseamoriarty", "time": 1457063273.0, "tid": 705525129065975808, "text": "Lunch hour today was spent at Allan Gardens Conservatory with\u2026 https://t.co/NL97lUBJnX", "created_at": "Thu Mar 03 22:47:53 +0000 2016", "klabel": 116}}, {"geometry": {"type": "Point", "coordinates": [-79.36811247, 43.66426557]}, "type": "Feature", "id": 705531940515028997, "properties": {"loc": [-79.36811247, 43.66426557], "centroid": [-79.28091565697635, 43.74141056625], "screen_name": "LuiSays", "time": 1457064897.0, "tid": 705531940515028997, "text": "Mayor is in da house ! (at @KanpaiSnackBar in Toronto, ON) https://t.co/wwtBFwa2op", "created_at": "Thu Mar 03 23:14:57 +0000 2016", "klabel": 116}}, {"geometry": {"type": "Point", "coordinates": [-79.3735345, 43.660946]}, "type": "Feature", "id": 705537024728698881, "properties": {"loc": [-79.3735345, 43.660946], "centroid": [-79.28091565697635, 43.74141056625], "screen_name": "tofireS", "time": 1457066109.0, "tid": 705537024728698881, "text": "Medical (Unconscious) - Gerrard St b/w Pembroke St / Sherbourne St, Toronto (2 Trucks)", "created_at": "Thu Mar 03 23:35:09 +0000 2016", "klabel": 116}}, {"geometry": {"type": "Point", "coordinates": [-79.374118, 43.66461]}, "type": "Feature", "id": 705545234357202944, "properties": {"loc": [-79.374118, 43.66461], "centroid": [-79.28091565697635, 43.74141056625], "screen_name": "terrenceFTW", "time": 1457068066.0, "tid": 705545234357202944, "text": "Fuck I look good on @corywaynewilson. #faceswap #budsdoingthingswiththeirpals #magnum #bluesteel\u2026 https://t.co/Es81AUhmZ4", "created_at": "Fri Mar 04 00:07:46 +0000 2016", "klabel": 116}}, {"geometry": {"type": "Point", "coordinates": [-79.37488, 43.66014]}, "type": "Feature", "id": 705567514256928768, "properties": {"loc": [-79.37488, 43.66014], "centroid": [-79.28091565697635, 43.74141056625], "screen_name": "urban_sassy", "time": 1457073378.0, "tid": 705567514256928768, "text": "Freshly groomed by the amazing @erinsquest at @nobones2016 \ud83d\udc9e #yorkie #yorkies #yorkielife\u2026 https://t.co/8kcBxtk6pj", "created_at": "Fri Mar 04 01:36:18 +0000 2016", "klabel": 116}}, {"geometry": {"type": "Point", "coordinates": [-79.36811247, 43.66426557]}, "type": "Feature", "id": 705568864306905092, "properties": {"loc": [-79.36811247, 43.66426557], "centroid": [-79.28091565697635, 43.74141056625], "screen_name": "AneetaParmar", "time": 1457073700.0, "tid": 705568864306905092, "text": "With the wonderful @rhondarealestate (at @KanpaiSnackBar in Toronto, ON w/ @luisays) https://t.co/JAC8pVz5Vr", "created_at": "Fri Mar 04 01:41:40 +0000 2016", "klabel": 116}}, {"geometry": {"type": "Point", "coordinates": [-79.3705, 43.65837]}, "type": "Feature", "id": 705578718417297410, "properties": {"loc": [-79.3705, 43.65837], "centroid": [-79.28091565697635, 43.74141056625], "screen_name": "jonathan_coelho", "time": 1457076050.0, "tid": 705578718417297410, "text": "View from behind the main stage @AGOToronto #AGO1st #toronto #art #nightlife @ AGO - Art Gallery\u2026 https://t.co/6Q32qz69va", "created_at": "Fri Mar 04 02:20:50 +0000 2016", "klabel": 116}}, {"geometry": {"type": "Point", "coordinates": [-79.374118, 43.66461]}, "type": "Feature", "id": 705582160707719168, "properties": {"loc": [-79.374118, 43.66461], "centroid": [-79.28091565697635, 43.74141056625], "screen_name": "buubbles_", "time": 1457076870.0, "tid": 705582160707719168, "text": "\ud83d\ude08 @ Phoenix Concert Theater https://t.co/DaJgjms37g", "created_at": "Fri Mar 04 02:34:30 +0000 2016", "klabel": 116}}, {"geometry": {"type": "Point", "coordinates": [-79.3705, 43.65837]}, "type": "Feature", "id": 705589204936429570, "properties": {"loc": [-79.3705, 43.65837], "centroid": [-79.28091565697635, 43.74141056625], "screen_name": "djmelboogie", "time": 1457078550.0, "tid": 705589204936429570, "text": "Ayeeeeee!!!! Bambi straight killin' it!!!!! &lt;insert air horn here&gt;\n\n\ud83d\udd25\ud83d\udd25\ud83d\udd25\ud83d\udd25\ud83d\udd25 #DJs #Toronto\u2026 https://t.co/1I6vra9zh7", "created_at": "Fri Mar 04 03:02:30 +0000 2016", "klabel": 116}}, {"geometry": {"type": "Point", "coordinates": [-79.3705, 43.65837]}, "type": "Feature", "id": 705591211030085632, "properties": {"loc": [-79.3705, 43.65837], "centroid": [-79.28091565697635, 43.74141056625], "screen_name": "KarlySullivan", "time": 1457079028.0, "tid": 705591211030085632, "text": "Team field trip \u270f\ufe0f\ud83d\udcd3\ud83e\udd13 @ AGO - Art Gallery of Ontario https://t.co/pavWm3c2B9", "created_at": "Fri Mar 04 03:10:28 +0000 2016", "klabel": 116}}, {"geometry": {"type": "Point", "coordinates": [-79.3705, 43.65837]}, "type": "Feature", "id": 705591416026750976, "properties": {"loc": [-79.3705, 43.65837], "centroid": [-79.28091565697635, 43.74141056625], "screen_name": "djmelboogie", "time": 1457079077.0, "tid": 705591416026750976, "text": "When your 'crazy' face gets mixed up with your 'tryna be sexy' face. Or maybe this is my\u2026 https://t.co/z6BnOJbjvP", "created_at": "Fri Mar 04 03:11:17 +0000 2016", "klabel": 116}}, {"geometry": {"type": "Point", "coordinates": [-79.3705, 43.65837]}, "type": "Feature", "id": 705591995650215936, "properties": {"loc": [-79.3705, 43.65837], "centroid": [-79.28091565697635, 43.74141056625], "screen_name": "michaelkohnfoto", "time": 1457079215.0, "tid": 705591995650215936, "text": "gentle snow falling on Dundas Street ... from the #AGO First Thursday @ AGO - Art Gallery of\u2026 https://t.co/eBXXxQB0ew", "created_at": "Fri Mar 04 03:13:35 +0000 2016", "klabel": 116}}, {"geometry": {"type": "Point", "coordinates": [-79.3705, 43.65837]}, "type": "Feature", "id": 705614272013869057, "properties": {"loc": [-79.3705, 43.65837], "centroid": [-79.28091565697635, 43.74141056625], "screen_name": "SneakyGreedo", "time": 1457084526.0, "tid": 705614272013869057, "text": "#agofirstthursdays #ago #ago1st #art From Hogtown to the Sixth @ AGO - Art Gallery of Ontario https://t.co/09xvoeMgJX", "created_at": "Fri Mar 04 04:42:06 +0000 2016", "klabel": 116}}, {"geometry": {"type": "Point", "coordinates": [-79.3705, 43.65837]}, "type": "Feature", "id": 705625713114640385, "properties": {"loc": [-79.3705, 43.65837], "centroid": [-79.28091565697635, 43.74141056625], "screen_name": "JessAtTheMuseum", "time": 1457087254.0, "tid": 705625713114640385, "text": "Song Dong exhibition @ the #AGO \ud83c\udf78\ud83c\udfa8\ud83c\udfbc #agofirstthursdays #songdong @ AGO - Art Gallery of Ontario https://t.co/PbRZ0sSRhw", "created_at": "Fri Mar 04 05:27:34 +0000 2016", "klabel": 116}}, {"geometry": {"type": "Point", "coordinates": [-79.374118, 43.66461]}, "type": "Feature", "id": 705639102041841664, "properties": {"loc": [-79.374118, 43.66461], "centroid": [-79.28091565697635, 43.74141056625], "screen_name": "GinoScarim", "time": 1457090446.0, "tid": 705639102041841664, "text": "Counting down the days until I get to see this gorgeous babe! #twoweeks #cantwait #Texas #mylove\u2026 https://t.co/0c3AzWQBV6", "created_at": "Fri Mar 04 06:20:46 +0000 2016", "klabel": 116}}, {"geometry": {"type": "Point", "coordinates": [-79.3705, 43.65837]}, "type": "Feature", "id": 705734544545226753, "properties": {"loc": [-79.3705, 43.65837], "centroid": [-79.28091565697635, 43.74141056625], "screen_name": "michaelkohnfoto", "time": 1457113201.0, "tid": 705734544545226753, "text": "conceptual art  #AGO  #doors @ AGO - Art Gallery of Ontario https://t.co/Ix3w0qHTiN", "created_at": "Fri Mar 04 12:40:01 +0000 2016", "klabel": 116}}, {"geometry": {"type": "Point", "coordinates": [-79.3682348, 43.6649068]}, "type": "Feature", "id": 705747328917868545, "properties": {"loc": [-79.3682348, 43.6649068], "centroid": [-79.28091565697635, 43.74141056625], "screen_name": "tmj_gta_hrta", "time": 1457116250.0, "tid": 705747328917868545, "text": "#Hospitality #Job in 492 PARLIAMENT STREET, #TORONTO, ON: Shift Supervisor (CA) at Starbucks https://t.co/et5ERrkp5F #Veterans #Jobs", "created_at": "Fri Mar 04 13:30:50 +0000 2016", "klabel": 116}}, {"geometry": {"type": "Point", "coordinates": [-79.3705, 43.65837]}, "type": "Feature", "id": 705760126817275904, "properties": {"loc": [-79.3705, 43.65837], "centroid": [-79.28091565697635, 43.74141056625], "screen_name": "BPRmargi", "time": 1457119301.0, "tid": 705760126817275904, "text": "Topsy Turvy. #AGOToronto #discoverON #canadiancreatives #discovercanada #lovetoronto\u2026 https://t.co/RoMmgDH2FV", "created_at": "Fri Mar 04 14:21:41 +0000 2016", "klabel": 116}}, {"geometry": {"type": "Point", "coordinates": [-79.3705, 43.65837]}, "type": "Feature", "id": 705763407635615746, "properties": {"loc": [-79.3705, 43.65837], "centroid": [-79.28091565697635, 43.74141056625], "screen_name": "Antwhat", "time": 1457120083.0, "tid": 705763407635615746, "text": "Perdre la t\u00eate.\nEt puis la retrouver.\n#DanhVo #AGO #artgalleryofontario @ AGO - Art Gallery of\u2026 https://t.co/p4GGuzvYoF", "created_at": "Fri Mar 04 14:34:43 +0000 2016", "klabel": 116}}, {"geometry": {"type": "Point", "coordinates": [-79.37117, 43.66354]}, "type": "Feature", "id": 705816778795044864, "properties": {"loc": [-79.37117, 43.66354], "centroid": [-79.28091565697635, 43.74141056625], "screen_name": "h_tothe_D", "time": 1457132808.0, "tid": 705816778795044864, "text": "Pretty desk things!! #officelife #yespleaseandthankyou @ Egale Canada Human Rights Trust https://t.co/VWkivCz8GM", "created_at": "Fri Mar 04 18:06:48 +0000 2016", "klabel": 116}}, {"geometry": {"type": "Point", "coordinates": [-79.3705, 43.65837]}, "type": "Feature", "id": 705838209436139524, "properties": {"loc": [-79.3705, 43.65837], "centroid": [-79.28091565697635, 43.74141056625], "screen_name": "michaelkohnfoto", "time": 1457137917.0, "tid": 705838209436139524, "text": "AGO last night ... I do love the quality of an iPhone video ... quite amazing ... I think this\u2026 https://t.co/EY5TKwjtWF", "created_at": "Fri Mar 04 19:31:57 +0000 2016", "klabel": 116}}, {"geometry": {"type": "Point", "coordinates": [-79.3733229, 43.6596624]}, "type": "Feature", "id": 705853560844623872, "properties": {"loc": [-79.3733229, 43.6596624], "centroid": [-79.28091565697635, 43.74141056625], "screen_name": "Jessehazen", "time": 1457141577.0, "tid": 705853560844623872, "text": "\"It's Friday\" Update | Rachel Platten | Hidden Talent Canada  https://t.co/neCqRTtYvK", "created_at": "Fri Mar 04 20:32:57 +0000 2016", "klabel": 116}}, {"geometry": {"type": "Point", "coordinates": [-79.3709092, 43.6678919]}, "type": "Feature", "id": 705856618647388160, "properties": {"loc": [-79.3709092, 43.6678919], "centroid": [-79.28091565697635, 43.74141056625], "screen_name": "tofireS", "time": 1457142306.0, "tid": 705856618647388160, "text": "Alarm Highrise Residential - Wellesley St b/w Rose Avenue / Darling Lane, Toronto (2 Trucks)", "created_at": "Fri Mar 04 20:45:06 +0000 2016", "klabel": 116}}, {"geometry": {"type": "Point", "coordinates": [-79.36796755, 43.66427439]}, "type": "Feature", "id": 705857119829008384, "properties": {"loc": [-79.36796755, 43.66427439], "centroid": [-79.28091565697635, 43.74141056625], "screen_name": "whitestar2009", "time": 1457142426.0, "tid": 705857119829008384, "text": "Checked in automatically with the Uber Checkin app! https://t.co/BYHxUki1A7 (@ Cabbagetown in Toronto, ON) https://t.co/XHofrbSN1c", "created_at": "Fri Mar 04 20:47:06 +0000 2016", "klabel": 116}}, {"geometry": {"type": "Point", "coordinates": [-79.36792463, 43.66462656]}, "type": "Feature", "id": 705857120009322500, "properties": {"loc": [-79.36792463, 43.66462656], "centroid": [-79.28091565697635, 43.74141056625], "screen_name": "whitestar2009", "time": 1457142426.0, "tid": 705857120009322500, "text": "Checked in automatically with the Uber Checkin app! https://t.co/BYHxUki1A7 (@ TD Canada Trust in Toronto, ON) https://t.co/VycJgdTI3j", "created_at": "Fri Mar 04 20:47:06 +0000 2016", "klabel": 116}}, {"geometry": {"type": "Point", "coordinates": [-79.36728761, 43.66346528]}, "type": "Feature", "id": 705858084359557122, "properties": {"loc": [-79.36728761, 43.66346528], "centroid": [-79.28091565697635, 43.74141056625], "screen_name": "whitestar2009", "time": 1457142656.0, "tid": 705858084359557122, "text": "Checked in automatically with the Uber Checkin app! https://t.co/BYHxUki1A7 (@ Cosimo's No Frills in Toronto, ON) https://t.co/wxewuKOXDb", "created_at": "Fri Mar 04 20:50:56 +0000 2016", "klabel": 116}}, {"geometry": {"type": "Point", "coordinates": [-79.3737285, 43.667269]}, "type": "Feature", "id": 705860638749409281, "properties": {"loc": [-79.3737285, 43.667269], "centroid": [-79.28091565697635, 43.74141056625], "screen_name": "tofireS", "time": 1457143265.0, "tid": 705860638749409281, "text": "Fire Alarm (Check Call) - Wellesley St b/w Bleecker St / Ontario St, Toronto (2 Trucks)", "created_at": "Fri Mar 04 21:01:05 +0000 2016", "klabel": 116}}, {"geometry": {"type": "Point", "coordinates": [-79.3705, 43.65837]}, "type": "Feature", "id": 705862834698080256, "properties": {"loc": [-79.3705, 43.65837], "centroid": [-79.28091565697635, 43.74141056625], "screen_name": "Bees_N_Trees", "time": 1457143788.0, "tid": 705862834698080256, "text": "Life drawing fails. #babymamaatwork #baby #bliss #lifewithjoe #love @ AGO - Art Gallery of Ontario https://t.co/4vqFPtHXbc", "created_at": "Fri Mar 04 21:09:48 +0000 2016", "klabel": 116}}, {"geometry": {"type": "Point", "coordinates": [-79.374118, 43.66461]}, "type": "Feature", "id": 705874711834705920, "properties": {"loc": [-79.374118, 43.66461], "centroid": [-79.28091565697635, 43.74141056625], "screen_name": "RhyanG666", "time": 1457146620.0, "tid": 705874711834705920, "text": "you still owe me a pick @whosryanneff \ud83d\udc96 maybe next time haha #DropTheGlovesTour @ Phoenix\u2026 https://t.co/6mtdhvBlbv", "created_at": "Fri Mar 04 21:57:00 +0000 2016", "klabel": 116}}, {"geometry": {"type": "Point", "coordinates": [-79.374118, 43.66461]}, "type": "Feature", "id": 705888427187818496, "properties": {"loc": [-79.374118, 43.66461], "centroid": [-79.28091565697635, 43.74141056625], "screen_name": "sunnydiamonds", "time": 1457149890.0, "tid": 705888427187818496, "text": "I do a lot of work with @jahkoy I'm proud of this kid, we've come a long way \ud83d\ude4c\ud83c\udffd show starts at\u2026 https://t.co/vmdvKEoE19", "created_at": "Fri Mar 04 22:51:30 +0000 2016", "klabel": 116}}, {"geometry": {"type": "Point", "coordinates": [-79.3705, 43.65837]}, "type": "Feature", "id": 705892793751744512, "properties": {"loc": [-79.3705, 43.65837], "centroid": [-79.28091565697635, 43.74141056625], "screen_name": "jennsteele21", "time": 1457150931.0, "tid": 705892793751744512, "text": "Edgar Degas. 'Danseuse vue de dos. \"Grand battement \u00e0 la seconde\". \u2764\ufe0f#DrawingAGO @ AGO - Art\u2026 https://t.co/93gOdUrVw9", "created_at": "Fri Mar 04 23:08:51 +0000 2016", "klabel": 116}}, {"geometry": {"type": "Point", "coordinates": [-79.3682, 43.66447]}, "type": "Feature", "id": 705899645717843968, "properties": {"loc": [-79.3682, 43.66447], "centroid": [-79.28091565697635, 43.74141056625], "screen_name": "LuiSays", "time": 1457152565.0, "tid": 705899645717843968, "text": "Yes...#ChickenAndWaffles the @kanpaisnackbar way coming to you soon when #Break4Brunch gets the\u2026 https://t.co/H2Rfg3KC5b", "created_at": "Fri Mar 04 23:36:05 +0000 2016", "klabel": 116}}, {"geometry": {"type": "Point", "coordinates": [-79.3656375, 43.656797]}, "type": "Feature", "id": 705900651709112320, "properties": {"loc": [-79.3656375, 43.656797], "centroid": [-79.28091565697635, 43.74141056625], "screen_name": "tofire", "time": 1457152805.0, "tid": 705900651709112320, "text": "Medical (Vsa) - Shuter St b/w Poulett St / Parliament St, Toronto (2 Trucks)", "created_at": "Fri Mar 04 23:40:05 +0000 2016", "klabel": 116}}, {"geometry": {"type": "Point", "coordinates": [-79.3656375, 43.656797]}, "type": "Feature", "id": 705900652749312002, "properties": {"loc": [-79.3656375, 43.656797], "centroid": [-79.28091565697635, 43.74141056625], "screen_name": "tofireS", "time": 1457152805.0, "tid": 705900652749312002, "text": "Medical (Vsa) - Shuter St b/w Poulett St / Parliament St, Toronto (2 Trucks)", "created_at": "Fri Mar 04 23:40:05 +0000 2016", "klabel": 116}}, {"geometry": {"type": "Point", "coordinates": [-79.3674088, 43.6625519]}, "type": "Feature", "id": 705934665962668032, "properties": {"loc": [-79.3674088, 43.6625519], "centroid": [-79.28091565697635, 43.74141056625], "screen_name": "UberLearn", "time": 1457160914.0, "tid": 705934665962668032, "text": "#burger kinda night #toronto #ohboyburger #livehappy #delicious #fabulousfriday @ OH BOY! Burger\u2026 https://t.co/qeRCpFKYMv", "created_at": "Sat Mar 05 01:55:14 +0000 2016", "klabel": 116}}, {"geometry": {"type": "Point", "coordinates": [-79.374118, 43.66461]}, "type": "Feature", "id": 705950782701441026, "properties": {"loc": [-79.374118, 43.66461], "centroid": [-79.28091565697635, 43.74141056625], "screen_name": "sarasimms", "time": 1457164757.0, "tid": 705950782701441026, "text": "Nice to meet you @tinashe #Tinashe #SaraSimms #JoyrideWorldtour #Toronto #love @ Phoenix Concert\u2026 https://t.co/uiFDDaJLA7", "created_at": "Sat Mar 05 02:59:17 +0000 2016", "klabel": 116}}, {"geometry": {"type": "Point", "coordinates": [-79.374118, 43.66461]}, "type": "Feature", "id": 705952991258411008, "properties": {"loc": [-79.374118, 43.66461], "centroid": [-79.28091565697635, 43.74141056625], "screen_name": "Donburi_CAN", "time": 1457165283.0, "tid": 705952991258411008, "text": "At the #tinashe #concert now at #Phoenix #nightclub. Show just started. More updates @ Phoenix\u2026 https://t.co/J2DZpU5o5X", "created_at": "Sat Mar 05 03:08:03 +0000 2016", "klabel": 116}}, {"geometry": {"type": "Point", "coordinates": [-79.374118, 43.66461]}, "type": "Feature", "id": 705953404384735232, "properties": {"loc": [-79.374118, 43.66461], "centroid": [-79.28091565697635, 43.74141056625], "screen_name": "Donburi_CAN", "time": 1457165382.0, "tid": 705953404384735232, "text": "#Tinashe #opening act at the #Phoenix #club #blogto #toronto #the6ix #pop #kiss925 #rnb #music @\u2026 https://t.co/BKi0CqYz3k", "created_at": "Sat Mar 05 03:09:42 +0000 2016", "klabel": 116}}, {"geometry": {"type": "Point", "coordinates": [-79.3705, 43.65837]}, "type": "Feature", "id": 705957378806714368, "properties": {"loc": [-79.3705, 43.65837], "centroid": [-79.28091565697635, 43.74141056625], "screen_name": "danipoliszuk", "time": 1457166329.0, "tid": 705957378806714368, "text": "\"Shawn, take an artsy picture of me!\" @ AGO - Art Gallery of Ontario https://t.co/DPjy0M9Mhf", "created_at": "Sat Mar 05 03:25:29 +0000 2016", "klabel": 116}}, {"geometry": {"type": "Point", "coordinates": [-79.374118, 43.66461]}, "type": "Feature", "id": 705960850784280577, "properties": {"loc": [-79.374118, 43.66461], "centroid": [-79.28091565697635, 43.74141056625], "screen_name": "alexpollardxo", "time": 1457167157.0, "tid": 705960850784280577, "text": "TINASHE!!!!!!! @ Phoenix Concert Theater https://t.co/uBeyaourZL", "created_at": "Sat Mar 05 03:39:17 +0000 2016", "klabel": 116}}, {"geometry": {"type": "Point", "coordinates": [-79.374118, 43.66461]}, "type": "Feature", "id": 705964572209913856, "properties": {"loc": [-79.374118, 43.66461], "centroid": [-79.28091565697635, 43.74141056625], "screen_name": "hannerJ", "time": 1457168044.0, "tid": 705964572209913856, "text": "Live: Tinashe performing at the Phoenix tonight. #Tinashe #dayamgurl\u2026 https://t.co/vLGQokwpdO", "created_at": "Sat Mar 05 03:54:04 +0000 2016", "klabel": 116}}, {"geometry": {"type": "Point", "coordinates": [-79.374118, 43.66461]}, "type": "Feature", "id": 705965370151047168, "properties": {"loc": [-79.374118, 43.66461], "centroid": [-79.28091565697635, 43.74141056625], "screen_name": "Donburi_CAN", "time": 1457168235.0, "tid": 705965370151047168, "text": "Can't imagine anyone would play you #tinashe @ Phoenix Concert Theater https://t.co/wFLvEi1PNZ", "created_at": "Sat Mar 05 03:57:15 +0000 2016", "klabel": 116}}, {"geometry": {"type": "Point", "coordinates": [-79.374118, 43.66461]}, "type": "Feature", "id": 705966003293810688, "properties": {"loc": [-79.374118, 43.66461], "centroid": [-79.28091565697635, 43.74141056625], "screen_name": "Donburi_CAN", "time": 1457168386.0, "tid": 705966003293810688, "text": "Top hits from #tinashe love this #song #nowtoronto #buzzfeed #theverve #blogto #thestar #the6ix\u2026 https://t.co/v6o6jQA3Yw", "created_at": "Sat Mar 05 03:59:46 +0000 2016", "klabel": 116}}, {"geometry": {"type": "Point", "coordinates": [-79.374118, 43.66461]}, "type": "Feature", "id": 705974937916342272, "properties": {"loc": [-79.374118, 43.66461], "centroid": [-79.28091565697635, 43.74141056625], "screen_name": "TanyaCheex", "time": 1457170516.0, "tid": 705974937916342272, "text": "So many people to thank for this. Horns by lauralace Hair by mikahstyleswigworld Costume by\u2026 https://t.co/iKtaCusahe", "created_at": "Sat Mar 05 04:35:16 +0000 2016", "klabel": 116}}, {"geometry": {"type": "Point", "coordinates": [-79.374118, 43.66461]}, "type": "Feature", "id": 705991448718680068, "properties": {"loc": [-79.374118, 43.66461], "centroid": [-79.28091565697635, 43.74141056625], "screen_name": "itsBrendonxo", "time": 1457174452.0, "tid": 705991448718680068, "text": "She killed it tonight , amazing show @tinashe #joyride #tinashe  #joyrideworldtour @ Phoenix\u2026 https://t.co/MGyI5pZwyV", "created_at": "Sat Mar 05 05:40:52 +0000 2016", "klabel": 116}}, {"geometry": {"type": "Point", "coordinates": [-79.3705, 43.65837]}, "type": "Feature", "id": 705997003415818240, "properties": {"loc": [-79.3705, 43.65837], "centroid": [-79.28091565697635, 43.74141056625], "screen_name": "Moshiology", "time": 1457175777.0, "tid": 705997003415818240, "text": "first summer in toronto. summer '14. #freshofftheboat @ AGO - Art\u2026 https://t.co/5YQ28pstnN", "created_at": "Sat Mar 05 06:02:57 +0000 2016", "klabel": 116}}, {"geometry": {"type": "Point", "coordinates": [-79.374118, 43.66461]}, "type": "Feature", "id": 705999006581784576, "properties": {"loc": [-79.374118, 43.66461], "centroid": [-79.28091565697635, 43.74141056625], "screen_name": "MichaelCadoch", "time": 1457176254.0, "tid": 705999006581784576, "text": "Met my bae @tinashe after the show!! She's so damn cute \ud83d\ude0d\ud83d\ude0d\ud83d\ude0d #JoyrideTourToronto @ Phoenix\u2026 https://t.co/99Zm7V1qCa", "created_at": "Sat Mar 05 06:10:54 +0000 2016", "klabel": 116}}, {"geometry": {"type": "Point", "coordinates": [-79.3732944, 43.6656244]}, "type": "Feature", "id": 706071763298361344, "properties": {"loc": [-79.3732944, 43.6656244], "centroid": [-79.28091565697635, 43.74141056625], "screen_name": "myblocktyler", "time": 1457193601.0, "tid": 706071763298361344, "text": "vv The 5 Things You Learn Within 3 Minutes Of Meeting Someone New https://t.co/3Wzze5ytYT", "created_at": "Sat Mar 05 11:00:01 +0000 2016", "klabel": 116}}, {"geometry": {"type": "Point", "coordinates": [-79.37471407, 43.6626968]}, "type": "Feature", "id": 706093696144580608, "properties": {"loc": [-79.37471407, 43.6626968], "centroid": [-79.28091565697635, 43.74141056625], "screen_name": "bruceyyz", "time": 1457198830.0, "tid": 706093696144580608, "text": "I'm at 77 Maitland Place in Toronto, ON https://t.co/RXfwqvhNeu", "created_at": "Sat Mar 05 12:27:10 +0000 2016", "klabel": 116}}, {"geometry": {"type": "Point", "coordinates": [-79.374118, 43.66461]}, "type": "Feature", "id": 706105284154929152, "properties": {"loc": [-79.374118, 43.66461], "centroid": [-79.28091565697635, 43.74141056625], "screen_name": "MrMikeBax", "time": 1457201593.0, "tid": 706105284154929152, "text": "@tinashe #tinashe delivers some #coldsweat in Toronto ;) @thephoenixtdot @sony_music #joyride\u2026 https://t.co/0y2QITupNZ", "created_at": "Sat Mar 05 13:13:13 +0000 2016", "klabel": 116}}, {"geometry": {"type": "Point", "coordinates": [-79.3705, 43.65837]}, "type": "Feature", "id": 706111886035652608, "properties": {"loc": [-79.3705, 43.65837], "centroid": [-79.28091565697635, 43.74141056625], "screen_name": "danipoliszuk", "time": 1457203167.0, "tid": 706111886035652608, "text": "TO @ AGO - Art Gallery of Ontario https://t.co/Bt1TBcPcJt", "created_at": "Sat Mar 05 13:39:27 +0000 2016", "klabel": 116}}, {"geometry": {"type": "Point", "coordinates": [-79.374118, 43.66461]}, "type": "Feature", "id": 706144658049540096, "properties": {"loc": [-79.374118, 43.66461], "centroid": [-79.28091565697635, 43.74141056625], "screen_name": "TellemJay89", "time": 1457210980.0, "tid": 706144658049540096, "text": "Last night with the beautiful &amp; humble @tinashe after she killed the stage for her show\u2026 https://t.co/V71sCC6VuM", "created_at": "Sat Mar 05 15:49:40 +0000 2016", "klabel": 116}}, {"geometry": {"type": "Point", "coordinates": [-79.3682, 43.66447]}, "type": "Feature", "id": 706148057549770752, "properties": {"loc": [-79.3682, 43.66447], "centroid": [-79.28091565697635, 43.74141056625], "screen_name": "LuiSays", "time": 1457211791.0, "tid": 706148057549770752, "text": "The \"Jermemy Lin\" is set to hit our tables when we launch #Break4Brunch later this month.\u2026 https://t.co/9trXEJbbtC", "created_at": "Sat Mar 05 16:03:11 +0000 2016", "klabel": 116}}, {"geometry": {"type": "Point", "coordinates": [-79.374118, 43.66461]}, "type": "Feature", "id": 706157246858829826, "properties": {"loc": [-79.374118, 43.66461], "centroid": [-79.28091565697635, 43.74141056625], "screen_name": "AidanSFisher", "time": 1457213982.0, "tid": 706157246858829826, "text": "Joyride #tinashe @ Phoenix Concert Theater https://t.co/XNZIadWYP3", "created_at": "Sat Mar 05 16:39:42 +0000 2016", "klabel": 116}}, {"geometry": {"type": "Point", "coordinates": [-79.37444444, 43.66166667]}, "type": "Feature", "id": 707606510017191936, "properties": {"loc": [-79.37444444, 43.66166667], "centroid": [-79.28091565697635, 43.74141056625], "screen_name": "saagnaak", "time": 1457559513.0, "tid": 707606510017191936, "text": "It's not Mexico, It's middle of Toronto\ud83c\udf35 #cactus #botanical #botanicalgarden #botanicgarden\u2026 https://t.co/HVzb29MHG1", "created_at": "Wed Mar 09 16:38:33 +0000 2016", "klabel": 116}}, {"geometry": {"type": "Point", "coordinates": [-79.374118, 43.66461]}, "type": "Feature", "id": 707624096356540419, "properties": {"loc": [-79.374118, 43.66461], "centroid": [-79.28091565697635, 43.74141056625], "screen_name": "StephenSzulc", "time": 1457563706.0, "tid": 707624096356540419, "text": "My boy @logic301 \u270c\ud83c\udffc\ufe0f @ Phoenix Concert Theatre https://t.co/e1ravYEPRb", "created_at": "Wed Mar 09 17:48:26 +0000 2016", "klabel": 116}}, {"geometry": {"type": "Point", "coordinates": [-79.3705, 43.65837]}, "type": "Feature", "id": 707628607808663556, "properties": {"loc": [-79.3705, 43.65837], "centroid": [-79.28091565697635, 43.74141056625], "screen_name": "yyzgirl", "time": 1457564781.0, "tid": 707628607808663556, "text": "I can call myself a #Beat! #jazz #photography #OutsidersAGO #art #robertfrank #alfredleslie\u2026 https://t.co/y6miMrKX5c", "created_at": "Wed Mar 09 18:06:21 +0000 2016", "klabel": 116}}, {"geometry": {"type": "Point", "coordinates": [-79.3685649, 43.6563352]}, "type": "Feature", "id": 749765185586495489, "properties": {"loc": [-79.3685649, 43.6563352], "centroid": [-79.28091565697635, 43.74141056625], "screen_name": "tpscalls", "time": 1467610924.0, "tid": 749765185586495489, "text": "Property Damage Collision | Ln N Queen E Sherbourne &amp; Shuter St [51 Div.] 07/03 20:36 #Downtown #Toronto", "created_at": "Mon Jul 04 00:42:04 +0000 2016", "klabel": 116}}, {"geometry": {"type": "Point", "coordinates": [-79.3723625, 43.6581649]}, "type": "Feature", "id": 749775004724785152, "properties": {"loc": [-79.3723625, 43.6581649], "centroid": [-79.28091565697635, 43.74141056625], "screen_name": "tofire", "time": 1467613265.0, "tid": 749775004724785152, "text": "Medical (Vsa) - Dundas St East @ Pembroke St, Toronto (2 Trucks)", "created_at": "Mon Jul 04 01:21:05 +0000 2016", "klabel": 116}}, {"geometry": {"type": "Point", "coordinates": [-79.3723625, 43.6581649]}, "type": "Feature", "id": 749775005542670336, "properties": {"loc": [-79.3723625, 43.6581649], "centroid": [-79.28091565697635, 43.74141056625], "screen_name": "tofireS", "time": 1467613266.0, "tid": 749775005542670336, "text": "Medical (Vsa) - Dundas St East @ Pembroke St, Toronto (2 Trucks)", "created_at": "Mon Jul 04 01:21:06 +0000 2016", "klabel": 116}}, {"geometry": {"type": "Point", "coordinates": [-79.3721335, 43.663387]}, "type": "Feature", "id": 749775752871247876, "properties": {"loc": [-79.3721335, 43.663387], "centroid": [-79.28091565697635, 43.74141056625], "screen_name": "tpscalls", "time": 1467613444.0, "tid": 749775752871247876, "text": "Assault In Progress | Gerrard St W &amp; Carlton St [51 Div.] 07/03 21:18 #Downtown #Toronto", "created_at": "Mon Jul 04 01:24:04 +0000 2016", "klabel": 116}}, {"geometry": {"type": "Point", "coordinates": [-79.3714065, 43.655889]}, "type": "Feature", "id": 749782547316543488, "properties": {"loc": [-79.3714065, 43.655889], "centroid": [-79.28091565697635, 43.74141056625], "screen_name": "tpscalls", "time": 1467615064.0, "tid": 749782547316543488, "text": "See Ambulance | Pembroke St &amp; Shuter St [51 Div.] 07/03 21:46 #Downtown #Toronto", "created_at": "Mon Jul 04 01:51:04 +0000 2016", "klabel": 116}}, {"geometry": {"type": "Point", "coordinates": [-79.3711608, 43.6683854]}, "type": "Feature", "id": 749793115767185408, "properties": {"loc": [-79.3711608, 43.6683854], "centroid": [-79.28091565697635, 43.74141056625], "screen_name": "tpscalls", "time": 1467617583.0, "tid": 749793115767185408, "text": "See Ambulance | Ontario St &amp; Rose Ave [51 Div.] 07/03 22:29 #Downtown #Toronto", "created_at": "Mon Jul 04 02:33:03 +0000 2016", "klabel": 116}}, {"geometry": {"type": "Point", "coordinates": [-79.3695427, 43.6681673]}, "type": "Feature", "id": 749812834977124352, "properties": {"loc": [-79.3695427, 43.6681673], "centroid": [-79.28091565697635, 43.74141056625], "screen_name": "tpscalls", "time": 1467622285.0, "tid": 749812834977124352, "text": "See Ambulance | Wellesley St E &amp; Parliament St [51 Div.] 07/03 23:47 #Downtown #Toronto", "created_at": "Mon Jul 04 03:51:25 +0000 2016", "klabel": 116}}, {"geometry": {"type": "Point", "coordinates": [-79.3660614, 43.663527]}, "type": "Feature", "id": 749843142996787200, "properties": {"loc": [-79.3660614, 43.663527], "centroid": [-79.28091565697635, 43.74141056625], "screen_name": "tofire", "time": 1467629511.0, "tid": 749843142996787200, "text": "Check Call - Spruce St b/w Dermott Pl / Sackville St, Toronto (2 Trucks)", "created_at": "Mon Jul 04 05:51:51 +0000 2016", "klabel": 116}}, {"geometry": {"type": "Point", "coordinates": [-79.3660614, 43.663527]}, "type": "Feature", "id": 749843143781183488, "properties": {"loc": [-79.3660614, 43.663527], "centroid": [-79.28091565697635, 43.74141056625], "screen_name": "tofireS", "time": 1467629511.0, "tid": 749843143781183488, "text": "Check Call - Spruce St b/w Dermott Pl / Sackville St, Toronto (2 Trucks)", "created_at": "Mon Jul 04 05:51:51 +0000 2016", "klabel": 116}}, {"geometry": {"type": "Point", "coordinates": [-79.3737285, 43.667269]}, "type": "Feature", "id": 749885973144670208, "properties": {"loc": [-79.3737285, 43.667269], "centroid": [-79.28091565697635, 43.74141056625], "screen_name": "tpscalls", "time": 1467639722.0, "tid": 749885973144670208, "text": "Person With A Knife | Breadalbane St &amp; Wellesley St E [52 Div.] 07/04 04:37 #Downtown #Toronto", "created_at": "Mon Jul 04 08:42:02 +0000 2016", "klabel": 116}}, {"geometry": {"type": "Point", "coordinates": [-79.3737285, 43.667269]}, "type": "Feature", "id": 749968271659692034, "properties": {"loc": [-79.3737285, 43.667269], "centroid": [-79.28091565697635, 43.74141056625], "screen_name": "tpscalls", "time": 1467659344.0, "tid": 749968271659692034, "text": "Unknown Trouble | Carlton St &amp; Wellesley St E [51 Div.] 07/04 10:05 #Downtown #Toronto", "created_at": "Mon Jul 04 14:09:04 +0000 2016", "klabel": 116}}, {"geometry": {"type": "Point", "coordinates": [-79.3710399, 43.66341]}, "type": "Feature", "id": 749978922582994944, "properties": {"loc": [-79.3710399, 43.66341], "centroid": [-79.28091565697635, 43.74141056625], "screen_name": "h_tothe_D", "time": 1467661883.0, "tid": 749978922582994944, "text": "Who do you call when you need a bunch of branded shirts in a pinch? Toronto's own\u2026 https://t.co/CQoxf8KENR", "created_at": "Mon Jul 04 14:51:23 +0000 2016", "klabel": 116}}, {"geometry": {"type": "Point", "coordinates": [-79.37444444, 43.66166667]}, "type": "Feature", "id": 750116483196477440, "properties": {"loc": [-79.37444444, 43.66166667], "centroid": [-79.28091565697635, 43.74141056625], "screen_name": "agbokchoy", "time": 1467694680.0, "tid": 750116483196477440, "text": "BLOOM @ Allan Gardens https://t.co/wDcIO4B0bQ", "created_at": "Mon Jul 04 23:58:00 +0000 2016", "klabel": 116}}, {"geometry": {"type": "Point", "coordinates": [-79.3705, 43.65837]}, "type": "Feature", "id": 750118495711588352, "properties": {"loc": [-79.3705, 43.65837], "centroid": [-79.28091565697635, 43.74141056625], "screen_name": "strangersofcirc", "time": 1467695160.0, "tid": 750118495711588352, "text": "Just posted a photo @ AGO - Art Gallery of Ontario https://t.co/5T0h2aHMR8", "created_at": "Tue Jul 05 00:06:00 +0000 2016", "klabel": 116}}, {"geometry": {"type": "Point", "coordinates": [-79.3737285, 43.667269]}, "type": "Feature", "id": 750126060172435456, "properties": {"loc": [-79.3737285, 43.667269], "centroid": [-79.28091565697635, 43.74141056625], "screen_name": "tpscalls", "time": 1467696964.0, "tid": 750126060172435456, "text": "Unknown Trouble | Carlton St &amp; Wellesley St E [51 Div.] 07/04 20:32 #Downtown #Toronto", "created_at": "Tue Jul 05 00:36:04 +0000 2016", "klabel": 116}}, {"geometry": {"type": "Point", "coordinates": [-79.36569565, 43.65845423]}, "type": "Feature", "id": 750136276104327169, "properties": {"loc": [-79.36569565, 43.65845423], "centroid": [-79.28091565697635, 43.74141056625], "screen_name": "Madmanfk", "time": 1467699399.0, "tid": 750136276104327169, "text": "Just posted a photo @ sukhoTHAI https://t.co/ow75LiNFEX", "created_at": "Tue Jul 05 01:16:39 +0000 2016", "klabel": 116}}, {"geometry": {"type": "Point", "coordinates": [-79.36569565, 43.65845423]}, "type": "Feature", "id": 750139410167918592, "properties": {"loc": [-79.36569565, 43.65845423], "centroid": [-79.28091565697635, 43.74141056625], "screen_name": "Madmanfk", "time": 1467700146.0, "tid": 750139410167918592, "text": "Khao Soi @ sukhoTHAI https://t.co/LXXqEBaPD0", "created_at": "Tue Jul 05 01:29:06 +0000 2016", "klabel": 116}}, {"geometry": {"type": "Point", "coordinates": [-79.3737285, 43.667269]}, "type": "Feature", "id": 750153493563006976, "properties": {"loc": [-79.3737285, 43.667269], "centroid": [-79.28091565697635, 43.74141056625], "screen_name": "tofire", "time": 1467703504.0, "tid": 750153493563006976, "text": "Alarm Highrise Residential - Wellesley St b/w Bleecker St / Ontario St, Toronto (6 Trucks)", "created_at": "Tue Jul 05 02:25:04 +0000 2016", "klabel": 116}}, {"geometry": {"type": "Point", "coordinates": [-79.3658847, 43.6591784]}, "type": "Feature", "id": 750158525452656641, "properties": {"loc": [-79.3658847, 43.6591784], "centroid": [-79.28091565697635, 43.74141056625], "screen_name": "tpscalls", "time": 1467704704.0, "tid": 750158525452656641, "text": "Unknown Trouble | Darling Lane &amp; Parliament St [51 Div.] 07/04 22:40 #Downtown #Toronto", "created_at": "Tue Jul 05 02:45:04 +0000 2016", "klabel": 116}}, {"geometry": {"type": "Point", "coordinates": [-79.3714065, 43.655889]}, "type": "Feature", "id": 750162308106682370, "properties": {"loc": [-79.3714065, 43.655889], "centroid": [-79.28091565697635, 43.74141056625], "screen_name": "tofireS", "time": 1467705606.0, "tid": 750162308106682370, "text": "Vehicle (Personal Injury) - Pembroke St @ Shuter St, Toronto (2 Trucks)", "created_at": "Tue Jul 05 03:00:06 +0000 2016", "klabel": 116}}, {"geometry": {"type": "Point", "coordinates": [-79.3714065, 43.655889]}, "type": "Feature", "id": 750166831919398912, "properties": {"loc": [-79.3714065, 43.655889], "centroid": [-79.28091565697635, 43.74141056625], "screen_name": "tpscalls", "time": 1467706684.0, "tid": 750166831919398912, "text": "Personal Injury Collision | Shuter St &amp; Pembroke St [HP] 07/04 23:13 #Downtown #Toronto", "created_at": "Tue Jul 05 03:18:04 +0000 2016", "klabel": 116}}, {"geometry": {"type": "Point", "coordinates": [-79.3737285, 43.667269]}, "type": "Feature", "id": 750178156041076736, "properties": {"loc": [-79.3737285, 43.667269], "centroid": [-79.28091565697635, 43.74141056625], "screen_name": "tpscalls", "time": 1467709384.0, "tid": 750178156041076736, "text": "Unknown Trouble | Bleecker St &amp; Ontario St [51 Div.] 07/04 23:58 #Downtown #Toronto", "created_at": "Tue Jul 05 04:03:04 +0000 2016", "klabel": 116}}, {"geometry": {"type": "Point", "coordinates": [-79.3723625, 43.6581649]}, "type": "Feature", "id": 750181930239483904, "properties": {"loc": [-79.3723625, 43.6581649], "centroid": [-79.28091565697635, 43.74141056625], "screen_name": "tpscalls", "time": 1467710284.0, "tid": 750181930239483904, "text": "Disorderlies | George St &amp; Pembroke St [51 Div.] 07/05 00:14 #Downtown #Toronto", "created_at": "Tue Jul 05 04:18:04 +0000 2016", "klabel": 116}}, {"geometry": {"type": "Point", "coordinates": [-79.3691673, 43.667263]}, "type": "Feature", "id": 750182439184633856, "properties": {"loc": [-79.3691673, 43.667263], "centroid": [-79.28091565697635, 43.74141056625], "screen_name": "tofireS", "time": 1467710405.0, "tid": 750182439184633856, "text": "Medical (Chest Pains) - Parliament St b/w Amelia St / Wellesley St East, Toronto (2 Trucks)", "created_at": "Tue Jul 05 04:20:05 +0000 2016", "klabel": 116}}, {"geometry": {"type": "Point", "coordinates": [-79.3721335, 43.663387]}, "type": "Feature", "id": 750193252058402816, "properties": {"loc": [-79.3721335, 43.663387], "centroid": [-79.28091565697635, 43.74141056625], "screen_name": "tpscalls", "time": 1467712983.0, "tid": 750193252058402816, "text": "Assault | Gerrard St W &amp; Carlton St [51 Div.] 07/05 00:57 #Downtown #Toronto", "created_at": "Tue Jul 05 05:03:03 +0000 2016", "klabel": 116}}, {"geometry": {"type": "Point", "coordinates": [-79.3737285, 43.667269]}, "type": "Feature", "id": 750198541130366976, "properties": {"loc": [-79.3737285, 43.667269], "centroid": [-79.28091565697635, 43.74141056625], "screen_name": "tpscalls", "time": 1467714244.0, "tid": 750198541130366976, "text": "Break &amp; Enter | Bleecker St &amp; Ontario St [51 Div.] 07/05 01:19 #Downtown #Toronto", "created_at": "Tue Jul 05 05:24:04 +0000 2016", "klabel": 116}}, {"geometry": {"type": "Point", "coordinates": [-79.369443, 43.6545287]}, "type": "Feature", "id": 750225959387820032, "properties": {"loc": [-79.369443, 43.6545287], "centroid": [-79.28091565697635, 43.74141056625], "screen_name": "tpscalls", "time": 1467720781.0, "tid": 750225959387820032, "text": "Assault Just Occurred | Queen St E &amp; Sherbourne St [51 Div.] 07/05 03:07 #Downtown #Toronto", "created_at": "Tue Jul 05 07:13:01 +0000 2016", "klabel": 116}}, {"geometry": {"type": "Point", "coordinates": [-79.3737285, 43.667269]}, "type": "Feature", "id": 750227973442244608, "properties": {"loc": [-79.3737285, 43.667269], "centroid": [-79.28091565697635, 43.74141056625], "screen_name": "tofireS", "time": 1467721262.0, "tid": 750227973442244608, "text": "Medical (Chest Pains) - Bleecker St b/w Wellesley St East / Earl St, Toronto (2 Trucks)", "created_at": "Tue Jul 05 07:21:02 +0000 2016", "klabel": 116}}, {"geometry": {"type": "Point", "coordinates": [-79.3737285, 43.667269]}, "type": "Feature", "id": 750227972624412672, "properties": {"loc": [-79.3737285, 43.667269], "centroid": [-79.28091565697635, 43.74141056625], "screen_name": "tofire", "time": 1467721261.0, "tid": 750227972624412672, "text": "Medical (Chest Pains) - Bleecker St b/w Wellesley St East / Earl St, Toronto (2 Trucks)", "created_at": "Tue Jul 05 07:21:01 +0000 2016", "klabel": 116}}, {"geometry": {"type": "Point", "coordinates": [-79.3709965, 43.658302]}, "type": "Feature", "id": 750262197532655616, "properties": {"loc": [-79.3709965, 43.658302], "centroid": [-79.28091565697635, 43.74141056625], "screen_name": "tpscalls", "time": 1467729421.0, "tid": 750262197532655616, "text": "Unknown Trouble | Dundas St E &amp; Sherbourne St [51 Div.] 07/05 05:31 #Downtown #Toronto", "created_at": "Tue Jul 05 09:37:01 +0000 2016", "klabel": 116}}, {"geometry": {"type": "Point", "coordinates": [-79.3671583, 43.6587152]}, "type": "Feature", "id": 750309513027325952, "properties": {"loc": [-79.3671583, 43.6587152], "centroid": [-79.28091565697635, 43.74141056625], "screen_name": "tpscalls", "time": 1467740702.0, "tid": 750309513027325952, "text": "Disorderlies | Shuter St &amp; Coatsworth St [51 Div.] 07/05 08:41 #Downtown #Toronto", "created_at": "Tue Jul 05 12:45:02 +0000 2016", "klabel": 116}}, {"geometry": {"type": "Point", "coordinates": [-79.3722185, 43.661228]}, "type": "Feature", "id": 750330657008738304, "properties": {"loc": [-79.3722185, 43.661228], "centroid": [-79.28091565697635, 43.74141056625], "screen_name": "tpscalls", "time": 1467745743.0, "tid": 750330657008738304, "text": "See Ambulance | Homewood Ave &amp; Sherbourne St [51 Div.] 07/05 10:05 #Downtown #Toronto", "created_at": "Tue Jul 05 14:09:03 +0000 2016", "klabel": 116}}, {"geometry": {"type": "Point", "coordinates": [-79.36424092, 43.65982235]}, "type": "Feature", "id": 750331821917954048, "properties": {"loc": [-79.36424092, 43.65982235], "centroid": [-79.28091565697635, 43.74141056625], "screen_name": "whitestar2009", "time": 1467746021.0, "tid": 750331821917954048, "text": "Checked in automatically with the Uber Checkin app! https://t.co/BYHxUki1A7 (@ Regent Park in Toronto, ON) https://t.co/OGvE9i0YTK", "created_at": "Tue Jul 05 14:13:41 +0000 2016", "klabel": 116}}, {"geometry": {"type": "Point", "coordinates": [-79.3671583, 43.6587152]}, "type": "Feature", "id": 750337696481087488, "properties": {"loc": [-79.3671583, 43.6587152], "centroid": [-79.28091565697635, 43.74141056625], "screen_name": "tpscalls", "time": 1467747422.0, "tid": 750337696481087488, "text": "Break &amp; Enter | St David St &amp; Coatsworth St [51 Div.] 07/05 10:30 #Downtown #Toronto", "created_at": "Tue Jul 05 14:37:02 +0000 2016", "klabel": 116}}, {"geometry": {"type": "Point", "coordinates": [-79.3731303, 43.6564694]}, "type": "Feature", "id": 750361496312487936, "properties": {"loc": [-79.3731303, 43.6564694], "centroid": [-79.28091565697635, 43.74141056625], "screen_name": "WISEDOMHE", "time": 1467753096.0, "tid": 750361496312487936, "text": "@JamaicaGleaner lol TnT don't wanna lose that $730millions USA dollars coming from JA", "created_at": "Tue Jul 05 16:11:36 +0000 2016", "klabel": 116}}, {"geometry": {"type": "Point", "coordinates": [-79.3731303, 43.6564694]}, "type": "Feature", "id": 750371293292212225, "properties": {"loc": [-79.3731303, 43.6564694], "centroid": [-79.28091565697635, 43.74141056625], "screen_name": "WISEDOMHE", "time": 1467755432.0, "tid": 750371293292212225, "text": "@JamaicaOlympics @YohanBlake Jamaican Athletes will not give away their 100_200_400 meters to no one its their breadanbutter ,Yardee mi seh", "created_at": "Tue Jul 05 16:50:32 +0000 2016", "klabel": 116}}, {"geometry": {"type": "Point", "coordinates": [-79.3710399, 43.66341]}, "type": "Feature", "id": 750381693492690944, "properties": {"loc": [-79.3710399, 43.66341], "centroid": [-79.28091565697635, 43.74141056625], "screen_name": "h_tothe_D", "time": 1467757911.0, "tid": 750381693492690944, "text": "kathleenmpye is T's new snuggle buddy. #fbrngrad #egaledogs #torontodogs #frenchbulldog @ Egale\u2026 https://t.co/Mfj2GrJO3B", "created_at": "Tue Jul 05 17:31:51 +0000 2016", "klabel": 116}}, {"geometry": {"type": "Point", "coordinates": [-79.3737285, 43.667269]}, "type": "Feature", "id": 751626200452399112, "properties": {"loc": [-79.3737285, 43.667269], "centroid": [-79.28091565697635, 43.74141056625], "screen_name": "tpscalls", "time": 1468054625.0, "tid": 751626200452399112, "text": "Hazard | Bleecker St &amp; Ontario St [51 Div.] 07/08 23:52 #Downtown #Toronto", "created_at": "Sat Jul 09 03:57:05 +0000 2016", "klabel": 116}}, {"geometry": {"type": "Point", "coordinates": [-79.3737285, 43.667269]}, "type": "Feature", "id": 751633744180764672, "properties": {"loc": [-79.3737285, 43.667269], "centroid": [-79.28091565697635, 43.74141056625], "screen_name": "tpscalls", "time": 1468056423.0, "tid": 751633744180764672, "text": "Assault | Carlton St &amp; Wellesley St E [51 Div.] 07/09 00:22 #Downtown #Toronto", "created_at": "Sat Jul 09 04:27:03 +0000 2016", "klabel": 116}}, {"geometry": {"type": "Point", "coordinates": [-79.3658847, 43.6591784]}, "type": "Feature", "id": 751703953650356224, "properties": {"loc": [-79.3658847, 43.6591784], "centroid": [-79.28091565697635, 43.74141056625], "screen_name": "tpscalls", "time": 1468073163.0, "tid": 751703953650356224, "text": "Unknown Trouble | Darling Lane &amp; Parliament St [51 Div.] 07/09 05:02 #Downtown #Toronto", "created_at": "Sat Jul 09 09:06:03 +0000 2016", "klabel": 116}}, {"geometry": {"type": "Point", "coordinates": [-79.3698091, 43.6673745]}, "type": "Feature", "id": 751739438963761153, "properties": {"loc": [-79.3698091, 43.6673745], "centroid": [-79.28091565697635, 43.74141056625], "screen_name": "tpscalls", "time": 1468081623.0, "tid": 751739438963761153, "text": "Unknown Trouble | Rose Ave &amp; Darling Lane [51 Div.] 07/09 07:23 #Downtown #Toronto", "created_at": "Sat Jul 09 11:27:03 +0000 2016", "klabel": 116}}, {"geometry": {"type": "Point", "coordinates": [-79.3685649, 43.6563352]}, "type": "Feature", "id": 751772658245795840, "properties": {"loc": [-79.3685649, 43.6563352], "centroid": [-79.28091565697635, 43.74141056625], "screen_name": "tpscalls", "time": 1468089543.0, "tid": 751772658245795840, "text": "Theft | Ln N Queen E Sherbourne &amp; Shuter St [51 Div.] 07/09 09:33 #Downtown #Toronto", "created_at": "Sat Jul 09 13:39:03 +0000 2016", "klabel": 116}}, {"geometry": {"type": "Point", "coordinates": [-79.3737285, 43.667269]}, "type": "Feature", "id": 751810407782809600, "properties": {"loc": [-79.3737285, 43.667269], "centroid": [-79.28091565697635, 43.74141056625], "screen_name": "tpscalls", "time": 1468098543.0, "tid": 751810407782809600, "text": "See Ambulance | Carlton St &amp; Wellesley St E [51 Div.] 07/09 12:03 #Downtown #Toronto", "created_at": "Sat Jul 09 16:09:03 +0000 2016", "klabel": 116}}, {"geometry": {"type": "Point", "coordinates": [-79.3705376, 43.66365933]}, "type": "Feature", "id": 751835317246758912, "properties": {"loc": [-79.3705376, 43.66365933], "centroid": [-79.28091565697635, 43.74141056625], "screen_name": "theirvpub", "time": 1468104482.0, "tid": 751835317246758912, "text": "We hope you tuned in to newstalk1010 this afternoon! @ The Irv Gastro Pub https://t.co/zd4BqtFvtX", "created_at": "Sat Jul 09 17:48:02 +0000 2016", "klabel": 116}}, {"geometry": {"type": "Point", "coordinates": [-79.3722185, 43.661228]}, "type": "Feature", "id": 751841361385689088, "properties": {"loc": [-79.3722185, 43.661228], "centroid": [-79.28091565697635, 43.74141056625], "screen_name": "tpscalls", "time": 1468105923.0, "tid": 751841361385689088, "text": "Break &amp; Enter | Pembroke St &amp; Sherbourne St [51 Div.] 07/09 14:06 #Downtown #Toronto", "created_at": "Sat Jul 09 18:12:03 +0000 2016", "klabel": 116}}, {"geometry": {"type": "Point", "coordinates": [-79.3737285, 43.667269]}, "type": "Feature", "id": 751874835610013696, "properties": {"loc": [-79.3737285, 43.667269], "centroid": [-79.28091565697635, 43.74141056625], "screen_name": "tofire", "time": 1468113904.0, "tid": 751874835610013696, "text": "Rescue (Elevator) - Wellesley St b/w Bleecker St / Ontario St, Toronto (3 Trucks)", "created_at": "Sat Jul 09 20:25:04 +0000 2016", "klabel": 116}}, {"geometry": {"type": "Point", "coordinates": [-79.3737285, 43.667269]}, "type": "Feature", "id": 751874836515938304, "properties": {"loc": [-79.3737285, 43.667269], "centroid": [-79.28091565697635, 43.74141056625], "screen_name": "tofireS", "time": 1468113904.0, "tid": 751874836515938304, "text": "Rescue (Elevator) - Wellesley St b/w Bleecker St / Ontario St, Toronto (3 Trucks)", "created_at": "Sat Jul 09 20:25:04 +0000 2016", "klabel": 116}}, {"geometry": {"type": "Point", "coordinates": [-79.3707288, 43.6653961]}, "type": "Feature", "id": 751878862036996101, "properties": {"loc": [-79.3707288, 43.6653961], "centroid": [-79.28091565697635, 43.74141056625], "screen_name": "tofireS", "time": 1468114864.0, "tid": 751878862036996101, "text": "Alarm Residential - Winchester St b/w Clara Lane / Rose Avenue, Toronto (6 Trucks)", "created_at": "Sat Jul 09 20:41:04 +0000 2016", "klabel": 116}}, {"geometry": {"type": "Point", "coordinates": [-79.3662895, 43.656646]}, "type": "Feature", "id": 751901762492170240, "properties": {"loc": [-79.3662895, 43.656646], "centroid": [-79.28091565697635, 43.74141056625], "screen_name": "tpscalls", "time": 1468120324.0, "tid": 751901762492170240, "text": "Fight | Princess St &amp; Berkeley St [51 Div.] 07/09 18:07 #Downtown #Toronto", "created_at": "Sat Jul 09 22:12:04 +0000 2016", "klabel": 116}}, {"geometry": {"type": "Point", "coordinates": [-79.369396, 43.6563086]}, "type": "Feature", "id": 751934764265902080, "properties": {"loc": [-79.369396, 43.6563086], "centroid": [-79.28091565697635, 43.74141056625], "screen_name": "WISEDOMHE", "time": 1468128192.0, "tid": 751934764265902080, "text": "@CNN smh Obama you in wonderland  america is plain black and white since 1619  idiot", "created_at": "Sun Jul 10 00:23:12 +0000 2016", "klabel": 116}}, {"geometry": {"type": "Point", "coordinates": [-79.36969213, 43.65447948]}, "type": "Feature", "id": 751942959470219266, "properties": {"loc": [-79.36969213, 43.65447948], "centroid": [-79.28091565697635, 43.74141056625], "screen_name": "sillygwailo", "time": 1468130146.0, "tid": 751942959470219266, "text": "The bad news is I still have to transfer to go along the same route. But here I am, on Queen and Parliament. What a life.", "created_at": "Sun Jul 10 00:55:46 +0000 2016", "klabel": 116}}, {"geometry": {"type": "Point", "coordinates": [-79.3705, 43.65837]}, "type": "Feature", "id": 751945266543022080, "properties": {"loc": [-79.3705, 43.65837], "centroid": [-79.28091565697635, 43.74141056625], "screen_name": "TLColford", "time": 1468130696.0, "tid": 751945266543022080, "text": "A little while ago at the AGO \n-\n-\n#andywarhol @ AGO - Art Gallery of Ontario https://t.co/tzRQV1SvvD", "created_at": "Sun Jul 10 01:04:56 +0000 2016", "klabel": 116}}, {"geometry": {"type": "Point", "coordinates": [-79.3755384, 43.6596314]}, "type": "Feature", "id": 751975751340138496, "properties": {"loc": [-79.3755384, 43.6596314], "centroid": [-79.28091565697635, 43.74141056625], "screen_name": "tpscalls", "time": 1468137964.0, "tid": 751975751340138496, "text": "Wires Down | Mutual St &amp; Jarvis St [51 Div.] 07/09 23:02 #Downtown #Toronto", "created_at": "Sun Jul 10 03:06:04 +0000 2016", "klabel": 116}}, {"geometry": {"type": "Point", "coordinates": [-79.3737285, 43.667269]}, "type": "Feature", "id": 751995378267029505, "properties": {"loc": [-79.3737285, 43.667269], "centroid": [-79.28091565697635, 43.74141056625], "screen_name": "tpscalls", "time": 1468142644.0, "tid": 751995378267029505, "text": "Disorderlies | Carlton St &amp; Wellesley St E [51 Div.] 07/10 00:18 #Downtown #Toronto", "created_at": "Sun Jul 10 04:24:04 +0000 2016", "klabel": 116}}, {"geometry": {"type": "Point", "coordinates": [-79.3711608, 43.6683854]}, "type": "Feature", "id": 752062567397326848, "properties": {"loc": [-79.3711608, 43.6683854], "centroid": [-79.28091565697635, 43.74141056625], "screen_name": "tpscalls", "time": 1468158663.0, "tid": 752062567397326848, "text": "Impaired Driver | Ontario St &amp; Rose Ave [51 Div.] 07/10 04:47 #Downtown #Toronto", "created_at": "Sun Jul 10 08:51:03 +0000 2016", "klabel": 116}}, {"geometry": {"type": "Point", "coordinates": [-79.3732704, 43.6655685]}, "type": "Feature", "id": 752144103056429058, "properties": {"loc": [-79.3732704, 43.6655685], "centroid": [-79.28091565697635, 43.74141056625], "screen_name": "myblocktyler", "time": 1468178102.0, "tid": 752144103056429058, "text": "Snapchat introduces new way to save old snaps https://t.co/FER878Cgu4", "created_at": "Sun Jul 10 14:15:02 +0000 2016", "klabel": 116}}, {"geometry": {"type": "Point", "coordinates": [-79.3632821, 43.6607859]}, "type": "Feature", "id": 752156940977963008, "properties": {"loc": [-79.3632821, 43.6607859], "centroid": [-79.28091565697635, 43.74141056625], "screen_name": "tpscalls", "time": 1468181163.0, "tid": 752156940977963008, "text": "Unknown Trouble | Sackville St &amp; Cole St [51 Div.] 07/10 11:01 #Downtown #Toronto", "created_at": "Sun Jul 10 15:06:03 +0000 2016", "klabel": 116}}, {"geometry": {"type": "Point", "coordinates": [-79.36393, 43.65781]}, "type": "Feature", "id": 752168578565234689, "properties": {"loc": [-79.36393, 43.65781], "centroid": [-79.28091565697635, 43.74141056625], "screen_name": "strizzzy", "time": 1468183938.0, "tid": 752168578565234689, "text": "Part 2...\n\n2014, our dear friend @kingreignthe1st join us #MarkAndJem on the morning show\u2026 https://t.co/eClenIv8Mw", "created_at": "Sun Jul 10 15:52:18 +0000 2016", "klabel": 116}}, {"geometry": {"type": "Point", "coordinates": [-79.36811247, 43.66426557]}, "type": "Feature", "id": 752177958526345216, "properties": {"loc": [-79.36811247, 43.66426557], "centroid": [-79.28091565697635, 43.74141056625], "screen_name": "myblocktyler", "time": 1468186174.0, "tid": 752177958526345216, "text": "The #ChickenAndWaffles at @KanpaiSnackBar definitely hits the spot that's oh-so-hot! https://t.co/0v0Oiy1z5a https://t.co/ygJSgInqtl", "created_at": "Sun Jul 10 16:29:34 +0000 2016", "klabel": 116}}, {"geometry": {"type": "Point", "coordinates": [-79.36949, 43.66199]}, "type": "Feature", "id": 752178835185995780, "properties": {"loc": [-79.36949, 43.66199], "centroid": [-79.28091565697635, 43.74141056625], "screen_name": "sourceDsAlvaged", "time": 1468186383.0, "tid": 752178835185995780, "text": "We are open 12-5 get out and enjoy this beautiful day. @ Sourced &amp; Salvaged https://t.co/lDRaaoR8mU", "created_at": "Sun Jul 10 16:33:03 +0000 2016", "klabel": 116}}, {"geometry": {"type": "Point", "coordinates": [-79.36949, 43.66199]}, "type": "Feature", "id": 752184193153527808, "properties": {"loc": [-79.36949, 43.66199], "centroid": [-79.28091565697635, 43.74141056625], "screen_name": "sourceDsAlvaged", "time": 1468187661.0, "tid": 752184193153527808, "text": "Switchboard close up.                                                      .\u2026 https://t.co/AV7DUeTeEG", "created_at": "Sun Jul 10 16:54:21 +0000 2016", "klabel": 116}}, {"geometry": {"type": "Point", "coordinates": [-79.3705, 43.65837]}, "type": "Feature", "id": 752204661478731776, "properties": {"loc": [-79.3705, 43.65837], "centroid": [-79.28091565697635, 43.74141056625], "screen_name": "thecookietin", "time": 1468192541.0, "tid": 752204661478731776, "text": "Sorry @agotoronto but #hurvinanderson is way more interesting than #lawrenharris. @ AGO - Art\u2026 https://t.co/iBpXhgpRP6", "created_at": "Sun Jul 10 18:15:41 +0000 2016", "klabel": 116}}, {"geometry": {"type": "Point", "coordinates": [-79.37444444, 43.66166667]}, "type": "Feature", "id": 752224281334087680, "properties": {"loc": [-79.37444444, 43.66166667], "centroid": [-79.28091565697635, 43.74141056625], "screen_name": "Bueky21", "time": 1468197218.0, "tid": 752224281334087680, "text": "Live and let live, friends. \u2600\ufe0f\u2601\ufe0f @ Allan Gardens https://t.co/RA3fT3KPla", "created_at": "Sun Jul 10 19:33:38 +0000 2016", "klabel": 116}}, {"geometry": {"type": "Point", "coordinates": [-79.36845, 43.66643]}, "type": "Feature", "id": 752232521551581184, "properties": {"loc": [-79.36845, 43.66643], "centroid": [-79.28091565697635, 43.74141056625], "screen_name": "kaelo47", "time": 1468199183.0, "tid": 752232521551581184, "text": "Tucker and Mo watching the Jays! @ Menagerie Pet Shop https://t.co/35e8pofT3g", "created_at": "Sun Jul 10 20:06:23 +0000 2016", "klabel": 116}}, {"geometry": {"type": "Point", "coordinates": [-79.3683414, 43.6615867]}, "type": "Feature", "id": 752239234015256576, "properties": {"loc": [-79.3683414, 43.6615867], "centroid": [-79.28091565697635, 43.74141056625], "screen_name": "tpscalls", "time": 1468200783.0, "tid": 752239234015256576, "text": "See Ambulance | Callaghan Lane &amp; Drovers Lane [51 Div.] 07/10 16:28 #Downtown #Toronto", "created_at": "Sun Jul 10 20:33:03 +0000 2016", "klabel": 116}}, {"geometry": {"type": "Point", "coordinates": [-79.36902771, 43.66394214]}, "type": "Feature", "id": 752240623361650688, "properties": {"loc": [-79.36902771, 43.66394214], "centroid": [-79.28091565697635, 43.74141056625], "screen_name": "bbscursel", "time": 1468201115.0, "tid": 752240623361650688, "text": "Mais uma visita!!! Muito feliz! #turistando #toronto #canadalife @ Stout Irish Pub https://t.co/1EwstIp8lw", "created_at": "Sun Jul 10 20:38:35 +0000 2016", "klabel": 116}}, {"geometry": {"type": "Point", "coordinates": [-79.3685649, 43.6563352]}, "type": "Feature", "id": 752256598744113153, "properties": {"loc": [-79.3685649, 43.6563352], "centroid": [-79.28091565697635, 43.74141056625], "screen_name": "tpscalls", "time": 1468204924.0, "tid": 752256598744113153, "text": "Arrest | Richmond St E &amp; Shuter St [52 Div.] 07/10 17:37 #Downtown #Toronto", "created_at": "Sun Jul 10 21:42:04 +0000 2016", "klabel": 116}}, {"geometry": {"type": "Point", "coordinates": [-79.36855, 43.65498]}, "type": "Feature", "id": 752266641115840512, "properties": {"loc": [-79.36855, 43.65498], "centroid": [-79.28091565697635, 43.74141056625], "screen_name": "SusanLegge", "time": 1468207318.0, "tid": 752266641115840512, "text": "Thanks for getting me back on the road me so quickly today. Loving\u2026 https://t.co/Qu3ebeFRYZ", "created_at": "Sun Jul 10 22:21:58 +0000 2016", "klabel": 116}}, {"geometry": {"type": "Point", "coordinates": [-79.3706862, 43.6615577]}, "type": "Feature", "id": 752276229965897728, "properties": {"loc": [-79.3706862, 43.6615577], "centroid": [-79.28091565697635, 43.74141056625], "screen_name": "tpscalls", "time": 1468209604.0, "tid": 752276229965897728, "text": "See Ambulance | Seaton St &amp; Gerrard St E [51 Div.] 07/10 18:56 #Downtown #Toronto", "created_at": "Sun Jul 10 23:00:04 +0000 2016", "klabel": 116}}, {"geometry": {"type": "Point", "coordinates": [-79.3706862, 43.6615577]}, "type": "Feature", "id": 752276233233305600, "properties": {"loc": [-79.3706862, 43.6615577], "centroid": [-79.28091565697635, 43.74141056625], "screen_name": "tofire", "time": 1468209605.0, "tid": 752276233233305600, "text": "Medical (Unconscious) - Gerrard St East @ Seaton St, Toronto (2 Trucks)", "created_at": "Sun Jul 10 23:00:05 +0000 2016", "klabel": 116}}, {"geometry": {"type": "Point", "coordinates": [-79.3705, 43.65837]}, "type": "Feature", "id": 752301210854690816, "properties": {"loc": [-79.3705, 43.65837], "centroid": [-79.28091565697635, 43.74141056625], "screen_name": "SusanRogers6", "time": 1468215560.0, "tid": 752301210854690816, "text": "The Lawren Harris exhibit at the AGO is a must see. #canadianart #groupofseven #art #toronto @\u2026 https://t.co/5NxbMbhmeS", "created_at": "Mon Jul 11 00:39:20 +0000 2016", "klabel": 116}}, {"geometry": {"type": "Point", "coordinates": [-79.3737285, 43.667269]}, "type": "Feature", "id": 752320016805138432, "properties": {"loc": [-79.3737285, 43.667269], "centroid": [-79.28091565697635, 43.74141056625], "screen_name": "tpscalls", "time": 1468220044.0, "tid": 752320016805138432, "text": "See Ambulance | Breadalbane St &amp; Wellesley St E [52 Div.] 07/10 21:50 #Downtown #Toronto", "created_at": "Mon Jul 11 01:54:04 +0000 2016", "klabel": 116}}, {"geometry": {"type": "Point", "coordinates": [-79.3721335, 43.663387]}, "type": "Feature", "id": 752353237680947200, "properties": {"loc": [-79.3721335, 43.663387], "centroid": [-79.28091565697635, 43.74141056625], "screen_name": "tpscalls", "time": 1468227964.0, "tid": 752353237680947200, "text": "Fight | Gerrard St W &amp; Carlton St [51 Div.] 07/11 00:01 #Downtown #Toronto", "created_at": "Mon Jul 11 04:06:04 +0000 2016", "klabel": 116}}, {"geometry": {"type": "Point", "coordinates": [-79.3659915, 43.659444]}, "type": "Feature", "id": 752360793312751616, "properties": {"loc": [-79.3659915, 43.659444], "centroid": [-79.28091565697635, 43.74141056625], "screen_name": "tpscalls", "time": 1468229765.0, "tid": 752360793312751616, "text": "Personal Injury Collision | Dundas St E &amp; Parliament St [51 Div.] 07/11 00:32 #Downtown #Toronto", "created_at": "Mon Jul 11 04:36:05 +0000 2016", "klabel": 116}}, {"geometry": {"type": "Point", "coordinates": [-79.3659915, 43.659444]}, "type": "Feature", "id": 752371354423422976, "properties": {"loc": [-79.3659915, 43.659444], "centroid": [-79.28091565697635, 43.74141056625], "screen_name": "tpscalls", "time": 1468232283.0, "tid": 752371354423422976, "text": "Personal Injury Collision | Dundas St E &amp; Parliament St [HP] 07/11 01:12 #Downtown #Toronto", "created_at": "Mon Jul 11 05:18:03 +0000 2016", "klabel": 116}}, {"geometry": {"type": "Point", "coordinates": [-79.3720866, 43.6707566]}, "type": "Feature", "id": 752493907817197568, "properties": {"loc": [-79.3720866, 43.6707566], "centroid": [-79.28091565697635, 43.74141056625], "screen_name": "tpscalls", "time": 1468261502.0, "tid": 752493907817197568, "text": "Break &amp; Enter | Ontario St &amp; Rose Ave [51 Div.] 07/11 09:19 #Downtown #Toronto", "created_at": "Mon Jul 11 13:25:02 +0000 2016", "klabel": 116}}, {"geometry": {"type": "Point", "coordinates": [-79.37054605, 43.66165164]}, "type": "Feature", "id": 752498304450072576, "properties": {"loc": [-79.37054605, 43.66165164], "centroid": [-79.28091565697635, 43.74141056625], "screen_name": "MuarKush", "time": 1468262551.0, "tid": 752498304450072576, "text": "Monday Morning Maneuvers - Early Bird Gets the First toke - New Video For My Lane EP COMING SOON\u2026 https://t.co/sSTXhnqRL6", "created_at": "Mon Jul 11 13:42:31 +0000 2016", "klabel": 116}}, {"geometry": {"type": "Point", "coordinates": [-79.365, 43.66166667]}, "type": "Feature", "id": 752524208412975104, "properties": {"loc": [-79.365, 43.66166667], "centroid": [-79.28091565697635, 43.74141056625], "screen_name": "UforChange", "time": 1468268727.0, "tid": 752524208412975104, "text": "This Wednesday kicks off the start of Turn It Out! Learn some new dance moves and how to DJ on\u2026 https://t.co/LaGFv3nXGf", "created_at": "Mon Jul 11 15:25:27 +0000 2016", "klabel": 116}}, {"geometry": {"type": "Point", "coordinates": [-79.37065804, 43.66358857]}, "type": "Feature", "id": 752555588341600256, "properties": {"loc": [-79.37065804, 43.66358857], "centroid": [-79.28091565697635, 43.74141056625], "screen_name": "ceci_c", "time": 1468276208.0, "tid": 752555588341600256, "text": "ag\u00e9 mochi @zakkushitoronto \n\n#mochi #japanese #japanesefood #izakaya #kushi #stickyrice #toronto\u2026 https://t.co/lFluQysQVa", "created_at": "Mon Jul 11 17:30:08 +0000 2016", "klabel": 116}}, {"geometry": {"type": "Point", "coordinates": [-79.37065804, 43.66358857]}, "type": "Feature", "id": 752556280502517760, "properties": {"loc": [-79.37065804, 43.66358857], "centroid": [-79.28091565697635, 43.74141056625], "screen_name": "ceci_c", "time": 1468276373.0, "tid": 752556280502517760, "text": "nankotsu @zakkushitoronto \n\n#chicken #cartilage #kneecartilage #kushi #izakaya #japanese\u2026 https://t.co/SqJPRTELDO", "created_at": "Mon Jul 11 17:32:53 +0000 2016", "klabel": 116}}, {"geometry": {"type": "Point", "coordinates": [-79.3652255, 43.659602]}, "type": "Feature", "id": 752623523869360128, "properties": {"loc": [-79.3652255, 43.659602], "centroid": [-79.28091565697635, 43.74141056625], "screen_name": "tofireS", "time": 1468292405.0, "tid": 752623523869360128, "text": "Medical (Unconscious) - Dundas St b/w Arnold Avenue / Regent St, Toronto (2 Trucks)", "created_at": "Mon Jul 11 22:00:05 +0000 2016", "klabel": 116}}, {"geometry": {"type": "Point", "coordinates": [-79.36964, 43.65469]}, "type": "Feature", "id": 752632431547736065, "properties": {"loc": [-79.36964, 43.65469], "centroid": [-79.28091565697635, 43.74141056625], "screen_name": "sunnydeeguy", "time": 1468294529.0, "tid": 752632431547736065, "text": "Today kids on #todayspecial is 'crack smoking' #toronto #mosspark #mossparkarena @ Moss Park Arena https://t.co/zdUZSbplS4", "created_at": "Mon Jul 11 22:35:29 +0000 2016", "klabel": 116}}, {"geometry": {"type": "Point", "coordinates": [-79.370728, 43.6720333]}, "type": "Feature", "id": 752633586398982144, "properties": {"loc": [-79.370728, 43.6720333], "centroid": [-79.28091565697635, 43.74141056625], "screen_name": "tofireS", "time": 1468294804.0, "tid": 752633586398982144, "text": "Medical (Personal Injury) - Parliament St @ Bloor St East, Toronto (2 Trucks)", "created_at": "Mon Jul 11 22:40:04 +0000 2016", "klabel": 116}}, {"geometry": {"type": "Point", "coordinates": [-79.3675255, 43.6563779]}, "type": "Feature", "id": 752643904550346752, "properties": {"loc": [-79.3675255, 43.6563779], "centroid": [-79.28091565697635, 43.74141056625], "screen_name": "tofireS", "time": 1468297264.0, "tid": 752643904550346752, "text": "Medical (Assist) - Shuter St b/w Ontario St / Milan St, Toronto (2 Trucks)", "created_at": "Mon Jul 11 23:21:04 +0000 2016", "klabel": 116}}, {"geometry": {"type": "Point", "coordinates": [-79.3726105, 43.6554477]}, "type": "Feature", "id": 752646170065903617, "properties": {"loc": [-79.3726105, 43.6554477], "centroid": [-79.28091565697635, 43.74141056625], "screen_name": "tofireS", "time": 1468297805.0, "tid": 752646170065903617, "text": "Medical (Seizures/convulsions) - Queen St b/w George St / Stonecutters Lane, Toronto (2 Trucks)", "created_at": "Mon Jul 11 23:30:05 +0000 2016", "klabel": 116}}, {"geometry": {"type": "Point", "coordinates": [-79.37059, 43.6539]}, "type": "Feature", "id": 752671053017526272, "properties": {"loc": [-79.37059, 43.6539], "centroid": [-79.28091565697635, 43.74141056625], "screen_name": "EliteToronto", "time": 1468303737.0, "tid": 752671053017526272, "text": "Francesca came in today and melted our hearts with the delicious robot cupcakes! Thank you! \ud83d\udc97\u2026 https://t.co/qrJZTcsUun", "created_at": "Tue Jul 12 01:08:57 +0000 2016", "klabel": 116}}, {"geometry": {"type": "Point", "coordinates": [-79.3721335, 43.663387]}, "type": "Feature", "id": 752674853560418304, "properties": {"loc": [-79.3721335, 43.663387], "centroid": [-79.28091565697635, 43.74141056625], "screen_name": "tpscalls", "time": 1468304643.0, "tid": 752674853560418304, "text": "Fire | Gerrard St W &amp; Carlton St [52 Div.] 07/11 21:20 #Downtown #Toronto", "created_at": "Tue Jul 12 01:24:03 +0000 2016", "klabel": 116}}, {"geometry": {"type": "Point", "coordinates": [-79.3727285, 43.669246]}, "type": "Feature", "id": 752676360322162688, "properties": {"loc": [-79.3727285, 43.669246], "centroid": [-79.28091565697635, 43.74141056625], "screen_name": "tpscalls", "time": 1468305003.0, "tid": 752676360322162688, "text": "Missing Elderly | Ln N Wellesley W Parliament &amp; St James Ave [51 Div.] 07/11 21:26 #Downtown #Toronto", "created_at": "Tue Jul 12 01:30:03 +0000 2016", "klabel": 116}}, {"geometry": {"type": "Point", "coordinates": [-79.36393, 43.65781]}, "type": "Feature", "id": 752738155439140864, "properties": {"loc": [-79.36393, 43.65781], "centroid": [-79.28091565697635, 43.74141056625], "screen_name": "AFlyGuy", "time": 1468319736.0, "tid": 752738155439140864, "text": "Your spirit lives on in us @kingreignthe1st \ud83d\ude4f\ud83c\udffe\n---\n#G4boys #SimonClan #KingReignDay\u2026 https://t.co/XfAm8nXbI2", "created_at": "Tue Jul 12 05:35:36 +0000 2016", "klabel": 116}}, {"geometry": {"type": "Point", "coordinates": [-79.3709092, 43.6678919]}, "type": "Feature", "id": 752756638914936832, "properties": {"loc": [-79.3709092, 43.6678919], "centroid": [-79.28091565697635, 43.74141056625], "screen_name": "tpscalls", "time": 1468324142.0, "tid": 752756638914936832, "text": "Unknown Trouble | Rose Ave &amp; Wellesley St E [51 Div.] 07/12 02:44 #Downtown #Toronto", "created_at": "Tue Jul 12 06:49:02 +0000 2016", "klabel": 116}}, {"geometry": {"type": "Point", "coordinates": [-79.3642453, 43.659118]}, "type": "Feature", "id": 752796650230452224, "properties": {"loc": [-79.3642453, 43.659118], "centroid": [-79.28091565697635, 43.74141056625], "screen_name": "tpscalls", "time": 1468333682.0, "tid": 752796650230452224, "text": "Damage Just Occurred | Ln W Old Weston Rd N Lavender &amp; Regent St [12 Div.] 07/12 05:22 #Downtown #Toronto", "created_at": "Tue Jul 12 09:28:02 +0000 2016", "klabel": 116}}, {"geometry": {"type": "Point", "coordinates": [-79.37117, 43.66354]}, "type": "Feature", "id": 752902733716398080, "properties": {"loc": [-79.37117, 43.66354], "centroid": [-79.28091565697635, 43.74141056625], "screen_name": "h_tothe_D", "time": 1468358974.0, "tid": 752902733716398080, "text": "Introducing .@egalecanada's interim Director of Paw-grams &amp; services. #egaledogs #toronto\u2026 https://t.co/1je5oC8Cye", "created_at": "Tue Jul 12 16:29:34 +0000 2016", "klabel": 116}}, {"geometry": {"type": "Point", "coordinates": [-79.3737285, 43.667269]}, "type": "Feature", "id": 752918462213873665, "properties": {"loc": [-79.3737285, 43.667269], "centroid": [-79.28091565697635, 43.74141056625], "screen_name": "tofire", "time": 1468362724.0, "tid": 752918462213873665, "text": "Fire (Highrise Residential) - Wellesley St b/w Bleecker St / Ontario St, Toronto (8 Trucks)", "created_at": "Tue Jul 12 17:32:04 +0000 2016", "klabel": 116}}, {"geometry": {"type": "Point", "coordinates": [-79.3737285, 43.667269]}, "type": "Feature", "id": 752918463165919233, "properties": {"loc": [-79.3737285, 43.667269], "centroid": [-79.28091565697635, 43.74141056625], "screen_name": "tofireS", "time": 1468362724.0, "tid": 752918463165919233, "text": "Fire (Highrise Residential) - Wellesley St b/w Bleecker St / Ontario St, Toronto (8 Trucks)", "created_at": "Tue Jul 12 17:32:04 +0000 2016", "klabel": 116}}, {"geometry": {"type": "Point", "coordinates": [-79.3658161, 43.6590025]}, "type": "Feature", "id": 752958234940538880, "properties": {"loc": [-79.3658161, 43.6590025], "centroid": [-79.28091565697635, 43.74141056625], "screen_name": "tofire", "time": 1468372207.0, "tid": 752958234940538880, "text": "Medical (Unconscious) - Parliament St b/w Coatsworth St / Dundas St East, Toronto (2 Trucks)", "created_at": "Tue Jul 12 20:10:07 +0000 2016", "klabel": 116}}, {"geometry": {"type": "Point", "coordinates": [-79.369443, 43.6545287]}, "type": "Feature", "id": 752959478396493825, "properties": {"loc": [-79.369443, 43.6545287], "centroid": [-79.28091565697635, 43.74141056625], "screen_name": "tpscalls", "time": 1468372503.0, "tid": 752959478396493825, "text": "Dispute | Sherbourne St &amp; Queen St E [51 Div.] 07/12 16:10 #Old_Town #Toronto", "created_at": "Tue Jul 12 20:15:03 +0000 2016", "klabel": 116}}, {"geometry": {"type": "Point", "coordinates": [-79.3647705, 43.658475]}, "type": "Feature", "id": 752973067446607872, "properties": {"loc": [-79.3647705, 43.658475], "centroid": [-79.28091565697635, 43.74141056625], "screen_name": "tpscalls", "time": 1468375743.0, "tid": 752973067446607872, "text": "Person Gone Berserk | Parliament St &amp; Arnold Ave [51 Div.] 07/12 17:05 #Downtown #Toronto", "created_at": "Tue Jul 12 21:09:03 +0000 2016", "klabel": 116}}, {"geometry": {"type": "Point", "coordinates": [-79.3658847, 43.6591784]}, "type": "Feature", "id": 753008556694204417, "properties": {"loc": [-79.3658847, 43.6591784], "centroid": [-79.28091565697635, 43.74141056625], "screen_name": "tpscalls", "time": 1468384204.0, "tid": 753008556694204417, "text": "Unknown Trouble | Poulett St &amp; Parliament St [51 Div.] 07/12 19:24 #Downtown #Toronto", "created_at": "Tue Jul 12 23:30:04 +0000 2016", "klabel": 116}}, {"geometry": {"type": "Point", "coordinates": [-79.36873, 43.65905]}, "type": "Feature", "id": 753009654771351552, "properties": {"loc": [-79.36873, 43.65905], "centroid": [-79.28091565697635, 43.74141056625], "screen_name": "OmnipotentIdiot", "time": 1468384466.0, "tid": 753009654771351552, "text": "Thanks for my sleeve progression....awesome work as always johnny_russo https://t.co/DmcGJhjO4W \n#tattoos\u2026 https://t.co/49qtWe5G9B", "created_at": "Tue Jul 12 23:34:26 +0000 2016", "klabel": 116}}, {"geometry": {"type": "Point", "coordinates": [-79.3685649, 43.6563352]}, "type": "Feature", "id": 753029692769329152, "properties": {"loc": [-79.3685649, 43.6563352], "centroid": [-79.28091565697635, 43.74141056625], "screen_name": "tpscalls", "time": 1468389244.0, "tid": 753029692769329152, "text": "Break &amp; Enter In Progress | Raffeix Lane &amp; Shuter St [51 Div.] 07/12 20:48 #Downtown #Toronto", "created_at": "Wed Jul 13 00:54:04 +0000 2016", "klabel": 116}}, {"geometry": {"type": "Point", "coordinates": [-79.3705, 43.65837]}, "type": "Feature", "id": 753042755929067520, "properties": {"loc": [-79.3705, 43.65837], "centroid": [-79.28091565697635, 43.74141056625], "screen_name": "sierra_lefurgey", "time": 1468392358.0, "tid": 753042755929067520, "text": "Just posted a photo @ AGO - Art Gallery of Ontario https://t.co/qGsRnV7Ocp", "created_at": "Wed Jul 13 01:45:58 +0000 2016", "klabel": 116}}, {"geometry": {"type": "Point", "coordinates": [-79.365, 43.66166667]}, "type": "Feature", "id": 753048451835912192, "properties": {"loc": [-79.365, 43.66166667], "centroid": [-79.28091565697635, 43.74141056625], "screen_name": "ProjectBLT", "time": 1468393716.0, "tid": 753048451835912192, "text": "Abracadabra, #pesto! This week on TastyTuesday, I turn #garlic scapes into this pungent pesto.\u2026 https://t.co/QmlkKU9sAg", "created_at": "Wed Jul 13 02:08:36 +0000 2016", "klabel": 116}}, {"geometry": {"type": "Point", "coordinates": [-79.37471407, 43.6626968]}, "type": "Feature", "id": 753058108541403136, "properties": {"loc": [-79.37471407, 43.6626968], "centroid": [-79.28091565697635, 43.74141056625], "screen_name": "bruceyyz", "time": 1468396018.0, "tid": 753058108541403136, "text": "I'm at 77 Maitland Place in Toronto, ON https://t.co/iafVjSiCOJ", "created_at": "Wed Jul 13 02:46:58 +0000 2016", "klabel": 116}}, {"geometry": {"type": "Point", "coordinates": [-79.369443, 43.6545287]}, "type": "Feature", "id": 753100660896333825, "properties": {"loc": [-79.369443, 43.6545287], "centroid": [-79.28091565697635, 43.74141056625], "screen_name": "tpscalls", "time": 1468406164.0, "tid": 753100660896333825, "text": "Arrest | Queen St E &amp; Sherbourne St [51 Div.] 07/13 01:32 #Old_Town #Toronto", "created_at": "Wed Jul 13 05:36:04 +0000 2016", "klabel": 116}}, {"geometry": {"type": "Point", "coordinates": [-79.3693053, 43.6623464]}, "type": "Feature", "id": 753106699859427328, "properties": {"loc": [-79.3693053, 43.6623464], "centroid": [-79.28091565697635, 43.74141056625], "screen_name": "tpscalls", "time": 1468407603.0, "tid": 753106699859427328, "text": "Disorderlies | Gerrard St E &amp; Woodward Evans Lane [51 Div.] 07/13 01:55 #Downtown #Toronto", "created_at": "Wed Jul 13 06:00:03 +0000 2016", "klabel": 116}}, {"geometry": {"type": "Point", "coordinates": [-79.368299, 43.66529493]}, "type": "Feature", "id": 753193136546013185, "properties": {"loc": [-79.368299, 43.66529493], "centroid": [-79.28091565697635, 43.74141056625], "screen_name": "summerspictures", "time": 1468428212.0, "tid": 753193136546013185, "text": "#allispossible #thanks #coffee #liveyourdream #garneau #sharetheroad @ Jet Fuel Coffee Shop https://t.co/TmMQlhaulo", "created_at": "Wed Jul 13 11:43:32 +0000 2016", "klabel": 116}}, {"geometry": {"type": "Point", "coordinates": [-79.37570134, 43.66336992]}, "type": "Feature", "id": 753195011219554304, "properties": {"loc": [-79.37570134, 43.66336992], "centroid": [-79.28091565697635, 43.74141056625], "screen_name": "chris_n_toronto", "time": 1468428659.0, "tid": 753195011219554304, "text": "Last night. @ 140 Carlton https://t.co/QGjnpB7w1t", "created_at": "Wed Jul 13 11:50:59 +0000 2016", "klabel": 116}}, {"geometry": {"type": "Point", "coordinates": [-79.369443, 43.6545287]}, "type": "Feature", "id": 753226234541334528, "properties": {"loc": [-79.369443, 43.6545287], "centroid": [-79.28091565697635, 43.74141056625], "screen_name": "tpscalls", "time": 1468436103.0, "tid": 753226234541334528, "text": "Property Damage Collision | Queen St E &amp; Sherbourne St [51 Div.] 07/13 09:50 #Old_Town #Toronto", "created_at": "Wed Jul 13 13:55:03 +0000 2016", "klabel": 116}}, {"geometry": {"type": "Point", "coordinates": [-79.3705, 43.65837]}, "type": "Feature", "id": 753256123604406272, "properties": {"loc": [-79.3705, 43.65837], "centroid": [-79.28091565697635, 43.74141056625], "screen_name": "ciropoka", "time": 1468443229.0, "tid": 753256123604406272, "text": "AGO @ AGO - Art Gallery of Ontario https://t.co/2may6wl8jo", "created_at": "Wed Jul 13 15:53:49 +0000 2016", "klabel": 116}}, {"geometry": {"type": "Point", "coordinates": [-79.3654895, 43.65818]}, "type": "Feature", "id": 753282878105088001, "properties": {"loc": [-79.3654895, 43.65818], "centroid": [-79.28091565697635, 43.74141056625], "screen_name": "tofireS", "time": 1468449608.0, "tid": 753282878105088001, "text": "Medical (Trouble Breathing) - Parliament St b/w St David St / Coatsworth St, Toronto (2 Trucks)", "created_at": "Wed Jul 13 17:40:08 +0000 2016", "klabel": 116}}, {"geometry": {"type": "Point", "coordinates": [-79.36488643, 43.66652282]}, "type": "Feature", "id": 753283257630912512, "properties": {"loc": [-79.36488643, 43.66652282], "centroid": [-79.28091565697635, 43.74141056625], "screen_name": "dmcjeff", "time": 1468449698.0, "tid": 753283257630912512, "text": "Just posted a photo @ Cabbage  Town https://t.co/ZSQXt152BV", "created_at": "Wed Jul 13 17:41:38 +0000 2016", "klabel": 116}}, {"geometry": {"type": "Point", "coordinates": [-79.3745313, 43.6570518]}, "type": "Feature", "id": 753290409699401728, "properties": {"loc": [-79.3745313, 43.6570518], "centroid": [-79.28091565697635, 43.74141056625], "screen_name": "tpscalls", "time": 1468451403.0, "tid": 753290409699401728, "text": "Hazard | Jarvis St &amp; Dundas St E [51 Div.] 07/13 14:05 #Downtown #Toronto", "created_at": "Wed Jul 13 18:10:03 +0000 2016", "klabel": 116}}, {"geometry": {"type": "Point", "coordinates": [-79.3685649, 43.6563352]}, "type": "Feature", "id": 753294684722790400, "properties": {"loc": [-79.3685649, 43.6563352], "centroid": [-79.28091565697635, 43.74141056625], "screen_name": "tpscalls", "time": 1468452423.0, "tid": 753294684722790400, "text": "Arrest | Richmond St E &amp; Shuter St [52 Div.] 07/13 14:21 #Downtown #Toronto", "created_at": "Wed Jul 13 18:27:03 +0000 2016", "klabel": 116}}, {"geometry": {"type": "Point", "coordinates": [-79.3705, 43.65837]}, "type": "Feature", "id": 753297740868837376, "properties": {"loc": [-79.3705, 43.65837], "centroid": [-79.28091565697635, 43.74141056625], "screen_name": "cdnorman", "time": 1468453151.0, "tid": 753297740868837376, "text": "The transformative power of art is often forgotten and then suddenly remembered #HarrisAGO #art\u2026 https://t.co/pvSjuZI68Y", "created_at": "Wed Jul 13 18:39:11 +0000 2016", "klabel": 116}}, {"geometry": {"type": "Point", "coordinates": [-79.3662895, 43.656646]}, "type": "Feature", "id": 753298713775308801, "properties": {"loc": [-79.3662895, 43.656646], "centroid": [-79.28091565697635, 43.74141056625], "screen_name": "tpscalls", "time": 1468453383.0, "tid": 753298713775308801, "text": "Theft | Princess St &amp; Berkeley St [51 Div.] 07/13 14:37 #Downtown #Toronto", "created_at": "Wed Jul 13 18:43:03 +0000 2016", "klabel": 116}}, {"geometry": {"type": "Point", "coordinates": [-79.3737285, 43.667269]}, "type": "Feature", "id": 753300481204772864, "properties": {"loc": [-79.3737285, 43.667269], "centroid": [-79.28091565697635, 43.74141056625], "screen_name": "tofire", "time": 1468453805.0, "tid": 753300481204772864, "text": "Medical (Check Call) - Wellesley St b/w Bleecker St / Ontario St, Toronto (2 Trucks)", "created_at": "Wed Jul 13 18:50:05 +0000 2016", "klabel": 116}}, {"geometry": {"type": "Point", "coordinates": [-79.3737285, 43.667269]}, "type": "Feature", "id": 753300482047827969, "properties": {"loc": [-79.3737285, 43.667269], "centroid": [-79.28091565697635, 43.74141056625], "screen_name": "tofireS", "time": 1468453805.0, "tid": 753300482047827969, "text": "Medical (Check Call) - Wellesley St b/w Bleecker St / Ontario St, Toronto (2 Trucks)", "created_at": "Wed Jul 13 18:50:05 +0000 2016", "klabel": 116}}, {"geometry": {"type": "Point", "coordinates": [-79.3685649, 43.6563352]}, "type": "Feature", "id": 753300977860669440, "properties": {"loc": [-79.3685649, 43.6563352], "centroid": [-79.28091565697635, 43.74141056625], "screen_name": "tpscalls", "time": 1468453923.0, "tid": 753300977860669440, "text": "Break &amp; Enter | Richmond St E &amp; Shuter St [52 Div.] 07/13 14:46 #Downtown #Toronto", "created_at": "Wed Jul 13 18:52:03 +0000 2016", "klabel": 116}}, {"geometry": {"type": "Point", "coordinates": [-79.3705, 43.65837]}, "type": "Feature", "id": 753339643907670016, "properties": {"loc": [-79.3705, 43.65837], "centroid": [-79.28091565697635, 43.74141056625], "screen_name": "mishibt", "time": 1468463142.0, "tid": 753339643907670016, "text": "Who needs an art gallery when you can just look at us \ud83d\ude00 @ AGO - Art Gallery of Ontario https://t.co/AGXCTUCfnp", "created_at": "Wed Jul 13 21:25:42 +0000 2016", "klabel": 116}}, {"geometry": {"type": "Point", "coordinates": [-79.36784, 43.65573]}, "type": "Feature", "id": 753352906317889537, "properties": {"loc": [-79.36784, 43.65573], "centroid": [-79.28091565697635, 43.74141056625], "screen_name": "afoodgypsy", "time": 1468466304.0, "tid": 753352906317889537, "text": "Terrific photo taken by @fmnetwork at  #MossParkMarket which was part of a walking tour with\u2026 https://t.co/XrBOG8souI", "created_at": "Wed Jul 13 22:18:24 +0000 2016", "klabel": 116}}, {"geometry": {"type": "Point", "coordinates": [-79.3685649, 43.6563352]}, "type": "Feature", "id": 753361879473545216, "properties": {"loc": [-79.3685649, 43.6563352], "centroid": [-79.28091565697635, 43.74141056625], "screen_name": "tpscalls", "time": 1468468443.0, "tid": 753361879473545216, "text": "Holding One | Richmond St E &amp; Shuter St [52 Div.] 07/13 18:50 #Downtown #Toronto", "created_at": "Wed Jul 13 22:54:03 +0000 2016", "klabel": 116}}, {"geometry": {"type": "Point", "coordinates": [-79.3685649, 43.6563352]}, "type": "Feature", "id": 753370182127681536, "properties": {"loc": [-79.3685649, 43.6563352], "centroid": [-79.28091565697635, 43.74141056625], "screen_name": "tpscalls", "time": 1468470423.0, "tid": 753370182127681536, "text": "Assault Just Occurred | Ln N Queen E Parliament &amp; Shuter St [51 Div.] 07/13 19:21 #Downtown #Toronto", "created_at": "Wed Jul 13 23:27:03 +0000 2016", "klabel": 116}}, {"geometry": {"type": "Point", "coordinates": [-79.37444444, 43.66166667]},