{"type": "FeatureCollection", "features": [{"geometry": {"type": "Point", "coordinates": [-79.32267506, 43.76905278]}, "type": "Feature", "id": 754395347288489984, "properties": {"loc": [-79.32267506, 43.76905278], "screen_name": "HomenetmenTO", "text": "Our scouts have almost arrived @ Camp! 9 days with our brothers &amp; sisters from Montreal &amp;\u2026 https://t.co/Svb3YlYim6", "created_at": "Sat Jul 16 19:20:41 +0000 2016", "time": 1468696831.990103, "tid": 754395347288489984, "nei_num": "118"}}, {"geometry": {"type": "Point", "coordinates": [-79.32238287, 43.76924232]}, "type": "Feature", "id": 759479975896576004, "properties": {"loc": [-79.32238287, 43.76924232], "screen_name": "deemxreckless", "text": "The Pre Game to the Pre Pre Game . \ud83c\udde8\ud83c\udde6 @ Raddisson Hotel Toronto East https://t.co/wfamyR30Yg", "created_at": "Sat Jul 30 20:05:11 +0000 2016", "time": 1469909098.440419, "tid": 759479975896576004, "nei_num": "118"}}, {"geometry": {"type": "Point", "coordinates": [-79.32238287, 43.76924232]}, "type": "Feature", "id": 759640875337121792, "properties": {"loc": [-79.32238287, 43.76924232], "screen_name": "YehanWu", "text": "Just posted a photo @ Raddisson Hotel Toronto East https://t.co/20QhueWld2", "created_at": "Sun Jul 31 06:44:32 +0000 2016", "time": 1469947459.746737, "tid": 759640875337121792, "nei_num": "118"}}, {"geometry": {"type": "Point", "coordinates": [-79.32244483, 43.76946739]}, "type": "Feature", "id": 752235677400506368, "properties": {"loc": [-79.32244483, 43.76946739], "screen_name": "F11802012", "text": "@badlntt \u0627\u0644\u062d\u0645\u062f \u0644\u0644\u0647 \u0639 \u0627\u0644\u0633\u0644\u0627\u0645\u0629", "created_at": "Sun Jul 10 20:18:56 +0000 2016", "time": 1468181927.850755, "tid": 752235677400506368, "nei_num": "118"}}, {"geometry": {"type": "Point", "coordinates": [-79.3219278, 43.7694047]}, "type": "Feature", "id": 767089016042885120, "properties": {"loc": [-79.3219278, 43.7694047], "screen_name": "Sofianeee_", "text": "Toronto City", "created_at": "Sat Aug 20 20:00:47 +0000 2016", "time": 1471723230.080775, "tid": 767089016042885120, "nei_num": "118"}}, {"geometry": {"type": "Point", "coordinates": [-79.3212887, 43.768929]}, "type": "Feature", "id": 769389489613574144, "properties": {"loc": [-79.3212887, 43.768929], "screen_name": "tpscalls", "text": "Property Damage Collision | Victoria Park Ave &amp; 401 Hwy E [HP] 08/27 00:15 #Henry_Farm #Toronto", "created_at": "Sat Aug 27 04:22:03 +0000 2016", "time": 1472271704.118158, "tid": 769389489613574144, "nei_num": "118"}}, {"geometry": {"type": "Point", "coordinates": [-79.3212887, 43.768929]}, "type": "Feature", "id": 769453660954853376, "properties": {"loc": [-79.3212887, 43.768929], "screen_name": "tpscalls", "text": "Property Damage Collision | Victoria Park Ave &amp; 401 Hwy E [HP] 08/27 04:31 #Henry_Farm #Toronto", "created_at": "Sat Aug 27 08:37:03 +0000 2016", "time": 1472287003.672575, "tid": 769453660954853376, "nei_num": "118"}}, {"geometry": {"type": "Point", "coordinates": [-79.3212887, 43.768929]}, "type": "Feature", "id": 769664814276874242, "properties": {"loc": [-79.3212887, 43.768929], "screen_name": "tpscalls", "text": "Unknown Trouble | Victoria Park Ave &amp; 401 Hwy E [33 Div.] 08/27 18:32 #Henry_Farm #Toronto", "created_at": "Sat Aug 27 22:36:06 +0000 2016", "time": 1472337346.405159, "tid": 769664814276874242, "nei_num": "118"}}, {"geometry": {"type": "Point", "coordinates": [-79.32052732, 43.76895428]}, "type": "Feature", "id": 705760184971309056, "properties": {"loc": [-79.32052732, 43.76895428], "screen_name": "caiodias", "text": "@CaioCorraini \u00ac\u00ac\"", "created_at": "Fri Mar 04 14:21:55 +0000 2016", "time": 1457101315.663377, "tid": 705760184971309056, "nei_num": "118"}}, {"geometry": {"type": "Point", "coordinates": [-79.32052732, 43.76895428]}, "type": "Feature", "id": 705762155161788416, "properties": {"loc": [-79.32052732, 43.76895428], "screen_name": "caiodias", "text": "\u00c9 bem capaz. Vai ser tipo final de copa, quando o Brasil vence. https://t.co/deTVBcJYwQ", "created_at": "Fri Mar 04 14:29:44 +0000 2016", "time": 1457101785.408204, "tid": 705762155161788416, "nei_num": "118"}}, {"geometry": {"type": "Point", "coordinates": [-79.32052732, 43.76895428]}, "type": "Feature", "id": 705762243531534336, "properties": {"loc": [-79.32052732, 43.76895428], "screen_name": "caiodias", "text": "\u00c9 que nem o lance de socialismo. Mesmo argumento https://t.co/i85TTMGczR", "created_at": "Fri Mar 04 14:30:05 +0000 2016", "time": 1457101806.524307, "tid": 705762243531534336, "nei_num": "118"}}, {"geometry": {"type": "Point", "coordinates": [-79.3165, 43.7695]}, "type": "Feature", "id": 766708879766020096, "properties": {"loc": [-79.3165, 43.7695], "screen_name": "ComicCanuck", "text": "Drinking a Rum Finish / Rum Cask / Rum Aged by @InnisandGunnUK @ Wishing Well Park \u2014 https://t.co/TEvRdyN3H7 #photo", "created_at": "Fri Aug 19 18:50:16 +0000 2016", "time": 1471632599.101551, "tid": 766708879766020096, "nei_num": "118"}}, {"geometry": {"type": "Point", "coordinates": [-79.3165, 43.7695]}, "type": "Feature", "id": 767127039631589376, "properties": {"loc": [-79.3165, 43.7695], "screen_name": "ComicCanuck", "text": "Very nice beer! - Drinking a Star Trek Golden Anniversary Ale @ Wishing Well Park - https://t.co/wv34M7g7IJ #photo", "created_at": "Sat Aug 20 22:31:53 +0000 2016", "time": 1471732295.567506, "tid": 767127039631589376, "nei_num": "118"}}, {"geometry": {"type": "Point", "coordinates": [-79.3165, 43.7695]}, "type": "Feature", "id": 767495156891258880, "properties": {"loc": [-79.3165, 43.7695], "screen_name": "ComicCanuck", "text": "Rum finish and colouring. So good. - Drinking a Rum Finish / Rum Cask / Rum Aged @ Wishing Well Park - https://t.co/CyoZZre6j8 #photo", "created_at": "Sun Aug 21 22:54:39 +0000 2016", "time": 1471820061.330278, "tid": 767495156891258880, "nei_num": "118"}}, {"geometry": {"type": "Point", "coordinates": [-79.31160293, 43.76869783]}, "type": "Feature", "id": 760311493393088512, "properties": {"loc": [-79.31160293, 43.76869783], "screen_name": "kellychildsxo", "text": "#nationalgirlfriendday \ud83d\udc6d\ud83d\udc97 with my sister Shannon. My BFF for 51 years. Hanging with her all\u2026 https://t.co/kO3fsl5fNE", "created_at": "Tue Aug 02 03:09:20 +0000 2016", "time": 1470107347.112495, "tid": 760311493393088512, "nei_num": "118"}}, {"geometry": {"type": "Point", "coordinates": [-79.31160293, 43.76869783]}, "type": "Feature", "id": 762441489871843329, "properties": {"loc": [-79.31160293, 43.76869783], "screen_name": "strandby", "text": "\ud83d\udc4b\ud83c\udffb\ud83d\udc4b\ud83c\udffb Hello, it's me \ud83d\udc4b\ud83c\udffb \ud83d\udc4b\ud83c\udffb#riverviewcapretreat @ Georgian Bay https://t.co/f1pPj4vM6E", "created_at": "Mon Aug 08 00:13:11 +0000 2016", "time": 1470615176.632094, "tid": 762441489871843329, "nei_num": "118"}}, {"geometry": {"type": "Point", "coordinates": [-79.31160293, 43.76869783]}, "type": "Feature", "id": 762983359085678592, "properties": {"loc": [-79.31160293, 43.76869783], "screen_name": "vickyb", "text": "That was good #skylar @ Georgian Bay https://t.co/aLDFACODEb", "created_at": "Tue Aug 09 12:06:23 +0000 2016", "time": 1470744367.841377, "tid": 762983359085678592, "nei_num": "118"}}, {"geometry": {"type": "Point", "coordinates": [-79.31160293, 43.76869783]}, "type": "Feature", "id": 763827286470758400, "properties": {"loc": [-79.31160293, 43.76869783], "screen_name": "JessWattCanada", "text": "Where all of Toronto wishes they were today \ud83d\udca6\ud83d\udca6\ud83d\udca6. Damn it's hot out !\n#waves @offtrax #water @\u2026 https://t.co/J6kAf15BTQ", "created_at": "Thu Aug 11 19:59:50 +0000 2016", "time": 1470945575.22855, "tid": 763827286470758400, "nei_num": "118"}}, {"geometry": {"type": "Point", "coordinates": [-79.31160293, 43.76869783]}, "type": "Feature", "id": 765013701917192193, "properties": {"loc": [-79.31160293, 43.76869783], "screen_name": "squabtweets", "text": "Hope y'all had a good weekend of sweats! (1.5 hrs till Monday). Pic: fiische. #monyay #thornbury\u2026 https://t.co/Ev1vG8f7Nj", "created_at": "Mon Aug 15 02:34:14 +0000 2016", "time": 1471228437.954303, "tid": 765013701917192193, "nei_num": "118"}}, {"geometry": {"type": "Point", "coordinates": [-79.31160293, 43.76869783]}, "type": "Feature", "id": 766442525271977984, "properties": {"loc": [-79.31160293, 43.76869783], "screen_name": "yukitalks", "text": "A lot of ancient sea creatures is sleeping in the Paleozoic rock. @ Georgian Bay https://t.co/b6LOmbjmFO", "created_at": "Fri Aug 19 01:11:52 +0000 2016", "time": 1471569095.038836, "tid": 766442525271977984, "nei_num": "118"}}, {"geometry": {"type": "Point", "coordinates": [-79.31160293, 43.76869783]}, "type": "Feature", "id": 771101664468086784, "properties": {"loc": [-79.31160293, 43.76869783], "screen_name": "bayly_chambers", "text": "Got any grapes?\ud83c\udf47 @ Georgian Bay https://t.co/iXyTsPc3lK", "created_at": "Wed Aug 31 21:45:37 +0000 2016", "time": 1472679917.352401, "tid": 771101664468086784, "nei_num": "118"}}, {"geometry": {"type": "Point", "coordinates": [-79.3027872, 43.7691069]}, "type": "Feature", "id": 772453932484395008, "properties": {"loc": [-79.3027872, 43.7691069], "screen_name": "tpscalls", "text": "Hazard | 401 Hwy E &amp; Warden Ave [41 Div.] 09/04 11:14 #Wexford_Maryvale #Toronto", "created_at": "Sun Sep 04 15:19:03 +0000 2016", "time": 1473002322.376511, "tid": 772453932484395008, "nei_num": "118"}}, {"geometry": {"type": "Point", "coordinates": [-79.30061, 43.7694]}, "type": "Feature", "id": 767219246157803520, "properties": {"loc": [-79.30061, 43.7694], "screen_name": "djsniper757", "text": "#TORONTO#CANADA #RITENOW \n#DJSNIPER#snipersound\ud83c\udd99 \n#workinghours #lifeofadj #djlife \n#KITESTYLE\u2708\u2026 https://t.co/Q3s3dZiQTx", "created_at": "Sun Aug 21 04:38:17 +0000 2016", "time": 1471754279.251594, "tid": 767219246157803520, "nei_num": "118"}}, {"geometry": {"type": "Point", "coordinates": [-79.30061099, 43.76944586]}, "type": "Feature", "id": 759606852594372608, "properties": {"loc": [-79.30061099, 43.76944586], "screen_name": "CAMChasingAMill", "text": "After some technical difficulties he finally poped the #Bottle of\u2026 https://t.co/ifTHQ7VKnG", "created_at": "Sun Jul 31 04:29:21 +0000 2016", "time": 1469939348.351084, "tid": 759606852594372608, "nei_num": "118"}}, {"geometry": {"type": "Point", "coordinates": [-79.2942919, 43.7689445]}, "type": "Feature", "id": 755936595434405888, "properties": {"loc": [-79.2942919, 43.7689445], "screen_name": "tpscalls", "text": "Disorderlies | Ellesmere Rd &amp; Ridgetop Rd [41 Div.] 07/20 21:19 #Scarborough #Toronto", "created_at": "Thu Jul 21 01:25:03 +0000 2016", "time": 1469064293.051439, "tid": 755936595434405888, "nei_num": "118"}}, {"geometry": {"type": "Point", "coordinates": [-79.29285214, 43.76921891]}, "type": "Feature", "id": 705456052943392768, "properties": {"loc": [-79.29285214, 43.76921891], "screen_name": "caiodias", "text": "#indeed https://t.co/eaOUc8PqSL", "created_at": "Thu Mar 03 18:13:24 +0000 2016", "time": 1457028804.903832, "tid": 705456052943392768, "nei_num": "118"}}, {"geometry": {"type": "Point", "coordinates": [-79.2852861, 43.7683992]}, "type": "Feature", "id": 752596588032294912, "properties": {"loc": [-79.2852861, 43.7683992], "screen_name": "tpscalls", "text": "Arrest | Kennedy Rd &amp; Dundalk Dr [41 Div.] 07/11 16:07 #Dorset_Park #Toronto", "created_at": "Mon Jul 11 20:13:03 +0000 2016", "time": 1468267975.515294, "tid": 752596588032294912, "nei_num": "118"}}, {"geometry": {"type": "Point", "coordinates": [-79.2852861, 43.7683992]}, "type": "Feature", "id": 753009305113223168, "properties": {"loc": [-79.2852861, 43.7683992], "screen_name": "tpscalls", "text": "Assault Just Occurred | Kennedy Rd &amp; Dundalk Dr [41 Div.] 07/12 19:27 #Dorset_Park #Toronto", "created_at": "Tue Jul 12 23:33:03 +0000 2016", "time": 1468366374.642268, "tid": 753009305113223168, "nei_num": "118"}}, {"geometry": {"type": "Point", "coordinates": [-79.2852861, 43.7683992]}, "type": "Feature", "id": 753254671150682112, "properties": {"loc": [-79.2852861, 43.7683992], "screen_name": "tpscalls", "text": "Holding Lost Elderly | Kennedy Rd &amp; Dundalk Dr [41 Div.] 07/13 11:44 #Dorset_Park #Toronto", "created_at": "Wed Jul 13 15:48:03 +0000 2016", "time": 1468424874.255917, "tid": 753254671150682112, "nei_num": "118"}}, {"geometry": {"type": "Point", "coordinates": [-79.2852861, 43.7683992]}, "type": "Feature", "id": 757446300581453824, "properties": {"loc": [-79.2852861, 43.7683992], "screen_name": "tpscalls", "text": "Impaired Driver | Kennedy Rd &amp; Dundalk Dr [41 Div.] 07/25 01:20 #Dorset_Park #Toronto", "created_at": "Mon Jul 25 05:24:05 +0000 2016", "time": 1469424233.809919, "tid": 757446300581453824, "nei_num": "118"}}, {"geometry": {"type": "Point", "coordinates": [-79.2852861, 43.7683992]}, "type": "Feature", "id": 757715318634639360, "properties": {"loc": [-79.2852861, 43.7683992], "screen_name": "tpscalls", "text": "Assault Just Occurred | Kennedy Rd &amp; Dundalk Dr [41 Div.] 07/25 19:07 #Dorset_Park #Toronto", "created_at": "Mon Jul 25 23:13:04 +0000 2016", "time": 1469488372.555782, "tid": 757715318634639360, "nei_num": "118"}}, {"geometry": {"type": "Point", "coordinates": [-79.2852861, 43.7683992]}, "type": "Feature", "id": 759066716139847680, "properties": {"loc": [-79.2852861, 43.7683992], "screen_name": "tpscalls", "text": "Theft | Kennedy Rd &amp; Dundalk Dr [41 Div.] 07/29 12:36 #Dorset_Park #Toronto", "created_at": "Fri Jul 29 16:43:02 +0000 2016", "time": 1469810570.042223, "tid": 759066716139847680, "nei_num": "118"}}, {"geometry": {"type": "Point", "coordinates": [-79.2852861, 43.7683992]}, "type": "Feature", "id": 760624232808210433, "properties": {"loc": [-79.2852861, 43.7683992], "screen_name": "tpscalls", "text": "See Ambulance | Kennedy Rd &amp; Dundalk Dr [41 Div.] 08/02 19:46 #Dorset_Park #Toronto", "created_at": "Tue Aug 02 23:52:03 +0000 2016", "time": 1470181909.776145, "tid": 760624232808210433, "nei_num": "118"}}, {"geometry": {"type": "Point", "coordinates": [-79.2852861, 43.7683992]}, "type": "Feature", "id": 761891078295478272, "properties": {"loc": [-79.2852861, 43.7683992], "screen_name": "tpscalls", "text": "Trespass | Kennedy Rd &amp; Dundalk Dr [41 Div.] 08/06 07:39 #Dorset_Park #Toronto", "created_at": "Sat Aug 06 11:46:02 +0000 2016", "time": 1470483948.563297, "tid": 761891078295478272, "nei_num": "118"}}, {"geometry": {"type": "Point", "coordinates": [-79.2852861, 43.7683992]}, "type": "Feature", "id": 765009881040642048, "properties": {"loc": [-79.2852861, 43.7683992], "screen_name": "tpscalls", "text": "Noise Complaint | Kennedy Rd &amp; Dundalk Dr [41 Div.] 08/14 22:13 #Dorset_Park #Toronto", "created_at": "Mon Aug 15 02:19:03 +0000 2016", "time": 1471227526.966518, "tid": 765009881040642048, "nei_num": "118"}}, {"geometry": {"type": "Point", "coordinates": [-79.2852861, 43.7683992]}, "type": "Feature", "id": 765875833592512512, "properties": {"loc": [-79.2852861, 43.7683992], "screen_name": "tpscalls", "text": "Unknown Trouble | Kennedy Rd &amp; Dundalk Dr [41 Div.] 08/17 07:34 #Dorset_Park #Toronto", "created_at": "Wed Aug 17 11:40:02 +0000 2016", "time": 1471433985.534818, "tid": 765875833592512512, "nei_num": "118"}}, {"geometry": {"type": "Point", "coordinates": [-79.2852861, 43.7683992]}, "type": "Feature", "id": 765980776869527552, "properties": {"loc": [-79.2852861, 43.7683992], "screen_name": "tpscalls", "text": "Unknown Trouble | Kennedy Rd &amp; Dundalk Dr [41 Div.] 08/17 14:30 #Dorset_Park #Toronto", "created_at": "Wed Aug 17 18:37:03 +0000 2016", "time": 1471459005.881576, "tid": 765980776869527552, "nei_num": "118"}}, {"geometry": {"type": "Point", "coordinates": [-79.2852861, 43.7683992]}, "type": "Feature", "id": 766657236307443712, "properties": {"loc": [-79.2852861, 43.7683992], "screen_name": "tpscalls", "text": "See Ambulance | Kennedy Rd &amp; Dundalk Dr [41 Div.] 08/19 11:19 #Dorset_Park #Toronto", "created_at": "Fri Aug 19 15:25:03 +0000 2016", "time": 1471620286.041264, "tid": 766657236307443712, "nei_num": "118"}}, {"geometry": {"type": "Point", "coordinates": [-79.2852861, 43.7683992]}, "type": "Feature", "id": 769769244544368640, "properties": {"loc": [-79.2852861, 43.7683992], "screen_name": "tpscalls", "text": "Assault | Kennedy Rd &amp; Dundalk Dr [41 Div.] 08/28 01:26 #Dorset_Park #Toronto", "created_at": "Sun Aug 28 05:31:04 +0000 2016", "time": 1472362244.487168, "tid": 769769244544368640, "nei_num": "118"}}, {"geometry": {"type": "Point", "coordinates": [-79.2852861, 43.7683992]}, "type": "Feature", "id": 770055126648315906, "properties": {"loc": [-79.2852861, 43.7683992], "screen_name": "tpscalls", "text": "Robbery | Kennedy Rd &amp; Dundalk Dr [41 Div.] 08/28 20:22 #Dorset_Park #Toronto", "created_at": "Mon Aug 29 00:27:03 +0000 2016", "time": 1472430403.947688, "tid": 770055126648315906, "nei_num": "118"}}, {"geometry": {"type": "Point", "coordinates": [-79.2852861, 43.7683992]}, "type": "Feature", "id": 770092878039220224, "properties": {"loc": [-79.2852861, 43.7683992], "screen_name": "tpscalls", "text": "Assault | Kennedy Rd &amp; Dundalk Dr [41 Div.] 08/28 22:51 #Dorset_Park #Toronto", "created_at": "Mon Aug 29 02:57:04 +0000 2016", "time": 1472439404.471042, "tid": 770092878039220224, "nei_num": "118"}}, {"geometry": {"type": "Point", "coordinates": [-79.2852861, 43.7683992]}, "type": "Feature", "id": 770188246307471360, "properties": {"loc": [-79.2852861, 43.7683992], "screen_name": "tpscalls", "text": "See Ambulance | Kennedy Rd &amp; Dundalk Dr [41 Div.] 08/29 05:09 #Dorset_Park #Toronto", "created_at": "Mon Aug 29 09:16:01 +0000 2016", "time": 1472462142.037108, "tid": 770188246307471360, "nei_num": "118"}}, {"geometry": {"type": "Point", "coordinates": [-79.2853311, 43.7685319]}, "type": "Feature", "id": 750362361752653824, "properties": {"loc": [-79.2853311, 43.7685319], "screen_name": "tpscalls", "text": "Natural Gas Leak | Glamorgan Ave &amp; 50 Dundalk Dr [41 Div.] 07/05 12:10 #Dorset_Park #Toronto", "created_at": "Tue Jul 05 16:15:02 +0000 2016", "time": 1467735295.903356, "tid": 750362361752653824, "nei_num": "118"}}, {"geometry": {"type": "Point", "coordinates": [-79.2853311, 43.7685319]}, "type": "Feature", "id": 764131852277936128, "properties": {"loc": [-79.2853311, 43.7685319], "screen_name": "tpscalls", "text": "Hazard | Glamorgan Ave &amp; 50 Dundalk Dr [41 Div.] 08/12 12:05 #Dorset_Park #Toronto", "created_at": "Fri Aug 12 16:10:05 +0000 2016", "time": 1471018189.108594, "tid": 764131852277936128, "nei_num": "118"}}, {"geometry": {"type": "Point", "coordinates": [-79.32294, 43.77008]}, "type": "Feature", "id": 767428667995807744, "properties": {"loc": [-79.32294, 43.77008], "screen_name": "RachelSega", "text": "Me &amp; Marielle with Marielle lmao #Marielle@18 \ud83c\udf89\ud83c\udf82 @ Radisson Toronto East https://t.co/qEYPKRLBWG", "created_at": "Sun Aug 21 18:30:27 +0000 2016", "time": 1471804209.216855, "tid": 767428667995807744, "nei_num": "118"}}, {"geometry": {"type": "Point", "coordinates": [-79.32175, 43.7701]}, "type": "Feature", "id": 769936354964832256, "properties": {"loc": [-79.32175, 43.7701], "screen_name": "HomenetmenTO", "text": "Stop by our registration table at the ACC today until 1:30pm to sign up for this year's A Run To\u2026 https://t.co/fRcUy2ynP0", "created_at": "Sun Aug 28 16:35:06 +0000 2016", "time": 1472402086.750196, "tid": 769936354964832256, "nei_num": "118"}}, {"geometry": {"type": "Point", "coordinates": [-79.32201, 43.77132]}, "type": "Feature", "id": 750343707002560512, "properties": {"loc": [-79.32201, 43.77132], "screen_name": "AaronPritchett", "text": "A repost of Rapid Fire with my friends at countryvoice at the @universalmusicc office! @\u2026 https://t.co/JIIIoS37Uy", "created_at": "Tue Jul 05 15:00:55 +0000 2016", "time": 1467730848.201821, "tid": 750343707002560512, "nei_num": "118"}}, {"geometry": {"type": "Point", "coordinates": [-79.32201, 43.77132]}, "type": "Feature", "id": 755139353085632512, "properties": {"loc": [-79.32201, 43.77132], "screen_name": "MedyLandia", "text": "Aqui con mi hermanito @__nandoflow meetings. #medylandia #najove #universalmusic #toronto @\u2026 https://t.co/nSB9juJfnb", "created_at": "Mon Jul 18 20:37:06 +0000 2016", "time": 1468874216.241802, "tid": 755139353085632512, "nei_num": "118"}}, {"geometry": {"type": "Point", "coordinates": [-79.32201, 43.77132]}, "type": "Feature", "id": 755144677477801990, "properties": {"loc": [-79.32201, 43.77132], "screen_name": "MedyLandia", "text": "With my beautiful friend deejaychelli #universalmusic #medylandia @ Universal Music Canada https://t.co/xs6JyEIo6r", "created_at": "Mon Jul 18 20:58:15 +0000 2016", "time": 1468875485.614431, "tid": 755144677477801990, "nei_num": "118"}}, {"geometry": {"type": "Point", "coordinates": [-79.32201, 43.77132]}, "type": "Feature", "id": 755146460509966336, "properties": {"loc": [-79.32201, 43.77132], "screen_name": "MedyLandia", "text": "I don't gone write a huge message about how i feel receiving my first golden plaque, but it's an\u2026 https://t.co/gSMhikCQZq", "created_at": "Mon Jul 18 21:05:20 +0000 2016", "time": 1468875910.709383, "tid": 755146460509966336, "nei_num": "118"}}, {"geometry": {"type": "Point", "coordinates": [-79.32201, 43.77132]}, "type": "Feature", "id": 755889556172439552, "properties": {"loc": [-79.32201, 43.77132], "screen_name": "LexBorrero", "text": "\ud83d\udc4c\ud83c\udffc @alxvelizmusic @ Universal Music Canada https://t.co/7GtS3Umhl4", "created_at": "Wed Jul 20 22:18:08 +0000 2016", "time": 1469053078.3327, "tid": 755889556172439552, "nei_num": "118"}}, {"geometry": {"type": "Point", "coordinates": [-79.3215768, 43.7718629]}, "type": "Feature", "id": 756712459377971201, "properties": {"loc": [-79.3215768, 43.7718629], "screen_name": "tpscalls", "text": "Found Property | Consumers Rd &amp; Victoria Park Ave [33 Div.] 07/23 00:44 #Henry_Farm #Toronto", "created_at": "Sat Jul 23 04:48:04 +0000 2016", "time": 1469249272.877139, "tid": 756712459377971201, "nei_num": "118"}}, {"geometry": {"type": "Point", "coordinates": [-79.3215768, 43.7718629]}, "type": "Feature", "id": 761226705994407936, "properties": {"loc": [-79.3215768, 43.7718629], "screen_name": "tpscalls", "text": "Hazard | Victoria Park Ave &amp; Consumers Rd [33 Div.] 08/04 11:39 #Henry_Farm #Toronto", "created_at": "Thu Aug 04 15:46:04 +0000 2016", "time": 1470325550.235623, "tid": 761226705994407936, "nei_num": "118"}}, {"geometry": {"type": "Point", "coordinates": [-79.3216072, 43.7719556]}, "type": "Feature", "id": 755150417173090305, "properties": {"loc": [-79.3216072, 43.7719556], "screen_name": "tpscalls", "text": "Personal Injury Collision | Victoria Park Ave &amp; Consumers Rd [HP] 07/18 17:17 #Henry_Farm #Toronto", "created_at": "Mon Jul 18 21:21:04 +0000 2016", "time": 1468876854.002583, "tid": 755150417173090305, "nei_num": "118"}}, {"geometry": {"type": "Point", "coordinates": [-79.3216072, 43.7719556]}, "type": "Feature", "id": 757555256855257089, "properties": {"loc": [-79.3216072, 43.7719556], "screen_name": "tpscalls", "text": "Traffic Obstruct | Victoria Park Ave &amp; Consumers Rd [33 Div.] 07/25 08:30 #Henry_Farm #Toronto", "created_at": "Mon Jul 25 12:37:02 +0000 2016", "time": 1469450211.012207, "tid": 757555256855257089, "nei_num": "118"}}, {"geometry": {"type": "Point", "coordinates": [-79.32132563, 43.77212141]}, "type": "Feature", "id": 763140449024356353, "properties": {"loc": [-79.32132563, 43.77212141], "screen_name": "Ps4gamer416", "text": "#starbucks #grande #coldbrew and a #venti #icepassiontangotea with\u2026 https://t.co/VsxxoAI3xo", "created_at": "Tue Aug 09 22:30:36 +0000 2016", "time": 1470781820.896933, "tid": 763140449024356353, "nei_num": "118"}}, {"geometry": {"type": "Point", "coordinates": [-79.32216042, 43.77357894]}, "type": "Feature", "id": 750385770976964608, "properties": {"loc": [-79.32216042, 43.77357894], "screen_name": "ComicCanuck", "text": "I'm at TD Canada Trust in Toronto, ON https://t.co/rATAomGAic", "created_at": "Tue Jul 05 17:48:03 +0000 2016", "time": 1467740876.963866, "tid": 750385770976964608, "nei_num": "118"}}, {"geometry": {"type": "Point", "coordinates": [-79.32216042, 43.77357894]}, "type": "Feature", "id": 772151185017073664, "properties": {"loc": [-79.32216042, 43.77357894], "screen_name": "ComicCanuck", "text": "I'm at TD Canada Trust in Toronto, ON https://t.co/ENUoDxuzRx", "created_at": "Sat Sep 03 19:16:03 +0000 2016", "time": 1472930141.875545, "tid": 772151185017073664, "nei_num": "118"}}, {"geometry": {"type": "Point", "coordinates": [-79.32200086, 43.77335482]}, "type": "Feature", "id": 762397004634984448, "properties": {"loc": [-79.32200086, 43.77335482], "screen_name": "Andruchovici", "text": "Out for dinner (@ Swiss Chalet in Toronto, ON) https://t.co/z3pVVczZWS", "created_at": "Sun Aug 07 21:16:25 +0000 2016", "time": 1470604570.433684, "tid": 762397004634984448, "nei_num": "118"}}, {"geometry": {"type": "Point", "coordinates": [-79.3221231, 43.7735066]}, "type": "Feature", "id": 759848633739120640, "properties": {"loc": [-79.3221231, 43.7735066], "screen_name": "tpscalls", "text": "Personal Injury Collision | Victoria Park Ave &amp; Esquire Rd [HP] 07/31 16:25 #Tam_O'Shanter_Sullivan #Toronto", "created_at": "Sun Jul 31 20:30:06 +0000 2016", "time": 1469996993.075697, "tid": 759848633739120640, "nei_num": "118"}}, {"geometry": {"type": "Point", "coordinates": [-79.3221231, 43.7735066]}, "type": "Feature", "id": 769292851209461760, "properties": {"loc": [-79.3221231, 43.7735066], "screen_name": "tpscalls", "text": "Personal Injury Collision | Esquire Rd &amp; Victoria Park Ave [HP] 08/26 17:51 #Tam_O'Shanter_Sullivan #Toronto", "created_at": "Fri Aug 26 21:58:03 +0000 2016", "time": 1472248663.799123, "tid": 769292851209461760, "nei_num": "118"}}, {"geometry": {"type": "Point", "coordinates": [-79.3214472, 43.7729171]}, "type": "Feature", "id": 750003694301618176, "properties": {"loc": [-79.3214472, 43.7729171], "screen_name": "tmj_gta_hrta", "text": "Barista (CA) - Starbucks: https://t.co/C6S3mflTSs #Hospitality #Veterans #Job #Jobs #Hiring #CareerArc", "created_at": "Mon Jul 04 16:29:49 +0000 2016", "time": 1467649783.092975, "tid": 750003694301618176, "nei_num": "118"}}, {"geometry": {"type": "Point", "coordinates": [-79.3214472, 43.7729171]}, "type": "Feature", "id": 751880184555384832, "properties": {"loc": [-79.3214472, 43.7729171], "screen_name": "tmj_gta_hrta", "text": "We're #hiring! Read about our latest #job opening here: Shift Supervisor (CA) - https://t.co/HcPfRe69gA #Hospitality #Veterans #CareerArc", "created_at": "Sat Jul 09 20:46:19 +0000 2016", "time": 1468097172.031159, "tid": 751880184555384832, "nei_num": "118"}}, {"geometry": {"type": "Point", "coordinates": [-79.3214472, 43.7729171]}, "type": "Feature", "id": 752493066871644160, "properties": {"loc": [-79.3214472, 43.7729171], "screen_name": "tmj_gta_hrta", "text": "If you're looking for work in , check out this #job: https://t.co/C6S3mflTSs #Hospitality #Veterans #Hiring #CareerArc", "created_at": "Mon Jul 11 13:21:42 +0000 2016", "time": 1468243294.125442, "tid": 752493066871644160, "nei_num": "118"}}, {"geometry": {"type": "Point", "coordinates": [-79.3214472, 43.7729171]}, "type": "Feature", "id": 754065120326586368, "properties": {"loc": [-79.3214472, 43.7729171], "screen_name": "tmj_gta_hrta", "text": "This #job might be a great fit for you: Shift Supervisor (CA) - https://t.co/HcPfRe69gA #Hospitality #Veterans #Hiring #CareerArc", "created_at": "Fri Jul 15 21:28:29 +0000 2016", "time": 1468618099.841819, "tid": 754065120326586368, "nei_num": "118"}}, {"geometry": {"type": "Point", "coordinates": [-79.3214472, 43.7729171]}, "type": "Feature", "id": 754678154107551744, "properties": {"loc": [-79.3214472, 43.7729171], "screen_name": "tmj_gta_hrta", "text": "We're #hiring! Click to apply: Barista (CA) - https://t.co/C6S3mflTSs #Job #Hospitality #Veterans #Jobs #CareerArc", "created_at": "Sun Jul 17 14:04:27 +0000 2016", "time": 1468764258.070645, "tid": 754678154107551744, "nei_num": "118"}}, {"geometry": {"type": "Point", "coordinates": [-79.3214472, 43.7729171]}, "type": "Feature", "id": 756467039116472321, "properties": {"loc": [-79.3214472, 43.7729171], "screen_name": "tmj_gta_hrta", "text": "Want to work in ? View our latest opening: https://t.co/HcPfRe69gA #Job #Hospitality #Veterans #Jobs #Hiring #CareerArc", "created_at": "Fri Jul 22 12:32:51 +0000 2016", "time": 1469190760.482348, "tid": 756467039116472321, "nei_num": "118"}}, {"geometry": {"type": "Point", "coordinates": [-79.3214472, 43.7729171]}, "type": "Feature", "id": 756873629627850756, "properties": {"loc": [-79.3214472, 43.7729171], "screen_name": "tmj_gta_hrta", "text": "We're #hiring! Click to apply: Barista (CA) - https://t.co/C6S3mflTSs #Job #Hospitality #Veterans #Jobs #CareerArc", "created_at": "Sat Jul 23 15:28:29 +0000 2016", "time": 1469287698.821943, "tid": 756873629627850756, "nei_num": "118"}}, {"geometry": {"type": "Point", "coordinates": [-79.3214472, 43.7729171]}, "type": "Feature", "id": 758671154034860032, "properties": {"loc": [-79.3214472, 43.7729171], "screen_name": "tmj_gta_hrta", "text": "If you're looking for work in , check out this #job: https://t.co/HcPfRe69gA #Hospitality #Veterans #Hiring #CareerArc", "created_at": "Thu Jul 28 14:31:13 +0000 2016", "time": 1469716260.995811, "tid": 758671154034860032, "nei_num": "118"}}, {"geometry": {"type": "Point", "coordinates": [-79.3214472, 43.7729171]}, "type": "Feature", "id": 759074037829992448, "properties": {"loc": [-79.3214472, 43.7729171], "screen_name": "tmj_gta_hrta", "text": "Can you recommend anyone for this #job? Barista (CA) - https://t.co/C6S3mflTSs #Hospitality #Veterans #Hiring #CareerArc", "created_at": "Fri Jul 29 17:12:08 +0000 2016", "time": 1469812315.714709, "tid": 759074037829992448, "nei_num": "118"}}, {"geometry": {"type": "Point", "coordinates": [-79.3214472, 43.7729171]}, "type": "Feature", "id": 760868067425460224, "properties": {"loc": [-79.3214472, 43.7729171], "screen_name": "tmj_gta_hrta", "text": "Interested in a #job near ? This could be a great fit: https://t.co/HcPfRe69gA #Hospitality #Veterans #Hiring #CareerArc", "created_at": "Wed Aug 03 16:00:58 +0000 2016", "time": 1470240044.395738, "tid": 760868067425460224, "nei_num": "118"}}, {"geometry": {"type": "Point", "coordinates": [-79.3214472, 43.7729171]}, "type": "Feature", "id": 761271254338772992, "properties": {"loc": [-79.3214472, 43.7729171], "screen_name": "tmj_gta_hrta", "text": "Want to work at Starbucks? We're #hiring in ! Click for details: https://t.co/C6S3mflTSs #Job #Hospitality #Veterans #Jobs #CareerArc", "created_at": "Thu Aug 04 18:43:05 +0000 2016", "time": 1470336171.350418, "tid": 761271254338772992, "nei_num": "118"}}, {"geometry": {"type": "Point", "coordinates": [-79.3214472, 43.7729171]}, "type": "Feature", "id": 763064605077741568, "properties": {"loc": [-79.3214472, 43.7729171], "screen_name": "tmj_gta_hrta", "text": "Can you recommend anyone for this #job? Shift Supervisor (CA) - https://t.co/HcPfRe69gA #Hospitality #Veterans #Hiring #CareerArc", "created_at": "Tue Aug 09 17:29:13 +0000 2016", "time": 1470763738.305343, "tid": 763064605077741568, "nei_num": "118"}}, {"geometry": {"type": "Point", "coordinates": [-79.3214472, 43.7729171]}, "type": "Feature", "id": 763467546657853440, "properties": {"loc": [-79.3214472, 43.7729171], "screen_name": "tmj_gta_hrta", "text": "If you're looking for work in , check out this #job: https://t.co/C6S3mflTSs #Hospitality #Veterans #Hiring #CareerArc", "created_at": "Wed Aug 10 20:10:22 +0000 2016", "time": 1470859806.806939, "tid": 763467546657853440, "nei_num": "118"}}, {"geometry": {"type": "Point", "coordinates": [-79.3214472, 43.7729171]}, "type": "Feature", "id": 765260800105717760, "properties": {"loc": [-79.3214472, 43.7729171], "screen_name": "tmj_gta_hrta", "text": "Want to work at Starbucks? We're #hiring in ! Click for details: https://t.co/HcPfRe69gA #Job #Hospitality #Veterans #Jobs #CareerArc", "created_at": "Mon Aug 15 18:56:07 +0000 2016", "time": 1471287350.628844, "tid": 765260800105717760, "nei_num": "118"}}, {"geometry": {"type": "Point", "coordinates": [-79.3214472, 43.7729171]}, "type": "Feature", "id": 765660709011136512, "properties": {"loc": [-79.3214472, 43.7729171], "screen_name": "tmj_gta_hrta", "text": "See our latest #job and click to apply: Barista (CA) - https://t.co/C6S3mflTSs #Hospitality #Veterans #Hiring #CareerArc", "created_at": "Tue Aug 16 21:25:12 +0000 2016", "time": 1471382696.035915, "tid": 765660709011136512, "nei_num": "118"}}, {"geometry": {"type": "Point", "coordinates": [-79.3214472, 43.7729171]}, "type": "Feature", "id": 767453290812481536, "properties": {"loc": [-79.3214472, 43.7729171], "screen_name": "tmj_gta_hrta", "text": "We're #hiring! Read about our latest #job opening here: Shift Supervisor (CA) - https://t.co/HcPfRe69gA #Hospitality #Veterans #CareerArc", "created_at": "Sun Aug 21 20:08:17 +0000 2016", "time": 1471810079.645937, "tid": 767453290812481536, "nei_num": "118"}}, {"geometry": {"type": "Point", "coordinates": [-79.3214472, 43.7729171]}, "type": "Feature", "id": 768064685404848128, "properties": {"loc": [-79.3214472, 43.7729171], "screen_name": "tmj_gta_hrta", "text": "If you're looking for work in , check out this #job: https://t.co/C6S3mflTSs #Hospitality #Veterans #Hiring #CareerArc", "created_at": "Tue Aug 23 12:37:45 +0000 2016", "time": 1471955847.199107, "tid": 768064685404848128, "nei_num": "118"}}, {"geometry": {"type": "Point", "coordinates": [-79.3214472, 43.7729171]}, "type": "Feature", "id": 769872192771203072, "properties": {"loc": [-79.3214472, 43.7729171], "screen_name": "tmj_gta_hrta", "text": "This #job might be a great fit for you: Shift Supervisor (CA) - https://t.co/HcPfRe69gA #Hospitality #Veterans #Hiring #CareerArc", "created_at": "Sun Aug 28 12:20:08 +0000 2016", "time": 1472386789.322117, "tid": 769872192771203072, "nei_num": "118"}}, {"geometry": {"type": "Point", "coordinates": [-79.3214472, 43.7729171]}, "type": "Feature", "id": 770281178783809536, "properties": {"loc": [-79.3214472, 43.7729171], "screen_name": "tmj_gta_hrta", "text": "We're #hiring! Click to apply: Barista (CA) - https://t.co/C6S3mflTSs #Job #Hospitality #Veterans #Jobs #CareerArc", "created_at": "Mon Aug 29 15:25:18 +0000 2016", "time": 1472484298.879001, "tid": 770281178783809536, "nei_num": "118"}}, {"geometry": {"type": "Point", "coordinates": [-79.3214472, 43.7729171]}, "type": "Feature", "id": 772084624142979072, "properties": {"loc": [-79.3214472, 43.7729171], "screen_name": "tmj_gta_hrta", "text": "Can you recommend anyone for this #job? Shift Supervisor (CA) - https://t.co/HcPfRe69gA #Hospitality #Veterans #Hiring #CareerArc", "created_at": "Sat Sep 03 14:51:33 +0000 2016", "time": 1472914272.647164, "tid": 772084624142979072, "nei_num": "118"}}, {"geometry": {"type": "Point", "coordinates": [-79.3214472, 43.7729171]}, "type": "Feature", "id": 772485582857445376, "properties": {"loc": [-79.3214472, 43.7729171], "screen_name": "tmj_gta_hrta", "text": "See our latest #job and click to apply: Barista (CA) - https://t.co/C6S3mflTSs #Hospitality #Veterans #Hiring #CareerArc", "created_at": "Sun Sep 04 17:24:49 +0000 2016", "time": 1473009868.373529, "tid": 772485582857445376, "nei_num": "118"}}, {"geometry": {"type": "Point", "coordinates": [-79.32251255, 43.77422655]}, "type": "Feature", "id": 761693776045899777, "properties": {"loc": [-79.32251255, 43.77422655], "screen_name": "ComicCanuck", "text": "Greek dinners! (@ Esquire Restaurant - @esquiresouvlaki in Toronto, ON) https://t.co/FYjukLSOSn", "created_at": "Fri Aug 05 22:42:02 +0000 2016", "time": 1470436908.130287, "tid": 761693776045899777, "nei_num": "118"}}, {"geometry": {"type": "Point", "coordinates": [-79.3224658, 43.7739997]}, "type": "Feature", "id": 771145719134773248, "properties": {"loc": [-79.3224658, 43.7739997], "screen_name": "ApriltheLee", "text": "#pickingup some fatbastardburrito!! #yummy #awesome #huge #latedinner #justintime @ Fat Bastard\u2026 https://t.co/bjNwQh4wcZ", "created_at": "Thu Sep 01 00:40:41 +0000 2016", "time": 1472690420.780652, "tid": 771145719134773248, "nei_num": "118"}}, {"geometry": {"type": "Point", "coordinates": [-79.322386, 43.77399922]}, "type": "Feature", "id": 771408723852029952, "properties": {"loc": [-79.322386, 43.77399922], "screen_name": "ivanleungphoto", "text": "I'm at Fat Bastard Burrito Co https://t.co/L8DYmYZze2", "created_at": "Thu Sep 01 18:05:46 +0000 2016", "time": 1472753126.26321, "tid": 771408723852029952, "nei_num": "118"}}, {"geometry": {"type": "Point", "coordinates": [-79.322364, 43.774887]}, "type": "Feature", "id": 756705397889703937, "properties": {"loc": [-79.322364, 43.774887], "screen_name": "Alex_In_Toronto", "text": "It is not a Friday night cruise without Johnny's hamburger!!!! #ClasSix (@ Johnny's Hamburgers in Toronto, ON) https://t.co/5X624nZ0Bs", "created_at": "Sat Jul 23 04:20:00 +0000 2016", "time": 1469247589.370459, "tid": 756705397889703937, "nei_num": "118"}}, {"geometry": {"type": "Point", "coordinates": [-79.322364, 43.774887]}, "type": "Feature", "id": 771135858393186304, "properties": {"loc": [-79.322364, 43.774887], "screen_name": "RealChrisTorres", "text": "Dinner for hungry Cubby! (@ Johnny's Hamburgers in Toronto, ON) https://t.co/Z3iCuvC2Zu", "created_at": "Thu Sep 01 00:01:30 +0000 2016", "time": 1472688069.786516, "tid": 771135858393186304, "nei_num": "118"}}, {"geometry": {"type": "Point", "coordinates": [-79.3223, 43.7749]}, "type": "Feature", "id": 756685013228355588, "properties": {"loc": [-79.3223, 43.7749], "screen_name": "Parlay_King", "text": "One of the best choices for #hamburgers in #Scarborough , Johnny's Hamburgers. #Toronto #Canada\u2026 https://t.co/3snIl0PTXv", "created_at": "Sat Jul 23 02:59:00 +0000 2016", "time": 1469242729.270591, "tid": 756685013228355588, "nei_num": "118"}}, {"geometry": {"type": "Point", "coordinates": [-79.3223, 43.7749]}, "type": "Feature", "id": 761383196046991361, "properties": {"loc": [-79.3223, 43.7749], "screen_name": "FCBTML", "text": "Day 217, #Burger 217. When in #Scarborough, #JohnnysHamburgers is the only real option. This is\u2026 https://t.co/Tq8acgQDGT", "created_at": "Fri Aug 05 02:07:54 +0000 2016", "time": 1470362860.232524, "tid": 761383196046991361, "nei_num": "118"}}, {"geometry": {"type": "Point", "coordinates": [-79.3228938, 43.7752627]}, "type": "Feature", "id": 770307538508283904, "properties": {"loc": [-79.3228938, 43.7752627], "screen_name": "tpscalls", "text": "Unknown Trouble | Victoria Park Ave &amp; Sheppard Ave E [42 Div.] 08/29 13:03 #Tam_O'Shanter_Sullivan #Toronto", "created_at": "Mon Aug 29 17:10:03 +0000 2016", "time": 1472490583.49043, "tid": 770307538508283904, "nei_num": "118"}}, {"geometry": {"type": "Point", "coordinates": [-79.32272731, 43.77522013]}, "type": "Feature", "id": 705814359709249536, "properties": {"loc": [-79.32272731, 43.77522013], "screen_name": "caiodias", "text": "@verineas @victorcaparica a partir de hoje toda imagem que eu postar e der RT vou dar reply com a legenda dela.", "created_at": "Fri Mar 04 17:57:11 +0000 2016", "time": 1457114231.902996, "tid": 705814359709249536, "nei_num": "118"}}, {"geometry": {"type": "Point", "coordinates": [-79.32267641, 43.77532796]}, "type": "Feature", "id": 756546172005654528, "properties": {"loc": [-79.32267641, 43.77532796], "screen_name": "caiodias", "text": "#dica https://t.co/Lypa23UsZF", "created_at": "Fri Jul 22 17:47:18 +0000 2016", "time": 1469209627.21865, "tid": 756546172005654528, "nei_num": "118"}}, {"geometry": {"type": "Point", "coordinates": [-79.3226615, 43.77539013]}, "type": "Feature", "id": 752315823100874752, "properties": {"loc": [-79.3226615, 43.77539013], "screen_name": "CollineSawi", "text": "That big breakfast tho @ Eggsmart https://t.co/cIr5aJ6G34", "created_at": "Mon Jul 11 01:37:24 +0000 2016", "time": 1468201036.108559, "tid": 752315823100874752, "nei_num": "118"}}, {"geometry": {"type": "Point", "coordinates": [-79.3225124, 43.77543286]}, "type": "Feature", "id": 756532916918693888, "properties": {"loc": [-79.3225124, 43.77543286], "screen_name": "caiodias", "text": "Por favor, aprendam https://t.co/YkbQUqs3e8", "created_at": "Fri Jul 22 16:54:37 +0000 2016", "time": 1469206466.860731, "tid": 756532916918693888, "nei_num": "118"}}, {"geometry": {"type": "Point", "coordinates": [-79.321775, 43.776752]}, "type": "Feature", "id": 765622944861216768, "properties": {"loc": [-79.321775, 43.776752], "screen_name": "Peggypapadatos", "text": "#Coolday#\u2614\ufe0f\u2764\ufe0f @ Victoria Park and Sheppard https://t.co/rJ3RkOF9z3", "created_at": "Tue Aug 16 18:55:09 +0000 2016", "time": 1471373692.388479, "tid": 765622944861216768, "nei_num": "118"}}, {"geometry": {"type": "Point", "coordinates": [-79.322806, 43.7810107]}, "type": "Feature", "id": 764729026183307264, "properties": {"loc": [-79.322806, 43.7810107], "screen_name": "tpscalls", "text": "Fire | Fairglen Ave &amp; Huntingwood Dr [42 Div.] 08/14 03:38 #Corinthian #Toronto", "created_at": "Sun Aug 14 07:43:02 +0000 2016", "time": 1471160566.092368, "tid": 764729026183307264, "nei_num": "118"}}, {"geometry": {"type": "Point", "coordinates": [-79.32121856, 43.77225172]}, "type": "Feature", "id": 766441133450952709, "properties": {"loc": [-79.32121856, 43.77225172], "screen_name": "Angelithx0", "text": "My Other Half Birthday \ud83c\udf70\ud83c\udf88\ud83c\udf89\ud83c\udf7b\ud83d\udeac @ Queen's Head Pub https://t.co/ObCbsTgJmX", "created_at": "Fri Aug 19 01:06:20 +0000 2016", "time": 1471568763.184241, "tid": 766441133450952709, "nei_num": "118"}}, {"geometry": {"type": "Point", "coordinates": [-79.32121856, 43.77225172]}, "type": "Feature", "id": 766594086715482112, "properties": {"loc": [-79.32121856, 43.77225172], "screen_name": "Angelithx0", "text": "Me &amp; my other half birthday \ud83c\udf89\ud83c\udf70\ud83c\udf88\ud83d\udeac\ud83c\udf7b @ Queen's Head Pub https://t.co/csixZS9gWb", "created_at": "Fri Aug 19 11:14:07 +0000 2016", "time": 1471605230.130601, "tid": 766594086715482112, "nei_num": "118"}}, {"geometry": {"type": "Point", "coordinates": [-79.32121856, 43.77225172]}, "type": "Feature", "id": 768973075186540544, "properties": {"loc": [-79.32121856, 43.77225172], "screen_name": "Angelithx0", "text": "#Love &amp; #couple  #picture  #other-half #birthday \ud83c\udf89\ud83c\udf70\ud83c\udf88\ud83d\udeac\ud83c\udf7b#pub #fun #celebration #romance @ Queen's\u2026 https://t.co/csixZRRFxB", "created_at": "Fri Aug 26 00:47:22 +0000 2016", "time": 1472172423.585653, "tid": 768973075186540544, "nei_num": "118"}}, {"geometry": {"type": "Point", "coordinates": [-79.321125, 43.772212]}, "type": "Feature", "id": 764237623246422016, "properties": {"loc": [-79.321125, 43.772212], "screen_name": "KevinTCraig", "text": "Someone got his Birthday Drink 2 days early! Someone (not me) turns 50 in 2 days! Numbers...\u2026 https://t.co/YCB76GGcSy", "created_at": "Fri Aug 12 23:10:22 +0000 2016", "time": 1471043406.862847, "tid": 764237623246422016, "nei_num": "118"}}, {"geometry": {"type": "Point", "coordinates": [-79.3199413, 43.7714144]}, "type": "Feature", "id": 770201080940621824, "properties": {"loc": [-79.3199413, 43.7714144], "screen_name": "tpscalls", "text": "Theft In Progress | Meadowacres Dr &amp; Farmcrest Dr [42 Div.] 08/29 06:02 #Tam_O'Shanter_Sullivan #Toronto", "created_at": "Mon Aug 29 10:07:01 +0000 2016", "time": 1472465202.009975, "tid": 770201080940621824, "nei_num": "118"}}, {"geometry": {"type": "Point", "coordinates": [-79.319218, 43.7715607]}, "type": "Feature", "id": 763509496001986560, "properties": {"loc": [-79.319218, 43.7715607], "screen_name": "tpscalls", "text": "Fire | Farmcrest Dr &amp; Nobert Rd [42 Div.] 08/10 18:53 #Tam_O'Shanter_Sullivan #Toronto", "created_at": "Wed Aug 10 22:57:03 +0000 2016", "time": 1470869808.221411, "tid": 763509496001986560, "nei_num": "118"}}, {"geometry": {"type": "Point", "coordinates": [-79.32090282, 43.77251932]}, "type": "Feature", "id": 750388715319619585, "properties": {"loc": [-79.32090282, 43.77251932], "screen_name": "ComicCanuck", "text": "I'm at Noodle Delight in Toronto, ON https://t.co/1Qm7gzLo6N", "created_at": "Tue Jul 05 17:59:45 +0000 2016", "time": 1467741578.924851, "tid": 750388715319619585, "nei_num": "118"}}, {"geometry": {"type": "Point", "coordinates": [-79.3209417, 43.7729276]}, "type": "Feature", "id": 705104558968602625, "properties": {"loc": [-79.3209417, 43.7729276], "screen_name": "tmj_gta_hrta", "text": "Interested in a #Hospitality #job near ? This could be a great fit: https://t.co/HcPfRe69gA #Veterans #Hiring #CareerArc", "created_at": "Wed Mar 02 18:56:41 +0000 2016", "time": 1456945001.990919, "tid": 705104558968602625, "nei_num": "118"}}, {"geometry": {"type": "Point", "coordinates": [-79.3209417, 43.7729276]}, "type": "Feature", "id": 705847310358417408, "properties": {"loc": [-79.3209417, 43.7729276], "screen_name": "tmj_gta_hrta", "text": "We're #hiring! Click to apply: Barista (CA) - https://t.co/C6S3mflTSs #Hospitality #Veterans #Job #Jobs #CareerArc", "created_at": "Fri Mar 04 20:08:07 +0000 2016", "time": 1457122087.993314, "tid": 705847310358417408, "nei_num": "118"}}, {"geometry": {"type": "Point", "coordinates": [-79.3211, 43.7729799]}, "type": "Feature", "id": 752591975363207169, "properties": {"loc": [-79.3211, 43.7729799], "screen_name": "relaxplanning", "text": "Monday morning #weddingplanning meeta333 #ichoochoochooseyou2017 #2017wedding #engaged\u2026 https://t.co/gBkQdK351Z", "created_at": "Mon Jul 11 19:54:44 +0000 2016", "time": 1468266875.83112, "tid": 752591975363207169, "nei_num": "118"}}, {"geometry": {"type": "Point", "coordinates": [-79.32052082, 43.77239854]}, "type": "Feature", "id": 763498241375735808, "properties": {"loc": [-79.32052082, 43.77239854], "screen_name": "ComicCanuck", "text": "I'm at Noodle Delight in Toronto, ON https://t.co/GebaCIn7Qr", "created_at": "Wed Aug 10 22:12:20 +0000 2016", "time": 1470867124.941771, "tid": 763498241375735808, "nei_num": "118"}}, {"geometry": {"type": "Point", "coordinates": [-79.32052082, 43.77239854]}, "type": "Feature", "id": 766679664442150912, "properties": {"loc": [-79.32052082, 43.77239854], "screen_name": "ComicCanuck", "text": "Lunch.  Starving. (@ Noodle Delight in Toronto, ON) https://t.co/OWHfIEbl6s", "created_at": "Fri Aug 19 16:54:10 +0000 2016", "time": 1471625633.358145, "tid": 766679664442150912, "nei_num": "118"}}, {"geometry": {"type": "Point", "coordinates": [-79.32052082, 43.77239854]}, "type": "Feature", "id": 771848682513793024, "properties": {"loc": [-79.32052082, 43.77239854], "screen_name": "ComicCanuck", "text": "I'm at Noodle Delight in Toronto, ON https://t.co/Me3xubyIb6", "created_at": "Fri Sep 02 23:14:00 +0000 2016", "time": 1472858019.900957, "tid": 771848682513793024, "nei_num": "118"}}, {"geometry": {"type": "Point", "coordinates": [-79.32052082, 43.77239854]}, "type": "Feature", "id": 773193600473661440, "properties": {"loc": [-79.32052082, 43.77239854], "screen_name": "ComicCanuck", "text": "Hungry for lunch! (@ Noodle Delight in Toronto, ON) https://t.co/8J40WDFcAy", "created_at": "Tue Sep 06 16:18:14 +0000 2016", "time": 1473178672.527791, "tid": 773193600473661440, "nei_num": "118"}}, {"geometry": {"type": "Point", "coordinates": [-79.3206679, 43.7738557]}, "type": "Feature", "id": 752960231890649088, "properties": {"loc": [-79.3206679, 43.7738557], "screen_name": "tpscalls", "text": "Holding One With Trouble | Consumers Rd &amp; Esquire Rd [42 Div.] 07/12 16:12 #Tam_O'Shanter_Sullivan #Toronto", "created_at": "Tue Jul 12 20:18:03 +0000 2016", "time": 1468354674.722774, "tid": 752960231890649088, "nei_num": "118"}}, {"geometry": {"type": "Point", "coordinates": [-79.3206679, 43.7738557]}, "type": "Feature", "id": 755075674596147200, "properties": {"loc": [-79.3206679, 43.7738557], "screen_name": "tpscalls", "text": "Holding One | Consumers Rd &amp; Esquire Rd [42 Div.] 07/18 12:18 #Tam_O'Shanter_Sullivan #Toronto", "created_at": "Mon Jul 18 16:24:04 +0000 2016", "time": 1468859034.111541, "tid": 755075674596147200, "nei_num": "118"}}, {"geometry": {"type": "Point", "coordinates": [-79.3206679, 43.7738557]}, "type": "Feature", "id": 766993952419549184, "properties": {"loc": [-79.3206679, 43.7738557], "screen_name": "tpscalls", "text": "Missing Elderly | Farmcrest Dr &amp; Esquire Rd [42 Div.] 08/20 09:37 #Tam_O'Shanter_Sullivan #Toronto", "created_at": "Sat Aug 20 13:43:02 +0000 2016", "time": 1471700565.209831, "tid": 766993952419549184, "nei_num": "118"}}, {"geometry": {"type": "Point", "coordinates": [-79.3206679, 43.7738557]}, "type": "Feature", "id": 769169790741188608, "properties": {"loc": [-79.3206679, 43.7738557], "screen_name": "tpscalls", "text": "Holding One With Trouble | Consumers Rd &amp; Esquire Rd [42 Div.] 08/26 09:43 #Tam_O'Shanter_Sullivan #Toronto", "created_at": "Fri Aug 26 13:49:03 +0000 2016", "time": 1472219323.974749, "tid": 769169790741188608, "nei_num": "118"}}, {"geometry": {"type": "Point", "coordinates": [-79.3188599, 43.7736046]}, "type": "Feature", "id": 749821314056220672, "properties": {"loc": [-79.3188599, 43.7736046], "screen_name": "tofire", "text": "Carbon Monoxide (Non Medical) - Commons Dr b/w Bugle Hill Road / Esquire Road, Scarborough (2 Trucks)", "created_at": "Mon Jul 04 04:25:06 +0000 2016", "time": 1467606300.262639, "tid": 749821314056220672, "nei_num": "118"}}, {"geometry": {"type": "Point", "coordinates": [-79.3188599, 43.7736046]}, "type": "Feature", "id": 749821314895142913, "properties": {"loc": [-79.3188599, 43.7736046], "screen_name": "tofireE", "text": "Carbon Monoxide (Non Medical) - Commons Dr b/w Bugle Hill Road / Esquire Road, Scarborough (2 Trucks)", "created_at": "Mon Jul 04 04:25:07 +0000 2016", "time": 1467606300.479951, "tid": 749821314895142913, "nei_num": "118"}}, {"geometry": {"type": "Point", "coordinates": [-79.31760799, 43.76992919]}, "type": "Feature", "id": 752920593876615169, "properties": {"loc": [-79.31760799, 43.76992919], "screen_name": "xXxKillBabyxXx", "text": "\"Outside kinda fun.\" #Family #FatherAndDaughter #LivingDeadClothing #CoolKids @ Wishing Well Park https://t.co/69fpPDTSNZ", "created_at": "Tue Jul 12 17:40:32 +0000 2016", "time": 1468345224.410336, "tid": 752920593876615169, "nei_num": "118"}}, {"geometry": {"type": "Point", "coordinates": [-79.31838875, 43.77113405]}, "type": "Feature", "id": 758456319657517056, "properties": {"loc": [-79.31838875, 43.77113405], "screen_name": "ComicCanuck", "text": "#SkypePainting (@ Northblade Keep in Scarborough, ON) https://t.co/OWn91FCOG8", "created_at": "Thu Jul 28 00:17:32 +0000 2016", "time": 1469665040.85688, "tid": 758456319657517056, "nei_num": "118"}}, {"geometry": {"type": "Point", "coordinates": [-79.31838875, 43.77113405]}, "type": "Feature", "id": 762985091375169536, "properties": {"loc": [-79.31838875, 43.77113405], "screen_name": "ComicCanuck", "text": "I'm at Northblade Keep in Scarborough, ON https://t.co/kXzAGoW1bo", "created_at": "Tue Aug 09 12:13:16 +0000 2016", "time": 1470744780.798648, "tid": 762985091375169536, "nei_num": "118"}}, {"geometry": {"type": "Point", "coordinates": [-79.31838875, 43.77113405]}, "type": "Feature", "id": 764887602675716096, "properties": {"loc": [-79.31838875, 43.77113405], "screen_name": "ComicCanuck", "text": "Finally home. (@ Northblade Keep in Scarborough, ON) https://t.co/sR6mIdNspg", "created_at": "Sun Aug 14 18:13:10 +0000 2016", "time": 1471198373.684182, "tid": 764887602675716096, "nei_num": "118"}}, {"geometry": {"type": "Point", "coordinates": [-79.31838875, 43.77113405]}, "type": "Feature", "id": 765327101000114177, "properties": {"loc": [-79.31838875, 43.77113405], "screen_name": "ComicCanuck", "text": "I'm at Northblade Keep in Scarborough, ON https://t.co/aGLZ7yEgcA", "created_at": "Mon Aug 15 23:19:34 +0000 2016", "time": 1471303157.933947, "tid": 765327101000114177, "nei_num": "118"}}, {"geometry": {"type": "Point", "coordinates": [-79.31838875, 43.77113405]}, "type": "Feature", "id": 767127118337740800, "properties": {"loc": [-79.31838875, 43.77113405], "screen_name": "ComicCanuck", "text": "Home sweet home. With beer. (@ Northblade Keep in Scarborough, ON) https://t.co/zqzzsEAbKk", "created_at": "Sat Aug 20 22:32:12 +0000 2016", "time": 1471732314.445015, "tid": 767127118337740800, "nei_num": "118"}}, {"geometry": {"type": "Point", "coordinates": [-79.31838875, 43.77113405]}, "type": "Feature", "id": 768249275390255104, "properties": {"loc": [-79.31838875, 43.77113405], "screen_name": "ComicCanuck", "text": "I'm at Northblade Keep in Scarborough, ON https://t.co/RUBkwoXL1s", "created_at": "Wed Aug 24 00:51:15 +0000 2016", "time": 1471999856.734021, "tid": 768249275390255104, "nei_num": "118"}}, {"geometry": {"type": "Point", "coordinates": [-79.31838875, 43.77113405]}, "type": "Feature", "id": 770321758066974720, "properties": {"loc": [-79.31838875, 43.77113405], "screen_name": "ComicCanuck", "text": "I'm at Northblade Keep in Scarborough, ON https://t.co/toXXQ6KnNP", "created_at": "Mon Aug 29 18:06:33 +0000 2016", "time": 1472493973.759574, "tid": 770321758066974720, "nei_num": "118"}}, {"geometry": {"type": "Point", "coordinates": [-79.31838875, 43.77113405]}, "type": "Feature", "id": 772504316636717060, "properties": {"loc": [-79.31838875, 43.77113405], "screen_name": "ComicCanuck", "text": "I'm at Northblade Keep in Scarborough, ON https://t.co/lKCRfeIT5C", "created_at": "Sun Sep 04 18:39:16 +0000 2016", "time": 1473014334.861912, "tid": 772504316636717060, "nei_num": "118"}}, {"geometry": {"type": "Point", "coordinates": [-79.31838875, 43.77113405]}, "type": "Feature", "id": 772877658367619072, "properties": {"loc": [-79.31838875, 43.77113405], "screen_name": "ComicCanuck", "text": "Playing Pokemon with the girl. (@ Northblade Keep in Scarborough, ON) https://t.co/koykV8fMt3", "created_at": "Mon Sep 05 19:22:47 +0000 2016", "time": 1473103346.278745, "tid": 772877658367619072, "nei_num": "118"}}, {"geometry": {"type": "Point", "coordinates": [-79.3181016, 43.7718214]}, "type": "Feature", "id": 763507741830877184, "properties": {"loc": [-79.3181016, 43.7718214], "screen_name": "tofire", "text": "Fire (Grass/rubbish) - Farmcrest Dr @ Commons Dr, Scarborough (2 Trucks)", "created_at": "Wed Aug 10 22:50:05 +0000 2016", "time": 1470869390.027595, "tid": 763507741830877184, "nei_num": "118"}}, {"geometry": {"type": "Point", "coordinates": [-79.3181016, 43.7718214]}, "type": "Feature", "id": 763507744456441856, "properties": {"loc": [-79.3181016, 43.7718214], "screen_name": "tofiref", "text": "Fire (Grass/rubbish) - Farmcrest Dr @ Commons Dr, Scarborough (2 Trucks)", "created_at": "Wed Aug 10 22:50:06 +0000 2016", "time": 1470869390.639564, "tid": 763507744456441856, "nei_num": "118"}}, {"geometry": {"type": "Point", "coordinates": [-79.3181016, 43.7718214]}, "type": "Feature", "id": 763507743349243906, "properties": {"loc": [-79.3181016, 43.7718214], "screen_name": "tofireE", "text": "Fire (Grass/rubbish) - Farmcrest Dr @ Commons Dr, Scarborough (2 Trucks)", "created_at": "Wed Aug 10 22:50:05 +0000 2016", "time": 1470869390.400351, "tid": 763507743349243906, "nei_num": "118"}}, {"geometry": {"type": "Point", "coordinates": [-79.3177591, 43.7710221]}, "type": "Feature", "id": 758374167196659712, "properties": {"loc": [-79.3177591, 43.7710221], "screen_name": "tofire", "text": "Fire (Grass/rubbish) - (Commons Dr @ Meadowacres Dr), Scarborough (2 Trucks)", "created_at": "Wed Jul 27 18:51:06 +0000 2016", "time": 1469645453.905856, "tid": 758374167196659712, "nei_num": "118"}}, {"geometry": {"type": "Point", "coordinates": [-79.3177591, 43.7710221]}, "type": "Feature", "id": 758374168438112256, "properties": {"loc": [-79.3177591, 43.7710221], "screen_name": "tofireE", "text": "Fire (Grass/rubbish) - (Commons Dr @ Meadowacres Dr), Scarborough (2 Trucks)", "created_at": "Wed Jul 27 18:51:06 +0000 2016", "time": 1469645454.113959, "tid": 758374168438112256, "nei_num": "118"}}, {"geometry": {"type": "Point", "coordinates": [-79.3177591, 43.7710221]}, "type": "Feature", "id": 758374169197314048, "properties": {"loc": [-79.3177591, 43.7710221], "screen_name": "tofiref", "text": "Fire (Grass/rubbish) - (Commons Dr @ Meadowacres Dr), Scarborough (2 Trucks)", "created_at": "Wed Jul 27 18:51:06 +0000 2016", "time": 1469645454.369333, "tid": 758374169197314048, "nei_num": "118"}}, {"geometry": {"type": "Point", "coordinates": [-79.3177591, 43.7710221]}, "type": "Feature", "id": 758387242230505472, "properties": {"loc": [-79.3177591, 43.7710221], "screen_name": "tpscalls", "text": "Fire | Seabury Gt &amp; Meadowacres Dr [42 Div.] 07/27 15:37 #Tam_O'Shanter_Sullivan #Toronto", "created_at": "Wed Jul 27 19:43:03 +0000 2016", "time": 1469648571.166515, "tid": 758387242230505472, "nei_num": "118"}}, {"geometry": {"type": "Point", "coordinates": [-79.3177591, 43.7710221]}, "type": "Feature", "id": 758834186245451786, "properties": {"loc": [-79.3177591, 43.7710221], "screen_name": "tpscalls", "text": "Dispute | Seabury Gt &amp; Meadowacres Dr [42 Div.] 07/28 21:12 #Tam_O'Shanter_Sullivan #Toronto", "created_at": "Fri Jul 29 01:19:03 +0000 2016", "time": 1469755130.679669, "tid": 758834186245451786, "nei_num": "118"}}, {"geometry": {"type": "Point", "coordinates": [-79.3175219, 43.7719902]}, "type": "Feature", "id": 771720852727558144, "properties": {"loc": [-79.3175219, 43.7719902], "screen_name": "tpscalls", "text": "Theft In Progress | Ww N Seabury E Pharmacy &amp; Farmcrest Dr [42 Div.] 09/02 10:39 #Tam_O'Shanter_Sullivan #Toronto", "created_at": "Fri Sep 02 14:46:03 +0000 2016", "time": 1472827543.092013, "tid": 771720852727558144, "nei_num": "118"}}, {"geometry": {"type": "Point", "coordinates": [-79.3185046, 43.7727727]}, "type": "Feature", "id": 770058402835881987, "properties": {"loc": [-79.3185046, 43.7727727], "screen_name": "tofire", "text": "Medical (Trouble Breathing) - Dobbin Road b/w Commons Dr / Pharmacy Avenue, Scarborough (2 Trucks)", "created_at": "Mon Aug 29 00:40:04 +0000 2016", "time": 1472431184.978739, "tid": 770058402835881987, "nei_num": "118"}}, {"geometry": {"type": "Point", "coordinates": [-79.3185046, 43.7727727]}, "type": "Feature", "id": 770058403792248834, "properties": {"loc": [-79.3185046, 43.7727727], "screen_name": "tofireE", "text": "Medical (Trouble Breathing) - Dobbin Road b/w Commons Dr / Pharmacy Avenue, Scarborough (2 Trucks)", "created_at": "Mon Aug 29 00:40:05 +0000 2016", "time": 1472431185.276796, "tid": 770058403792248834, "nei_num": "118"}}, {"geometry": {"type": "Point", "coordinates": [-79.3179024, 43.7739704]}, "type": "Feature", "id": 768550966593515524, "properties": {"loc": [-79.3179024, 43.7739704], "screen_name": "tofire", "text": "Medical (Check Call) - Bugle Hill Road b/w Foxhill Road / Pharmacy Avenue, Scarborough (2 Trucks)", "created_at": "Wed Aug 24 20:50:04 +0000 2016", "time": 1472071785.300235, "tid": 768550966593515524, "nei_num": "118"}}, {"geometry": {"type": "Point", "coordinates": [-79.3179024, 43.7739704]}, "type": "Feature", "id": 768550967503687680, "properties": {"loc": [-79.3179024, 43.7739704], "screen_name": "tofireE", "text": "Medical (Check Call) - Bugle Hill Road b/w Foxhill Road / Pharmacy Avenue, Scarborough (2 Trucks)", "created_at": "Wed Aug 24 20:50:04 +0000 2016", "time": 1472071785.503028, "tid": 768550967503687680, "nei_num": "118"}}, {"geometry": {"type": "Point", "coordinates": [-79.3204522, 43.7758652]}, "type": "Feature", "id": 767486195328774144, "properties": {"loc": [-79.3204522, 43.7758652], "screen_name": "tpscalls", "text": "Theft Just Occurred | Sheppard Ave E &amp; Commons Dr [42 Div.] 08/21 18:13 #Tam_O'Shanter_Sullivan #Toronto", "created_at": "Sun Aug 21 22:19:02 +0000 2016", "time": 1471817924.669538, "tid": 767486195328774144, "nei_num": "118"}}, {"geometry": {"type": "Point", "coordinates": [-79.3204522, 43.7758652]}, "type": "Feature", "id": 768333271759544321, "properties": {"loc": [-79.3204522, 43.7758652], "screen_name": "tpscalls", "text": "Unknown Trouble | Sheppard Ave E &amp; Commons Dr [42 Div.] 08/24 02:19 #Tam_O'Shanter_Sullivan #Toronto", "created_at": "Wed Aug 24 06:25:01 +0000 2016", "time": 1472019882.967388, "tid": 768333271759544321, "nei_num": "118"}}, {"geometry": {"type": "Point", "coordinates": [-79.3203105, 43.7759046]}, "type": "Feature", "id": 754549456868151296, "properties": {"loc": [-79.3203105, 43.7759046], "screen_name": "tpscalls", "text": "Noisy Party | Sheppard Ave E &amp; 30 Chichester Pl [42 Div.] 07/17 01:27 #Tam_O'Shanter_Sullivan #Toronto", "created_at": "Sun Jul 17 05:33:04 +0000 2016", "time": 1468733574.385276, "tid": 754549456868151296, "nei_num": "118"}}, {"geometry": {"type": "Point", "coordinates": [-79.3203105, 43.7759046]}, "type": "Feature", "id": 763524598151442433, "properties": {"loc": [-79.3203105, 43.7759046], "screen_name": "tpscalls", "text": "Unknown Trouble | Sheppard Ave E &amp; 30 Chichester Pl [42 Div.] 08/10 19:53 #Tam_O'Shanter_Sullivan #Toronto", "created_at": "Wed Aug 10 23:57:04 +0000 2016", "time": 1470873408.837907, "tid": 763524598151442433, "nei_num": "118"}}, {"geometry": {"type": "Point", "coordinates": [-79.3203105, 43.7759046]}, "type": "Feature", "id": 773529772186017792, "properties": {"loc": [-79.3203105, 43.7759046], "screen_name": "tpscalls", "text": "Break &amp; Enter | Sheppard Ave E &amp; 30 Chichester Pl [42 Div.] 09/07 10:27 #Tam_O'Shanter_Sullivan #Toronto", "created_at": "Wed Sep 07 14:34:03 +0000 2016", "time": 1473258821.791736, "tid": 773529772186017792, "nei_num": "118"}}, {"geometry": {"type": "Point", "coordinates": [-79.318201, 43.776359]}, "type": "Feature", "id": 758381719321972741, "properties": {"loc": [-79.318201, 43.776359], "screen_name": "misskimrosita", "text": "Everything is for the taking. If you don't take what's yours someone else will. #WednesdayWisdom", "created_at": "Wed Jul 27 19:21:06 +0000 2016", "time": 1469647254.536051, "tid": 758381719321972741, "nei_num": "118"}}, {"geometry": {"type": "Point", "coordinates": [-79.31762744, 43.77577225]}, "type": "Feature", "id": 760112940477509632, "properties": {"loc": [-79.31762744, 43.77577225], "screen_name": "SinBrii", "text": "Sashimi platter at Cafe michi #brianeats #torontofoods #sashimi #sweetshrimp #ebi #cafemichi\u2026 https://t.co/gdGxyLk7Me", "created_at": "Mon Aug 01 14:00:21 +0000 2016", "time": 1470060008.661185, "tid": 760112940477509632, "nei_num": "118"}}, {"geometry": {"type": "Point", "coordinates": [-79.31762744, 43.77577225]}, "type": "Feature", "id": 760114232314720256, "properties": {"loc": [-79.31762744, 43.77577225], "screen_name": "SinBrii", "text": "My favorite dessert the green tea creme brulee at Cafe michi #brianeats #torontofoods #cafemichi\u2026 https://t.co/Hy9A2qWQak", "created_at": "Mon Aug 01 14:05:29 +0000 2016", "time": 1470060316.544096, "tid": 760114232314720256, "nei_num": "118"}}, {"geometry": {"type": "Point", "coordinates": [-79.31763027, 43.77586582]}, "type": "Feature", "id": 769300744482664449, "properties": {"loc": [-79.31763027, 43.77586582], "screen_name": "AnnabelleWaugh", "text": "I love a good dry fry. #Hakkafood #hakkachinesefood #dryfry #latergram @ Lin Garden Restaurant https://t.co/rSjN3MmzDr", "created_at": "Fri Aug 26 22:29:25 +0000 2016", "time": 1472250545.767839, "tid": 769300744482664449, "nei_num": "118"}}, {"geometry": {"type": "Point", "coordinates": [-79.31763027, 43.77586582]}, "type": "Feature", "id": 769632163570540544, "properties": {"loc": [-79.31763027, 43.77586582], "screen_name": "TheRealKisco", "text": "Just posted a photo @ Lin Garden Restaurant https://t.co/2q6Sldo0ke", "created_at": "Sat Aug 27 20:26:21 +0000 2016", "time": 1472329561.943229, "tid": 769632163570540544, "nei_num": "118"}}, {"geometry": {"type": "Point", "coordinates": [-79.31763027, 43.77586582]}, "type": "Feature", "id": 769632422891839488, "properties": {"loc": [-79.31763027, 43.77586582], "screen_name": "TheRealKisco", "text": "Just posted a photo @ Lin Garden Restaurant https://t.co/AsU9Deu0dK", "created_at": "Sat Aug 27 20:27:23 +0000 2016", "time": 1472329623.761473, "tid": 769632422891839488, "nei_num": "118"}}, {"geometry": {"type": "Point", "coordinates": [-79.3176824, 43.7765311]}, "type": "Feature", "id": 755516577735438337, "properties": {"loc": [-79.3176824, 43.7765311], "screen_name": "tpscalls", "text": "Dispute | Pharmacy Ave &amp; 3120 Sheppard Ave E [42 Div.] 07/19 17:31 #Tam_O'Shanter_Sullivan #Toronto", "created_at": "Tue Jul 19 21:36:03 +0000 2016", "time": 1468964153.336231, "tid": 755516577735438337, "nei_num": "118"}}, {"geometry": {"type": "Point", "coordinates": [-79.3176824, 43.7765311]}, "type": "Feature", "id": 764917026171256832, "properties": {"loc": [-79.3176824, 43.7765311], "screen_name": "tofire", "text": "Medical (Trouble Breathing) - Sheppard Avenue b/w Pharmacy Avenue / 3120 Sheppard Avenue East, Scarborough (2 Trucks)", "created_at": "Sun Aug 14 20:10:05 +0000 2016", "time": 1471205388.668365, "tid": 764917026171256832, "nei_num": "118"}}, {"geometry": {"type": "Point", "coordinates": [-79.3176824, 43.7765311]}, "type": "Feature", "id": 764917026989146112, "properties": {"loc": [-79.3176824, 43.7765311], "screen_name": "tofireE", "text": "Medical (Trouble Breathing) - Sheppard Avenue b/w Pharmacy Avenue / 3120 Sheppard Avenue East, Scarborough (2 Trucks)", "created_at": "Sun Aug 14 20:10:05 +0000 2016", "time": 1471205388.89501, "tid": 764917026989146112, "nei_num": "118"}}, {"geometry": {"type": "Point", "coordinates": [-79.3176824, 43.7765311]}, "type": "Feature", "id": 764939671717703681, "properties": {"loc": [-79.3176824, 43.7765311], "screen_name": "tofire", "text": "UD: Medical (Trouble Breathing) - Sheppard Avenue b/w Pharmacy Avenue / 3120 Sheppard Avenue East, Scarborough (3 Trucks)", "created_at": "Sun Aug 14 21:40:04 +0000 2016", "time": 1471210787.791136, "tid": 764939671717703681, "nei_num": "118"}}, {"geometry": {"type": "Point", "coordinates": [-79.3176824, 43.7765311]}, "type": "Feature", "id": 764939672598540289, "properties": {"loc": [-79.3176824, 43.7765311], "screen_name": "tofireE", "text": "UD: Medical (Trouble Breathing) - Sheppard Avenue b/w Pharmacy Avenue / 3120 Sheppard Avenue East, Scarborough (3 Trucks)", "created_at": "Sun Aug 14 21:40:04 +0000 2016", "time": 1471210787.976733, "tid": 764939672598540289, "nei_num": "118"}}, {"geometry": {"type": "Point", "coordinates": [-79.3176824, 43.7765311]}, "type": "Feature", "id": 765304827798839300, "properties": {"loc": [-79.3176824, 43.7765311], "screen_name": "tofireE", "text": "Medical (Trouble Breathing) - Pharmacy Avenue b/w Sheppard Avenue East / 30 Chichester Pl, Scarborough (2 Trucks)", "created_at": "Mon Aug 15 21:51:04 +0000 2016", "time": 1471297847.569145, "tid": 765304827798839300, "nei_num": "118"}}, {"geometry": {"type": "Point", "coordinates": [-79.3176824, 43.7765311]}, "type": "Feature", "id": 765304826922172416, "properties": {"loc": [-79.3176824, 43.7765311], "screen_name": "tofire", "text": "Medical (Trouble Breathing) - Pharmacy Avenue b/w Sheppard Avenue East / 30 Chichester Pl, Scarborough (2 Trucks)", "created_at": "Mon Aug 15 21:51:04 +0000 2016", "time": 1471297847.365901, "tid": 765304826922172416, "nei_num": "118"}}, {"geometry": {"type": "Point", "coordinates": [-79.3176824, 43.7765311]}, "type": "Feature", "id": 765616880308584448, "properties": {"loc": [-79.3176824, 43.7765311], "screen_name": "tpscalls", "text": "Dispute | Pharmacy Ave &amp; 3120 Sheppard Ave E [42 Div.] 08/16 14:24 #Tam_O'Shanter_Sullivan #Toronto", "created_at": "Tue Aug 16 18:31:03 +0000 2016", "time": 1471372246.490111, "tid": 765616880308584448, "nei_num": "118"}}, {"geometry": {"type": "Point", "coordinates": [-79.3176824, 43.7765311]}, "type": "Feature", "id": 767803802019921920, "properties": {"loc": [-79.3176824, 43.7765311], "screen_name": "tofire", "text": "Alarm Highrise Residential - Pharmacy Avenue b/w Sheppard Avenue East / 30 Chichester Pl, Scarborough (7 Trucks)", "created_at": "Mon Aug 22 19:21:06 +0000 2016", "time": 1471893647.917262, "tid": 767803802019921920, "nei_num": "118"}}, {"geometry": {"type": "Point", "coordinates": [-79.3176824, 43.7765311]}, "type": "Feature", "id": 767803803122958337, "properties": {"loc": [-79.3176824, 43.7765311], "screen_name": "tofireE", "text": "Alarm Highrise Residential - Pharmacy Avenue b/w Sheppard Avenue East / 30 Chichester Pl, Scarborough (7 Trucks)", "created_at": "Mon Aug 22 19:21:06 +0000 2016", "time": 1471893648.142819, "tid": 767803803122958337, "nei_num": "118"}}, {"geometry": {"type": "Point", "coordinates": [-79.3176824, 43.7765311]}, "type": "Feature", "id": 767836509613457408, "properties": {"loc": [-79.3176824, 43.7765311], "screen_name": "tofire", "text": "Medical (Unconscious) - Pharmacy Avenue b/w Sheppard Avenue East / 30 Chichester Pl, Scarborough (2 Trucks)", "created_at": "Mon Aug 22 21:31:04 +0000 2016", "time": 1471901445.974095, "tid": 767836509613457408, "nei_num": "118"}}, {"geometry": {"type": "Point", "coordinates": [-79.3176824, 43.7765311]}, "type": "Feature", "id": 767836510477488128, "properties": {"loc": [-79.3176824, 43.7765311], "screen_name": "tofireE", "text": "Medical (Unconscious) - Pharmacy Avenue b/w Sheppard Avenue East / 30 Chichester Pl, Scarborough (2 Trucks)", "created_at": "Mon Aug 22 21:31:04 +0000 2016", "time": 1471901446.200615, "tid": 767836510477488128, "nei_num": "118"}}, {"geometry": {"type": "Point", "coordinates": [-79.3176824, 43.7765311]}, "type": "Feature", "id": 773007329616883712, "properties": {"loc": [-79.3176824, 43.7765311], "screen_name": "tpscalls", "text": "Break &amp; Enter Just Occurred | Pharmacy Ave &amp; 3120 Sheppard Ave E [42 Div.] 09/05 23:51 #Tam_O'Shanter_Sullivan #Toronto", "created_at": "Tue Sep 06 03:58:03 +0000 2016", "time": 1473134262.235397, "tid": 773007329616883712, "nei_num": "118"}}, {"geometry": {"type": "Point", "coordinates": [-79.31684732, 43.77626885]}, "type": "Feature", "id": 755063915369918464, "properties": {"loc": [-79.31684732, 43.77626885], "screen_name": "Drewspeed", "text": "I'm at Family Shawarma &amp; Falafel in Toronto, ON https://t.co/WHQd23vJnV", "created_at": "Mon Jul 18 15:37:20 +0000 2016", "time": 1468856230.576714, "tid": 755063915369918464, "nei_num": "118"}}, {"geometry": {"type": "Point", "coordinates": [-79.31684732, 43.77626885]}, "type": "Feature", "id": 755063915650945024, "properties": {"loc": [-79.31684732, 43.77626885], "screen_name": "Drewspeed", "text": "I'm at Family Shawarma &amp; Falafel in Toronto, ON https://t.co/gWgbqXO79y", "created_at": "Mon Jul 18 15:37:20 +0000 2016", "time": 1468856230.587897, "tid": 755063915650945024, "nei_num": "118"}}, {"geometry": {"type": "Point", "coordinates": [-79.316916, 43.776508]}, "type": "Feature", "id": 771843743582420992, "properties": {"loc": [-79.316916, 43.776508], "screen_name": "SunnyDietitian", "text": "#Delicious #Sharwarma #FingerLickingGood @ Family Shawarma https://t.co/VtORWXmih9", "created_at": "Fri Sep 02 22:54:23 +0000 2016", "time": 1472856842.288006, "tid": 771843743582420992, "nei_num": "118"}}, {"geometry": {"type": "Point", "coordinates": [-79.316916, 43.776508]}, "type": "Feature", "id": 771844080372486145, "properties": {"loc": [-79.316916, 43.776508], "screen_name": "SunnyDietitian", "text": "#Delicious #Sharwarma #FingerLickingGood\n#Chicken @ Family Shawarma https://t.co/VtORWXmih9", "created_at": "Fri Sep 02 22:55:43 +0000 2016", "time": 1472856922.638224, "tid": 771844080372486145, "nei_num": "118"}}, {"geometry": {"type": "Point", "coordinates": [-79.31636117, 43.77669047]}, "type": "Feature", "id": 754692151330672640, "properties": {"loc": [-79.31636117, 43.77669047], "screen_name": "trinigaal", "text": "I'm at @CelebrityUnisex Hair Salon in Scarborough, Ontario https://t.co/zUAbU15NIr", "created_at": "Sun Jul 17 15:00:05 +0000 2016", "time": 1468767595.41581, "tid": 754692151330672640, "nei_num": "118"}}, {"geometry": {"type": "Point", "coordinates": [-79.31404467, 43.77120768]}, "type": "Feature", "id": 752207495716888576, "properties": {"loc": [-79.31404467, 43.77120768], "screen_name": "HABQ88", "text": "What a lovely day for a ballgame (@ Wishing Well Park in Toronto, ON) https://t.co/Ir6qF6vd3r", "created_at": "Sun Jul 10 18:26:56 +0000 2016", "time": 1468175208.818762, "tid": 752207495716888576, "nei_num": "118"}}, {"geometry": {"type": "Point", "coordinates": [-79.3127595, 43.7731278]}, "type": "Feature", "id": 771346382670168065, "properties": {"loc": [-79.3127595, 43.7731278], "screen_name": "tpscalls", "text": "Natural Gas Leak | Ln N Wishing Well E Beacham &amp; Wishing Well Dr [42 Div.] 09/01 09:51 #Tam_O'Shanter_Sullivan #Toronto", "created_at": "Thu Sep 01 13:58:03 +0000 2016", "time": 1472738262.629321, "tid": 771346382670168065, "nei_num": "118"}}, {"geometry": {"type": "Point", "coordinates": [-79.3118989, 43.7727186]}, "type": "Feature", "id": 755100089337671680, "properties": {"loc": [-79.3118989, 43.7727186], "screen_name": "tofire", "text": "Medical (Check Call) - Vradenberg Dr b/w Wishing Well Dr / Ashglen Crt, Scarborough (2 Trucks)", "created_at": "Mon Jul 18 18:01:05 +0000 2016", "time": 1468864855.117634, "tid": 755100089337671680, "nei_num": "118"}}, {"geometry": {"type": "Point", "coordinates": [-79.3118989, 43.7727186]}, "type": "Feature", "id": 755100090260488192, "properties": {"loc": [-79.3118989, 43.7727186], "screen_name": "tofireE", "text": "Medical (Check Call) - Vradenberg Dr b/w Wishing Well Dr / Ashglen Crt, Scarborough (2 Trucks)", "created_at": "Mon Jul 18 18:01:05 +0000 2016", "time": 1468864855.28453, "tid": 755100090260488192, "nei_num": "118"}}, {"geometry": {"type": "Point", "coordinates": [-79.3155337, 43.7770079]}, "type": "Feature", "id": 755832408855961600, "properties": {"loc": [-79.3155337, 43.7770079], "screen_name": "tpscalls", "text": "Unknown Trouble | 3120 Sheppard Ave E &amp; Bridlewood Blvd [42 Div.] 07/20 14:24 #Tam_O'Shanter_Sullivan #Toronto", "created_at": "Wed Jul 20 18:31:03 +0000 2016", "time": 1469039453.076344, "tid": 755832408855961600, "nei_num": "118"}}, {"geometry": {"type": "Point", "coordinates": [-79.31525032, 43.77703833]}, "type": "Feature", "id": 705453299609309186, "properties": {"loc": [-79.31525032, 43.77703833], "screen_name": "caiodias", "text": "@Thaisices tais por onde agora?\nPensei que tinha voltado para o Norte.", "created_at": "Thu Mar 03 18:02:27 +0000 2016", "time": 1457028148.340912, "tid": 705453299609309186, "nei_num": "118"}}, {"geometry": {"type": "Point", "coordinates": [-79.3132794, 43.7765484]}, "type": "Feature", "id": 760271414419226629, "properties": {"loc": [-79.3132794, 43.7765484], "screen_name": "tofire", "text": "Fire (Residential) - Heatherington Dr b/w Highhill Dr / Highhill Dr, Scarborough (7 Trucks)", "created_at": "Tue Aug 02 00:30:05 +0000 2016", "time": 1470097791.56646, "tid": 760271414419226629, "nei_num": "118"}}, {"geometry": {"type": "Point", "coordinates": [-79.3132794, 43.7765484]}, "type": "Feature", "id": 760271415396433920, "properties": {"loc": [-79.3132794, 43.7765484], "screen_name": "tofireE", "text": "Fire (Residential) - Heatherington Dr b/w Highhill Dr / Highhill Dr, Scarborough (7 Trucks)", "created_at": "Tue Aug 02 00:30:05 +0000 2016", "time": 1470097791.765188, "tid": 760271415396433920, "nei_num": "118"}}, {"geometry": {"type": "Point", "coordinates": [-79.3132794, 43.7765484]}, "type": "Feature", "id": 760271416214323202, "properties": {"loc": [-79.3132794, 43.7765484], "screen_name": "tofiref", "text": "Fire (Residential) - Heatherington Dr b/w Highhill Dr / Highhill Dr, Scarborough (7 Trucks)", "created_at": "Tue Aug 02 00:30:05 +0000 2016", "time": 1470097791.992031, "tid": 760271416214323202, "nei_num": "118"}}, {"geometry": {"type": "Point", "coordinates": [-79.31264916, 43.77756028]}, "type": "Feature", "id": 705818638520029184, "properties": {"loc": [-79.31264916, 43.77756028], "screen_name": "caiodias", "text": "@Danyofb o que seria um botij\u00e3o de g\u00e1s completo?\nIncompleto vem s\u00f3 o botij\u00e3o ou s\u00f3 o g\u00e1s? \ud83d\ude02", "created_at": "Fri Mar 04 18:14:11 +0000 2016", "time": 1457115252.016178, "tid": 705818638520029184, "nei_num": "118"}}, {"geometry": {"type": "Point", "coordinates": [-79.31186266, 43.77832233]}, "type": "Feature", "id": 771393307649990657, "properties": {"loc": [-79.31186266, 43.77832233], "screen_name": "tslian", "text": "Just posted a photo @ Red Lobster https://t.co/2SjE4cG6VW", "created_at": "Thu Sep 01 17:04:30 +0000 2016", "time": 1472749450.364511, "tid": 771393307649990657, "nei_num": "118"}}, {"geometry": {"type": "Point", "coordinates": [-79.31177599, 43.77830876]}, "type": "Feature", "id": 764514615929692160, "properties": {"loc": [-79.31177599, 43.77830876], "screen_name": "foodpages", "text": "@redlobster Red Lobster #Wishing Well Acres #Scarborough https://t.co/CM7eAFaV2m Food https://t.co/P7qdEGonSj", "created_at": "Sat Aug 13 17:31:03 +0000 2016", "time": 1471109447.303905, "tid": 764514615929692160, "nei_num": "118"}}, {"geometry": {"type": "Point", "coordinates": [-79.31173159, 43.77830463]}, "type": "Feature", "id": 764236067931381761, "properties": {"loc": [-79.31173159, 43.77830463], "screen_name": "bgirl65", "text": "Lobsterita redlobster Yummy @ Red Lobster https://t.co/OHKZuSEH99", "created_at": "Fri Aug 12 23:04:12 +0000 2016", "time": 1471043036.027729, "tid": 764236067931381761, "nei_num": "118"}}, {"geometry": {"type": "Point", "coordinates": [-79.31173159, 43.77830463]}, "type": "Feature", "id": 764242537867608066, "properties": {"loc": [-79.31173159, 43.77830463], "screen_name": "bgirl65", "text": "Being treated this is Sharon style Ultimate Feast @ Red Lobster https://t.co/fyG64QR31E", "created_at": "Fri Aug 12 23:29:54 +0000 2016", "time": 1471044578.631842, "tid": 764242537867608066, "nei_num": "118"}}, {"geometry": {"type": "Point", "coordinates": [-79.31189, 43.77849]}, "type": "Feature", "id": 751220505827483649, "properties": {"loc": [-79.31189, 43.77849], "screen_name": "wenddddychow", "text": "#diabetes Lol too sweet \ud83d\ude05 like her ___wh \u2764\ufe0f @ Red Lobster https://t.co/uApZ9IrFNs", "created_at": "Fri Jul 08 01:05:00 +0000 2016", "time": 1467939892.720343, "tid": 751220505827483649, "nei_num": "118"}}, {"geometry": {"type": "Point", "coordinates": [-79.31189, 43.77849]}, "type": "Feature", "id": 756618053476057088, "properties": {"loc": [-79.31189, 43.77849], "screen_name": "Worl_Orda", "text": "Mi n mi chargie dem a guh consume ya now \ud83d\ude00 @ Red Lobster https://t.co/JWjnmhbuxn", "created_at": "Fri Jul 22 22:32:55 +0000 2016", "time": 1469226764.876363, "tid": 756618053476057088, "nei_num": "118"}}, {"geometry": {"type": "Point", "coordinates": [-79.31189, 43.77849]}, "type": "Feature", "id": 756624161024446465, "properties": {"loc": [-79.31189, 43.77849], "screen_name": "Worl_Orda", "text": "Yes!!! @ Red Lobster https://t.co/F8j4ditLef", "created_at": "Fri Jul 22 22:57:12 +0000 2016", "time": 1469228221.045391, "tid": 756624161024446465, "nei_num": "118"}}, {"geometry": {"type": "Point", "coordinates": [-79.31189, 43.77849]}, "type": "Feature", "id": 757992006467612672, "properties": {"loc": [-79.31189, 43.77849], "screen_name": "misskimrosita", "text": "It's my birthday lunch! Thanks to my sister lighthouse_productions for taking me out.\u2026 https://t.co/dKShsHFTkJ", "created_at": "Tue Jul 26 17:32:31 +0000 2016", "time": 1469554340.014553, "tid": 757992006467612672, "nei_num": "118"}}, {"geometry": {"type": "Point", "coordinates": [-79.31150436, 43.77822099]}, "type": "Feature", "id": 762427893020434433, "properties": {"loc": [-79.31150436, 43.77822099], "screen_name": "trimsal", "text": "\ud83e\udd80 (at @RedLobster in Scarborough, ON) https://t.co/CuX92HIJEO", "created_at": "Sun Aug 07 23:19:09 +0000 2016", "time": 1470611934.785802, "tid": 762427893020434433, "nei_num": "118"}}, {"geometry": {"type": "Point", "coordinates": [-79.31150436, 43.77822099]}, "type": "Feature", "id": 763895657971216385, "properties": {"loc": [-79.31150436, 43.77822099], "screen_name": "SaadiaNB", "text": "Dinner date with jaaners\u2764\ufe0f (at @RedLobster in Scarborough, ON) https://t.co/uWDYePHajR", "created_at": "Fri Aug 12 00:31:32 +0000 2016", "time": 1470961876.43629, "tid": 763895657971216385, "nei_num": "118"}}, {"geometry": {"type": "Point", "coordinates": [-79.311207, 43.7779721]}, "type": "Feature", "id": 767525453737390080, "properties": {"loc": [-79.311207, 43.7779721], "screen_name": "tpscalls", "text": "Noise Complaint | 160 Palmdale Dr &amp; Sheppard Ave E [42 Div.] 08/21 20:49 #Tam_O'Shanter_Sullivan #Toronto", "created_at": "Mon Aug 22 00:55:02 +0000 2016", "time": 1471827284.670747, "tid": 767525453737390080, "nei_num": "118"}}, {"geometry": {"type": "Point", "coordinates": [-79.3201999, 43.7816799]}, "type": "Feature", "id": 770804312893165578, "properties": {"loc": [-79.3201999, 43.7816799], "screen_name": "tpscalls", "text": "Hazard | Pharmacy Ave &amp; Huntingwood Dr [42 Div.] 08/30 21:59 #Bridlewood #Toronto", "created_at": "Wed Aug 31 02:04:03 +0000 2016", "time": 1472609023.377679, "tid": 770804312893165578, "nei_num": "118"}}, {"geometry": {"type": "Point", "coordinates": [-79.3186047, 43.7824223]}, "type": "Feature", "id": 767018867872890880, "properties": {"loc": [-79.3186047, 43.7824223], "screen_name": "tpscalls", "text": "Property Damage Collision | Huntingwood Dr &amp; Batterswood Dr [42 Div.] 08/20 11:15 #Bridlewood #Toronto", "created_at": "Sat Aug 20 15:22:03 +0000 2016", "time": 1471706505.470988, "tid": 767018867872890880, "nei_num": "118"}}, {"geometry": {"type": "Point", "coordinates": [-79.3183151, 43.7813254]}, "type": "Feature", "id": 758692248842276864, "properties": {"loc": [-79.3183151, 43.7813254], "screen_name": "tpscalls", "text": "Natural Gas Leak | Castledene Cres &amp; Castledene Cres [42 Div.] 07/28 11:48 #Bridlewood #Toronto", "created_at": "Thu Jul 28 15:55:02 +0000 2016", "time": 1469721290.297024, "tid": 758692248842276864, "nei_num": "118"}}, {"geometry": {"type": "Point", "coordinates": [-79.3169637, 43.781116]}, "type": "Feature", "id": 764950995562618881, "properties": {"loc": [-79.3169637, 43.781116], "screen_name": "tpscalls", "text": "Dispute | Batterswood Dr &amp; Batterswood Dr [42 Div.] 08/14 18:19 #Bridlewood #Toronto", "created_at": "Sun Aug 14 22:25:04 +0000 2016", "time": 1471213487.579622, "tid": 764950995562618881, "nei_num": "118"}}, {"geometry": {"type": "Point", "coordinates": [-79.3180291, 43.7852746]}, "type": "Feature", "id": 759616089340932096, "properties": {"loc": [-79.3180291, 43.7852746], "screen_name": "tpscalls", "text": "Noisy Party | Castlemere Cres &amp; Castlemere Cres [42 Div.] 07/31 01:02 #Bridlewood #Toronto", "created_at": "Sun Jul 31 05:06:03 +0000 2016", "time": 1469941550.317805, "tid": 759616089340932096, "nei_num": "118"}}, {"geometry": {"type": "Point", "coordinates": [-79.31580493, 43.78376319]}, "type": "Feature", "id": 759928018001272832, "properties": {"loc": [-79.31580493, 43.78376319], "screen_name": "noeldhiraj", "text": "Stay Connected! \n\n#makemoments #livethelittlethings #s7edge @ Bridlewood Park https://t.co/ucJhH52bLx", "created_at": "Mon Aug 01 01:45:32 +0000 2016", "time": 1470015919.836212, "tid": 759928018001272832, "nei_num": "118"}}, {"geometry": {"type": "Point", "coordinates": [-79.3192507, 43.786159]}, "type": "Feature", "id": 752572173244661760, "properties": {"loc": [-79.3192507, 43.786159], "screen_name": "tpscalls", "text": "Dispute | Kilkenny Dr &amp; Kilkenny Dr [42 Div.] 07/11 14:30 #Bridlewood #Toronto", "created_at": "Mon Jul 11 18:36:02 +0000 2016", "time": 1468262154.547545, "tid": 752572173244661760, "nei_num": "118"}}, {"geometry": {"type": "Point", "coordinates": [-79.3192507, 43.786159]}, "type": "Feature", "id": 767973153159217152, "properties": {"loc": [-79.3192507, 43.786159], "screen_name": "tpscalls", "text": "Robbery | Kilkenny Dr &amp; Kilkenny Dr [42 Div.] 08/23 02:27 #Bridlewood #Toronto", "created_at": "Tue Aug 23 06:34:02 +0000 2016", "time": 1471934024.182964, "tid": 767973153159217152, "nei_num": "118"}}, {"geometry": {"type": "Point", "coordinates": [-79.3192507, 43.786159]}, "type": "Feature", "id": 769701802430361600, "properties": {"loc": [-79.3192507, 43.786159], "screen_name": "tpscalls", "text": "Noisy Party | Kilkenny Dr &amp; Kilkenny Dr [42 Div.] 08/27 20:57 #Bridlewood #Toronto", "created_at": "Sun Aug 28 01:03:04 +0000 2016", "time": 1472346165.064175, "tid": 769701802430361600, "nei_num": "118"}}, {"geometry": {"type": "Point", "coordinates": [-79.321074, 43.791073]}, "type": "Feature", "id": 753361126549753856, "properties": {"loc": [-79.321074, 43.791073], "screen_name": "tpscalls", "text": "See Ambulance | Adencliff Rd &amp; Adencliff Rd [42 Div.] 07/13 18:47 #L'Amoreaux #Toronto", "created_at": "Wed Jul 13 22:51:03 +0000 2016", "time": 1468450255.055675, "tid": 753361126549753856, "nei_num": "118"}}, {"geometry": {"type": "Point", "coordinates": [-79.321074, 43.791073]}, "type": "Feature", "id": 762269321150210048, "properties": {"loc": [-79.321074, 43.791073], "screen_name": "tpscalls", "text": "Theft | Adencliff Rd &amp; Adencliff Rd [42 Div.] 08/07 08:42 #L'Amoreaux #Toronto", "created_at": "Sun Aug 07 12:49:03 +0000 2016", "time": 1470574128.346989, "tid": 762269321150210048, "nei_num": "118"}}, {"geometry": {"type": "Point", "coordinates": [-79.3162379, 43.7867793]}, "type": "Feature", "id": 759657861228232704, "properties": {"loc": [-79.3162379, 43.7867793], "screen_name": "tpscalls", "text": "Disorderlies | Kilkenny Dr &amp; Ridgecrest Dr [42 Div.] 07/31 03:47 #L'Amoreaux #Toronto", "created_at": "Sun Jul 31 07:52:02 +0000 2016", "time": 1469951509.506592, "tid": 759657861228232704, "nei_num": "118"}}, {"geometry": {"type": "Point", "coordinates": [-79.316999, 43.788541]}, "type": "Feature", "id": 754440750960607232, "properties": {"loc": [-79.316999, 43.788541], "screen_name": "tpscalls", "text": "Missing Child | Timbercreek Crt &amp; Collingsbrook Blvd [42 Div.] 07/16 18:16 #L'Amoreaux #Toronto", "created_at": "Sat Jul 16 22:21:06 +0000 2016", "time": 1468707656.937174, "tid": 754440750960607232, "nei_num": "118"}}, {"geometry": {"type": "Point", "coordinates": [-79.3139901, 43.7810165]}, "type": "Feature", "id": 756341768292077569, "properties": {"loc": [-79.3139901, 43.7810165], "screen_name": "tpscalls", "text": "Assault | Bridlewood Blvd &amp; Bridlewood Blvd [42 Div.] 07/22 00:11 #Tam_O'Shanter_Sullivan #Toronto", "created_at": "Fri Jul 22 04:15:04 +0000 2016", "time": 1469160893.499004, "tid": 756341768292077569, "nei_num": "118"}}, {"geometry": {"type": "Point", "coordinates": [-79.3139901, 43.7810165]}, "type": "Feature", "id": 767542818713792512, "properties": {"loc": [-79.3139901, 43.7810165], "screen_name": "tpscalls", "text": "Noisy Party | Bridlewood Blvd &amp; Bridlewood Blvd [42 Div.] 08/21 21:58 #Tam_O'Shanter_Sullivan #Toronto", "created_at": "Mon Aug 22 02:04:02 +0000 2016", "time": 1471831424.729117, "tid": 767542818713792512, "nei_num": "118"}}, {"geometry": {"type": "Point", "coordinates": [-79.312397, 43.785128]}, "type": "Feature", "id": 760237438820356096, "properties": {"loc": [-79.312397, 43.785128], "screen_name": "tofire", "text": "Vehicle Accident (Trapped) - Huntingwood Dr b/w Kenmanor Boulevard / Warden Avenue, Scarborough (5 Trucks)", "created_at": "Mon Aug 01 22:15:04 +0000 2016", "time": 1470089691.155063, "tid": 760237438820356096, "nei_num": "118"}}, {"geometry": {"type": "Point", "coordinates": [-79.312397, 43.785128]}, "type": "Feature", "id": 760237439810232320, "properties": {"loc": [-79.312397, 43.785128], "screen_name": "tofireE", "text": "Vehicle Accident (Trapped) - Huntingwood Dr b/w Kenmanor Boulevard / Warden Avenue, Scarborough (5 Trucks)", "created_at": "Mon Aug 01 22:15:04 +0000 2016", "time": 1470089691.45547, "tid": 760237439810232320, "nei_num": "118"}}, {"geometry": {"type": "Point", "coordinates": [-79.312703, 43.785744]}, "type": "Feature", "id": 754557761430642688, "properties": {"loc": [-79.312703, 43.785744], "screen_name": "tpscalls", "text": "Noisy Party | Kenmanor Blvd &amp; Catherwood Crt [42 Div.] 07/17 02:02 #L'Amoreaux #Toronto", "created_at": "Sun Jul 17 06:06:03 +0000 2016", "time": 1468735554.325476, "tid": 754557761430642688, "nei_num": "118"}}, {"geometry": {"type": "Point", "coordinates": [-79.3108, 43.78509]}, "type": "Feature", "id": 771060371356516353, "properties": {"loc": [-79.3108, 43.78509], "screen_name": "Fecci_Prez", "text": "Happy Birthday to my youngin (lil bro) sniperking6 #6 and also Happy\u2026 https://t.co/ub3CqxmvL4", "created_at": "Wed Aug 31 19:01:32 +0000 2016", "time": 1472670072.316938, "tid": 771060371356516353, "nei_num": "118"}}, {"geometry": {"type": "Point", "coordinates": [-79.31036347, 43.78478518]}, "type": "Feature", "id": 772197395039916033, "properties": {"loc": [-79.31036347, 43.78478518], "screen_name": "MiroslavGlavic", "text": "I'm at Shoppers Drug Mart in Scarborough, ON https://t.co/Lx3a5KowOe", "created_at": "Sat Sep 03 22:19:40 +0000 2016", "time": 1472941159.193513, "tid": 772197395039916033, "nei_num": "118"}}, {"geometry": {"type": "Point", "coordinates": [-79.31036347, 43.78478518]}, "type": "Feature", "id": 772823218897948672, "properties": {"loc": [-79.31036347, 43.78478518], "screen_name": "MiroslavGlavic", "text": "I'm at Shoppers Drug Mart in Scarborough, ON https://t.co/AT0x1s6W5z", "created_at": "Mon Sep 05 15:46:28 +0000 2016", "time": 1473090366.896209, "tid": 772823218897948672, "nei_num": "118"}}, {"geometry": {"type": "Point", "coordinates": [-79.3104405, 43.78530719]}, "type": "Feature", "id": 772195871043780614, "properties": {"loc": [-79.3104405, 43.78530719], "screen_name": "MiroslavGlavic", "text": "International Bacon Day (@ Tim Hortons in Toronto, ON) https://t.co/ihPbQPsiBL", "created_at": "Sat Sep 03 22:13:37 +0000 2016", "time": 1472940795.894788, "tid": 772195871043780614, "nei_num": "118"}}, {"geometry": {"type": "Point", "coordinates": [-79.3104405, 43.78530719]}, "type": "Feature", "id": 772969075534393344, "properties": {"loc": [-79.3104405, 43.78530719], "screen_name": "MiroslavGlavic", "text": "I'm at Tim Hortons in Toronto, ON https://t.co/q4U5l5OoNB", "created_at": "Tue Sep 06 01:26:03 +0000 2016", "time": 1473125141.75842, "tid": 772969075534393344, "nei_num": "118"}}, {"geometry": {"type": "Point", "coordinates": [-79.3109334, 43.785465]}, "type": "Feature", "id": 750296175895580672, "properties": {"loc": [-79.3109334, 43.785465], "screen_name": "tpscalls", "text": "Unknown Trouble | Warden Ave &amp; Huntingwood Dr [42 Div.] 07/05 07:46 #Tam_O'Shanter_Sullivan #Toronto", "created_at": "Tue Jul 05 11:52:02 +0000 2016", "time": 1467719515.876235, "tid": 750296175895580672, "nei_num": "118"}}, {"geometry": {"type": "Point", "coordinates": [-79.3109334, 43.785465]}, "type": "Feature", "id": 757903299232296960, "properties": {"loc": [-79.3109334, 43.785465], "screen_name": "tpscalls", "text": "Personal Injury Collision | Huntingwood Dr &amp; Warden Ave [HP] 07/26 07:33 #Tam_O'Shanter_Sullivan #Toronto", "created_at": "Tue Jul 26 11:40:02 +0000 2016", "time": 1469533190.599805, "tid": 757903299232296960, "nei_num": "118"}}, {"geometry": {"type": "Point", "coordinates": [-79.3109334, 43.785465]}, "type": "Feature", "id": 760241467558428672, "properties": {"loc": [-79.3109334, 43.785465], "screen_name": "tpscalls", "text": "Personal Injury Collision | Warden Ave &amp; Huntingwood Dr [HP] 08/01 18:24 #Tam_O'Shanter_Sullivan #Toronto", "created_at": "Mon Aug 01 22:31:05 +0000 2016", "time": 1470090651.661788, "tid": 760241467558428672, "nei_num": "118"}}, {"geometry": {"type": "Point", "coordinates": [-79.3109334, 43.785465]}, "type": "Feature", "id": 768287733747822593, "properties": {"loc": [-79.3109334, 43.785465], "screen_name": "tpscalls", "text": "Theft Just Occurred | Wardencourt Dr &amp; Huntingwood Dr [42 Div.] 08/23 23:18 #Tam_O'Shanter_Sullivan #Toronto", "created_at": "Wed Aug 24 03:24:04 +0000 2016", "time": 1472009025.925212, "tid": 768287733747822593, "nei_num": "118"}}, {"geometry": {"type": "Point", "coordinates": [-79.3109334, 43.785465]}, "type": "Feature", "id": 768916878181986305, "properties": {"loc": [-79.3109334, 43.785465], "screen_name": "tpscalls", "text": "Check Traffic Signals | Warden Ave &amp; Huntingwood Dr [42 Div.] 08/25 16:57 #Tam_O'Shanter_Sullivan #Toronto", "created_at": "Thu Aug 25 21:04:04 +0000 2016", "time": 1472159025.145011, "tid": 768916878181986305, "nei_num": "118"}}, {"geometry": {"type": "Point", "coordinates": [-79.3109334, 43.785465]}, "type": "Feature", "id": 768954621951877120, "properties": {"loc": [-79.3109334, 43.785465], "screen_name": "tpscalls", "text": "Property Damage Collision | Warden Ave &amp; Huntingwood Dr [42 Div.] 08/25 19:28 #Tam_O'Shanter_Sullivan #Toronto", "created_at": "Thu Aug 25 23:34:03 +0000 2016", "time": 1472168023.971743, "tid": 768954621951877120, "nei_num": "118"}}, {"geometry": {"type": "Point", "coordinates": [-79.3109334, 43.785465]}, "type": "Feature", "id": 769292097849548806, "properties": {"loc": [-79.3109334, 43.785465], "screen_name": "tpscalls", "text": "Check Traffic Signals | Warden Ave &amp; Huntingwood Dr [42 Div.] 08/26 17:50 #Tam_O'Shanter_Sullivan #Toronto", "created_at": "Fri Aug 26 21:55:03 +0000 2016", "time": 1472248484.216802, "tid": 769292097849548806, "nei_num": "118"}}, {"geometry": {"type": "Point", "coordinates": [-79.31395028, 43.78718073]}, "type": "Feature", "id": 772631966877351936, "properties": {"loc": [-79.31395028, 43.78718073], "screen_name": "hov1024", "text": "TestingLBS", "created_at": "Mon Sep 05 03:06:30 +0000 2016", "time": 1473044768.942456, "tid": 772631966877351936, "nei_num": "118"}}, {"geometry": {"type": "Point", "coordinates": [-79.313058, 43.786014]}, "type": "Feature", "id": 768917385684418560, "properties": {"loc": [-79.313058, 43.786014], "screen_name": "tofire", "text": "Natural Gas Leak - Morgandale Crescent b/w Kenmanor Boulevard / Kenmanor Boulevard, Scarborough (6 Trucks)", "created_at": "Thu Aug 25 21:06:05 +0000 2016", "time": 1472159146.154239, "tid": 768917385684418560, "nei_num": "118"}}, {"geometry": {"type": "Point", "coordinates": [-79.313058, 43.786014]}, "type": "Feature", "id": 768917386472939522, "properties": {"loc": [-79.313058, 43.786014], "screen_name": "tofireE", "text": "Natural Gas Leak - Morgandale Crescent b/w Kenmanor Boulevard / Kenmanor Boulevard, Scarborough (6 Trucks)", "created_at": "Thu Aug 25 21:06:05 +0000 2016", "time": 1472159146.384674, "tid": 768917386472939522, "nei_num": "118"}}, {"geometry": {"type": "Point", "coordinates": [-79.314148, 43.787432]}, "type": "Feature", "id": 768925177333817344, "properties": {"loc": [-79.314148, 43.787432], "screen_name": "tpscalls", "text": "Natural Gas Leak | Kenmanor Blvd &amp; Kenmanor Blvd [42 Div.] 08/25 17:31 #Bridlewood #Toronto", "created_at": "Thu Aug 25 21:37:02 +0000 2016", "time": 1472161003.89484, "tid": 768925177333817344, "nei_num": "118"}}, {"geometry": {"type": "Point", "coordinates": [-79.31388303, 43.78744981]}, "type": "Feature", "id": 772608971165274112, "properties": {"loc": [-79.31388303, 43.78744981], "screen_name": "hov1024", "text": "Testing1234", "created_at": "Mon Sep 05 01:35:07 +0000 2016", "time": 1473039286.418999, "tid": 772608971165274112, "nei_num": "118"}}, {"geometry": {"type": "Point", "coordinates": [-79.31324131, 43.79147946]}, "type": "Feature", "id": 772241654849896448, "properties": {"loc": [-79.31324131, 43.79147946], "screen_name": "MostAtNoon", "text": "Lit (@ Little Sheep Mongolian Hot Pot \u5c0f\u80a5\u7f8a - @littlesheephp in Scarborough, ON w/ @aiiyyaah) https://t.co/X6LFK9ugvT", "created_at": "Sun Sep 04 01:15:32 +0000 2016", "time": 1472951711.532377, "tid": 772241654849896448, "nei_num": "118"}}, {"geometry": {"type": "Point", "coordinates": [-79.30586699, 43.76979458]}, "type": "Feature", "id": 761036334341382145, "properties": {"loc": [-79.30586699, 43.76979458], "screen_name": "Blsdwoman", "text": "So one day I'd love to drive or own one of these \"bad boys\" but in red though........with a\u2026 https://t.co/cpbsvEWVav", "created_at": "Thu Aug 04 03:09:36 +0000 2016", "time": 1470280162.197062, "tid": 761036334341382145, "nei_num": "118"}}, {"geometry": {"type": "Point", "coordinates": [-79.30586699, 43.76979458]}, "type": "Feature", "id": 768969310672781313, "properties": {"loc": [-79.30586699, 43.76979458], "screen_name": "cal920c", "text": "My speedo says 0 km/h... And for good reason! #Thunderstorm #Rain #Driving #Hwy401 @ 401\u2026 https://t.co/V1yX997HxR", "created_at": "Fri Aug 26 00:32:25 +0000 2016", "time": 1472171526.420927, "tid": 768969310672781313, "nei_num": "118"}}, {"geometry": {"type": "Point", "coordinates": [-79.30993, 43.77761]}, "type": "Feature", "id": 753251027491500032, "properties": {"loc": [-79.30993, 43.77761], "screen_name": "noeldhiraj", "text": "Woke up to this splendid view! \n\n#canadadiaries #torontolife #hdr #bnw @ Warden and Sheppard https://t.co/gOr7g1fZVF", "created_at": "Wed Jul 13 15:33:34 +0000 2016", "time": 1468424011.083604, "tid": 753251027491500032, "nei_num": "118"}}, {"geometry": {"type": "Point", "coordinates": [-79.30993, 43.77761]}, "type": "Feature", "id": 760223753636814850, "properties": {"loc": [-79.30993, 43.77761], "screen_name": "aamanswell", "text": "#eatfood #blessed #happyassme @ Warden and Sheppard https://t.co/R4GvWsYwK0", "created_at": "Mon Aug 01 21:20:41 +0000 2016", "time": 1470086428.4653, "tid": 760223753636814850, "nei_num": "118"}}, {"geometry": {"type": "Point", "coordinates": [-79.30993, 43.77761]}, "type": "Feature", "id": 768984185163780096, "properties": {"loc": [-79.30993, 43.77761], "screen_name": "noeldhiraj", "text": "It's always the small pieces that make the big picture! \n\n~ Unknown\n\n#bnw #lifequotes @ Warden\u2026 https://t.co/fHjX6NKWRp", "created_at": "Fri Aug 26 01:31:31 +0000 2016", "time": 1472175072.426738, "tid": 768984185163780096, "nei_num": "118"}}, {"geometry": {"type": "Point", "coordinates": [-79.309122, 43.7767213]}, "type": "Feature", "id": 756327421838753792, "properties": {"loc": [-79.309122, 43.7767213], "screen_name": "tpscalls", "text": "Trespass | 150 Palmdale Dr &amp; 160 Palmdale Dr [42 Div.] 07/21 23:14 #Palmdale_Drive #Toronto", "created_at": "Fri Jul 22 03:18:03 +0000 2016", "time": 1469157473.306221, "tid": 756327421838753792, "nei_num": "118"}}, {"geometry": {"type": "Point", "coordinates": [-79.309122, 43.7767213]}, "type": "Feature", "id": 766358266171518976, "properties": {"loc": [-79.309122, 43.7767213], "screen_name": "tpscalls", "text": "Fire | 150 Palmdale Dr &amp; 160 Palmdale Dr [42 Div.] 08/18 15:31 #Palmdale_Drive #Toronto", "created_at": "Thu Aug 18 19:37:03 +0000 2016", "time": 1471549006.122449, "tid": 766358266171518976, "nei_num": "118"}}, {"geometry": {"type": "Point", "coordinates": [-79.30773866, 43.77618256]}, "type": "Feature", "id": 772099508691951616, "properties": {"loc": [-79.30773866, 43.77618256], "screen_name": "MiroslavGlavic", "text": "I'm at Tam O'Shanter \u2013 Sullivan https://t.co/kwR430viEg", "created_at": "Sat Sep 03 15:50:42 +0000 2016", "time": 1472917821.391136, "tid": 772099508691951616, "nei_num": "118"}}, {"geometry": {"type": "Point", "coordinates": [-79.30773866, 43.77618256]},