{"type": "FeatureCollection", "features": [{"geometry": {"type": "Point", "coordinates": [-79.338403, 43.661453]}, "type": "Feature", "id": 705060499004616708, "properties": {"loc": [-79.338403, 43.661453], "centroid": [-79.48871890418637, 43.67977929463143], "screen_name": "ear2ear", "time": 1456952497.0, "tid": 705060499004616708, "text": "Good to see I'll be arriving in Dublin just in time for a transit strike.  https://t.co/cN2YlvKSGZ", "created_at": "Wed Mar 02 16:01:37 +0000 2016", "klabel": 119}}, {"geometry": {"type": "Point", "coordinates": [-79.3478165, 43.6669197]}, "type": "Feature", "id": 705086328434769920, "properties": {"loc": [-79.3478165, 43.6669197], "centroid": [-79.48871890418637, 43.67977929463143], "screen_name": "jeffreyawhiteca", "time": 1456958655.0, "tid": 705086328434769920, "text": "These new posters arrived from #pflag Toronto. Use flash photography to reveal the message\u2026 https://t.co/uU6HjbLYsC", "created_at": "Wed Mar 02 17:44:15 +0000 2016", "klabel": 119}}, {"geometry": {"type": "Point", "coordinates": [-79.33754656, 43.66167044]}, "type": "Feature", "id": 705095585938829314, "properties": {"loc": [-79.33754656, 43.66167044], "centroid": [-79.48871890418637, 43.67977929463143], "screen_name": "CaskMusic", "time": 1456960862.0, "tid": 705095585938829314, "text": "Electro-Harmonix ehxnyc 8-Step program. Analog expression/cv sequencer pedal. Automates the\u2026 https://t.co/VPbC650Y4i", "created_at": "Wed Mar 02 18:21:02 +0000 2016", "klabel": 119}}, {"geometry": {"type": "Point", "coordinates": [-79.33754656, 43.66167044]}, "type": "Feature", "id": 705123597841539073, "properties": {"loc": [-79.33754656, 43.66167044], "centroid": [-79.48871890418637, 43.67977929463143], "screen_name": "CaskMusic", "time": 1456967540.0, "tid": 705123597841539073, "text": "#NP @ Cask Music https://t.co/IROApdAcDj", "created_at": "Wed Mar 02 20:12:20 +0000 2016", "klabel": 119}}, {"geometry": {"type": "Point", "coordinates": [-79.3479, 43.65904]}, "type": "Feature", "id": 705127211922231296, "properties": {"loc": [-79.3479, 43.65904], "centroid": [-79.48871890418637, 43.67977929463143], "screen_name": "HiloToronto", "time": 1456968402.0, "tid": 705127211922231296, "text": "This is whats going down at your local. Open to 2am 7 nights a week. #riversideto\u2026 https://t.co/adMiGapgcc", "created_at": "Wed Mar 02 20:26:42 +0000 2016", "klabel": 119}}, {"geometry": {"type": "Point", "coordinates": [-79.348053, 43.6590118]}, "type": "Feature", "id": 705156646989914112, "properties": {"loc": [-79.348053, 43.6590118], "centroid": [-79.48871890418637, 43.67977929463143], "screen_name": "illbeseeingyou_", "time": 1456975420.0, "tid": 705156646989914112, "text": "See you tonight for wine Wednesday's ~ $25 bottles ~ $6 glasses ~ \u2764\ufe0f\ud83c\udf77 #wineoclock #winewednesday\u2026 https://t.co/4PFHxv437V", "created_at": "Wed Mar 02 22:23:40 +0000 2016", "klabel": 119}}, {"geometry": {"type": "Point", "coordinates": [-79.34685, 43.65969]}, "type": "Feature", "id": 705186121400057856, "properties": {"loc": [-79.34685, 43.65969], "centroid": [-79.48871890418637, 43.67977929463143], "screen_name": "countyriverside", "time": 1456982447.0, "tid": 705186121400057856, "text": "Grab your bestest, and come cozy up with the County Punch! It's heavy on the pears, so obvi it's\u2026 https://t.co/X8L3MtPshM", "created_at": "Thu Mar 03 00:20:47 +0000 2016", "klabel": 119}}, {"geometry": {"type": "Point", "coordinates": [-79.34510539, 43.66708308]}, "type": "Feature", "id": 705387647406055424, "properties": {"loc": [-79.34510539, 43.66708308], "centroid": [-79.48871890418637, 43.67977929463143], "screen_name": "thelustlistt", "time": 1457030495.0, "tid": 705387647406055424, "text": "Matchy matchy \ud83d\udc6f | \ud83d\udcf7 @tsangzillavs @ Saturday Dinette https://t.co/EbjeRSE64a", "created_at": "Thu Mar 03 13:41:35 +0000 2016", "klabel": 119}}, {"geometry": {"type": "Point", "coordinates": [-79.34097693, 43.6609208]}, "type": "Feature", "id": 705424106427170816, "properties": {"loc": [-79.34097693, 43.6609208], "centroid": [-79.48871890418637, 43.67977929463143], "screen_name": "hothomeopath", "time": 1457039187.0, "tid": 705424106427170816, "text": "#majesteas \n#buylocal\n#leslieville \n#truth @ Majesteas https://t.co/a6F1wwo619", "created_at": "Thu Mar 03 16:06:27 +0000 2016", "klabel": 119}}, {"geometry": {"type": "Point", "coordinates": [-79.33754656, 43.66167044]}, "type": "Feature", "id": 705477427624071168, "properties": {"loc": [-79.33754656, 43.66167044], "centroid": [-79.48871890418637, 43.67977929463143], "screen_name": "CaskMusic", "time": 1457051900.0, "tid": 705477427624071168, "text": "#danelectro Tuna Melt tremolo ($20) and Cool Cat univibe ($15). Used/mint! @ Cask Music https://t.co/QVMfMk5HGG", "created_at": "Thu Mar 03 19:38:20 +0000 2016", "klabel": 119}}, {"geometry": {"type": "Point", "coordinates": [-79.34224, 43.66573]}, "type": "Feature", "id": 705501934636158977, "properties": {"loc": [-79.34224, 43.66573], "centroid": [-79.48871890418637, 43.67977929463143], "screen_name": "jstarrMakes", "time": 1457057743.0, "tid": 705501934636158977, "text": "Stock ready for tomorrow's dovetail classes. #theUnpluggedWoodshop #theUWToronto #woodworking\u2026 https://t.co/58RKIbkKTX", "created_at": "Thu Mar 03 21:15:43 +0000 2016", "klabel": 119}}, {"geometry": {"type": "Point", "coordinates": [-79.34224, 43.66573]}, "type": "Feature", "id": 705513047411056643, "properties": {"loc": [-79.34224, 43.66573], "centroid": [-79.48871890418637, 43.67977929463143], "screen_name": "jstarrMakes", "time": 1457060392.0, "tid": 705513047411056643, "text": "Just finished the first cut on my silver maple dinning table, time to cut to length.\u2026 https://t.co/XbSoYXT6R7", "created_at": "Thu Mar 03 21:59:52 +0000 2016", "klabel": 119}}, {"geometry": {"type": "Point", "coordinates": [-79.34685, 43.65969]}, "type": "Feature", "id": 705515879207989256, "properties": {"loc": [-79.34685, 43.65969], "centroid": [-79.48871890418637, 43.67977929463143], "screen_name": "countyriverside", "time": 1457061068.0, "tid": 705515879207989256, "text": "We're ready for ya #Riverside! Come join us for the happiest hour and a half on the #eastside!\u2026 https://t.co/4mffbEkfME", "created_at": "Thu Mar 03 22:11:08 +0000 2016", "klabel": 119}}, {"geometry": {"type": "Point", "coordinates": [-79.34224, 43.66573]}, "type": "Feature", "id": 705517650538008576, "properties": {"loc": [-79.34224, 43.66573], "centroid": [-79.48871890418637, 43.67977929463143], "screen_name": "jstarrMakes", "time": 1457061490.0, "tid": 705517650538008576, "text": "A few students were surprised when I told I would be cross cutting this slab by hand. With a\u2026 https://t.co/RTVlr3CdHc", "created_at": "Thu Mar 03 22:18:10 +0000 2016", "klabel": 119}}, {"geometry": {"type": "Point", "coordinates": [-79.3424226, 43.6605474]}, "type": "Feature", "id": 705518169851449344, "properties": {"loc": [-79.3424226, 43.6605474], "centroid": [-79.48871890418637, 43.67977929463143], "screen_name": "tmj_gta_hrta", "time": 1457061614.0, "tid": 705518169851449344, "text": "If you're a #Hospitality professional in 908 QUEEN ST E, #TORONTO, ON, check out this #job: https://t.co/2tRzhy5afj #Veterans #Hiring", "created_at": "Thu Mar 03 22:20:14 +0000 2016", "klabel": 119}}, {"geometry": {"type": "Point", "coordinates": [-79.348053, 43.6590118]}, "type": "Feature", "id": 705524749569560577, "properties": {"loc": [-79.348053, 43.6590118], "centroid": [-79.48871890418637, 43.67977929463143], "screen_name": "illbeseeingyou_", "time": 1457063182.0, "tid": 705524749569560577, "text": "New Cocktail menu launched today \ud83d\ude80\ud83d\udca5\ud83d\udd25 #cocktails #drinks #leslieville #riverside #riverdale\u2026 https://t.co/XS43i6GS99", "created_at": "Thu Mar 03 22:46:22 +0000 2016", "klabel": 119}}, {"geometry": {"type": "Point", "coordinates": [-79.3432693, 43.6678085]}, "type": "Feature", "id": 705537934108323840, "properties": {"loc": [-79.3432693, 43.6678085], "centroid": [-79.48871890418637, 43.67977929463143], "screen_name": "RealJerkToronto", "time": 1457066326.0, "tid": 705537934108323840, "text": "IRIE-OKEE THURSDAY TONIGHT!!!!!!!!! AND EACH &amp; EVERY THURSDAYS NIGHT @realjerktoronto Best\u2026 https://t.co/fnqH0Lpsgr", "created_at": "Thu Mar 03 23:38:46 +0000 2016", "klabel": 119}}, {"geometry": {"type": "Point", "coordinates": [-79.34923768, 43.65931089]}, "type": "Feature", "id": 705551998150647808, "properties": {"loc": [-79.34923768, 43.65931089], "centroid": [-79.48871890418637, 43.67977929463143], "screen_name": "klubkell", "time": 1457069679.0, "tid": 705551998150647808, "text": "COD cakes delicious (at @RubyWatchCo. in Toronto, ON) https://t.co/Tpt17ziGoF", "created_at": "Fri Mar 04 00:34:39 +0000 2016", "klabel": 119}}, {"geometry": {"type": "Point", "coordinates": [-79.3487625, 43.6589699]}, "type": "Feature", "id": 705558580695605248, "properties": {"loc": [-79.3487625, 43.6589699], "centroid": [-79.48871890418637, 43.67977929463143], "screen_name": "ebrunazegerci", "time": 1457071248.0, "tid": 705558580695605248, "text": "Epica the Opera House, Jan 22nd 2016! Photos are taken by me :-) #simonesimons #isaacdelahaye\u2026 https://t.co/GXtOeQ7iTS", "created_at": "Fri Mar 04 01:00:48 +0000 2016", "klabel": 119}}, {"geometry": {"type": "Point", "coordinates": [-79.3487625, 43.6589699]}, "type": "Feature", "id": 705559802563403776, "properties": {"loc": [-79.3487625, 43.6589699], "centroid": [-79.48871890418637, 43.67977929463143], "screen_name": "ebrunazegerci", "time": 1457071540.0, "tid": 705559802563403776, "text": "Live at The Opera House #simonesimons #epica @ The Opera House https://t.co/JxnKzKfmXE", "created_at": "Fri Mar 04 01:05:40 +0000 2016", "klabel": 119}}, {"geometry": {"type": "Point", "coordinates": [-79.348053, 43.6590118]}, "type": "Feature", "id": 705575511695691776, "properties": {"loc": [-79.348053, 43.6590118], "centroid": [-79.48871890418637, 43.67977929463143], "screen_name": "illbeseeingyou_", "time": 1457075285.0, "tid": 705575511695691776, "text": "Got a new beer in today!! #oldtomorrow #cpa #canadianpaleale #ontariocraftbeer #beer #tallboys\u2026 https://t.co/jgW5E8qnZj", "created_at": "Fri Mar 04 02:08:05 +0000 2016", "klabel": 119}}, {"geometry": {"type": "Point", "coordinates": [-79.3396999, 43.66139]}, "type": "Feature", "id": 705578923787157504, "properties": {"loc": [-79.3396999, 43.66139], "centroid": [-79.48871890418637, 43.67977929463143], "screen_name": "angmaxwell", "time": 1457076099.0, "tid": 705578923787157504, "text": "Yummers. Gnocchi, bread, potato, carbs.. Oh my:) #torontoeats #leslieville #italianfood\u2026 https://t.co/04CBmIfj57", "created_at": "Fri Mar 04 02:21:39 +0000 2016", "klabel": 119}}, {"geometry": {"type": "Point", "coordinates": [-79.33552, 43.66233]}, "type": "Feature", "id": 705636867329265665, "properties": {"loc": [-79.33552, 43.66233], "centroid": [-79.48871890418637, 43.67977929463143], "screen_name": "rolakeyonge", "time": 1457089913.0, "tid": 705636867329265665, "text": "#crochet #hairband #handmade #accessories \u2764\u2764\u2764 @ Arts Market https://t.co/kb6WBjTH2T", "created_at": "Fri Mar 04 06:11:53 +0000 2016", "klabel": 119}}, {"geometry": {"type": "Point", "coordinates": [-79.33452, 43.65532]}, "type": "Feature", "id": 705740191126966272, "properties": {"loc": [-79.33452, 43.65532], "centroid": [-79.48871890418637, 43.67977929463143], "screen_name": "keesjevan", "time": 1457114548.0, "tid": 705740191126966272, "text": "Had so much fun at Big Brother! #bbcan4 @flatshanlon @arisacox @alsopeterbrown @ Showline Studios https://t.co/GYEtiL1XDS", "created_at": "Fri Mar 04 13:02:28 +0000 2016", "klabel": 119}}, {"geometry": {"type": "Point", "coordinates": [-79.3463024, 43.664223]}, "type": "Feature", "id": 705792761312780292, "properties": {"loc": [-79.3463024, 43.664223], "centroid": [-79.48871890418637, 43.67977929463143], "screen_name": "theartmarket_ca", "time": 1457127081.0, "tid": 705792761312780292, "text": "Whistler's Audain Art Museum set to open to the public  https://t.co/aqaAn0d44n", "created_at": "Fri Mar 04 16:31:21 +0000 2016", "klabel": 119}}, {"geometry": {"type": "Point", "coordinates": [-79.33541, 43.66192]}, "type": "Feature", "id": 705806740416303104, "properties": {"loc": [-79.33541, 43.66192], "centroid": [-79.48871890418637, 43.67977929463143], "screen_name": "ProjectGalleryT", "time": 1457130414.0, "tid": 705806740416303104, "text": "Preview Image: 'Fake me Feeling Like Eye is Red' (detail)\noil and acrylic on canvas\n33\u201d x\u2026 https://t.co/5gUi8lpYp6", "created_at": "Fri Mar 04 17:26:54 +0000 2016", "klabel": 119}}, {"geometry": {"type": "Point", "coordinates": [-79.3487625, 43.6589699]}, "type": "Feature", "id": 705843159545331712, "properties": {"loc": [-79.3487625, 43.6589699], "centroid": [-79.48871890418637, 43.67977929463143], "screen_name": "ciaratorrance", "time": 1457139097.0, "tid": 705843159545331712, "text": "Carry on \n@nateruessmusic @ The Opera House https://t.co/NJuiiC9ZXI", "created_at": "Fri Mar 04 19:51:37 +0000 2016", "klabel": 119}}, {"geometry": {"type": "Point", "coordinates": [-79.3477173, 43.6663399]}, "type": "Feature", "id": 705850461342015488, "properties": {"loc": [-79.3477173, 43.6663399], "centroid": [-79.48871890418637, 43.67977929463143], "screen_name": "ShelbyLeeWalsh", "time": 1457140838.0, "tid": 705850461342015488, "text": "trend_hunter does @paintcabin! \ud83d\ude04 @ Paint Cabin https://t.co/tFOwwh1o4i", "created_at": "Fri Mar 04 20:20:38 +0000 2016", "klabel": 119}}, {"geometry": {"type": "Point", "coordinates": [-79.34294414, 43.66525225]}, "type": "Feature", "id": 705860061529317378, "properties": {"loc": [-79.34294414, 43.66525225], "centroid": [-79.48871890418637, 43.67977929463143], "screen_name": "phitseamus", "time": 1457143127.0, "tid": 705860061529317378, "text": "#kettlebell #finisher after #heavy #powercleans and #deadlifts starting with 10 Reps per leg of\u2026 https://t.co/Y4B52Rj33F", "created_at": "Fri Mar 04 20:58:47 +0000 2016", "klabel": 119}}, {"geometry": {"type": "Point", "coordinates": [-79.33583736, 43.66178687]}, "type": "Feature", "id": 705875654030573568, "properties": {"loc": [-79.33583736, 43.66178687], "centroid": [-79.48871890418637, 43.67977929463143], "screen_name": "Justin_fotog", "time": 1457146845.0, "tid": 705875654030573568, "text": "I'm at Kristapson's in Toronto, ON https://t.co/zwuvmfdcOj", "created_at": "Fri Mar 04 22:00:45 +0000 2016", "klabel": 119}}, {"geometry": {"type": "Point", "coordinates": [-79.33946799, 43.66874869]}, "type": "Feature", "id": 705875749492944896, "properties": {"loc": [-79.33946799, 43.66874869], "centroid": [-79.48871890418637, 43.67977929463143], "screen_name": "Justin_fotog", "time": 1457146867.0, "tid": 705875749492944896, "text": "I'm at Gerrard Square in Toronto, ON https://t.co/u8MduhUSDR", "created_at": "Fri Mar 04 22:01:07 +0000 2016", "klabel": 119}}, {"geometry": {"type": "Point", "coordinates": [-79.338623, 43.668927]}, "type": "Feature", "id": 705875824159940608, "properties": {"loc": [-79.338623, 43.668927], "centroid": [-79.48871890418637, 43.67977929463143], "screen_name": "Justin_fotog", "time": 1457146885.0, "tid": 705875824159940608, "text": "I'm at @Staples Gerrard Square in Toronto, ON https://t.co/DppJQVFr7g", "created_at": "Fri Mar 04 22:01:25 +0000 2016", "klabel": 119}}, {"geometry": {"type": "Point", "coordinates": [-79.3477173, 43.6663399]}, "type": "Feature", "id": 705877902244630528, "properties": {"loc": [-79.3477173, 43.6663399], "centroid": [-79.48871890418637, 43.67977929463143], "screen_name": "ShelbyLeeWalsh", "time": 1457147381.0, "tid": 705877902244630528, "text": "Loved @paintcabin! Carved and stamped this myself. \ud83d\ude00 @ Paint Cabin https://t.co/iR8BuHcKex", "created_at": "Fri Mar 04 22:09:41 +0000 2016", "klabel": 119}}, {"geometry": {"type": "Point", "coordinates": [-79.3432693, 43.6678085]}, "type": "Feature", "id": 705889499545530368, "properties": {"loc": [-79.3432693, 43.6678085], "centroid": [-79.48871890418637, 43.67977929463143], "screen_name": "bpersaud", "time": 1457150146.0, "tid": 705889499545530368, "text": "Dinner after #WorkWorkWork with my two wives @princesskout and @mary_robinson #TGIF\u2026 https://t.co/0T35duu7By", "created_at": "Fri Mar 04 22:55:46 +0000 2016", "klabel": 119}}, {"geometry": {"type": "Point", "coordinates": [-79.33534, 43.66193]}, "type": "Feature", "id": 705897689762824193, "properties": {"loc": [-79.33534, 43.66193], "centroid": [-79.48871890418637, 43.67977929463143], "screen_name": "AscariEnoteca", "time": 1457152098.0, "tid": 705897689762824193, "text": "The #LASAGNA alla BOLOGNESE: beef, pork &amp; veal bolognese, b\u00e9chamel, Parmesan, fresh thyme.  Back\u2026 https://t.co/J1n9Z1UIrp", "created_at": "Fri Mar 04 23:28:18 +0000 2016", "klabel": 119}}, {"geometry": {"type": "Point", "coordinates": [-79.33985, 43.66191]}, "type": "Feature", "id": 705928304491102208, "properties": {"loc": [-79.33985, 43.66191], "centroid": [-79.48871890418637, 43.67977929463143], "screen_name": "flashframe", "time": 1457159397.0, "tid": 705928304491102208, "text": "Laying some tracks with DB, Glen and Easter Seals @ DB Audio https://t.co/7MiXltMfIw", "created_at": "Sat Mar 05 01:29:57 +0000 2016", "klabel": 119}}, {"geometry": {"type": "Point", "coordinates": [-79.3487625, 43.6589699]}, "type": "Feature", "id": 705968343438602240, "properties": {"loc": [-79.3487625, 43.6589699], "centroid": [-79.48871890418637, 43.67977929463143], "screen_name": "nerdbiskit", "time": 1457168943.0, "tid": 705968343438602240, "text": "Tim Heidecker &amp; Neil Hamburger were just awful tonight and what a garbage crowd! @timheidecker\u2026 https://t.co/Qc8kb9xaD0", "created_at": "Sat Mar 05 04:09:03 +0000 2016", "klabel": 119}}, {"geometry": {"type": "Point", "coordinates": [-79.3487625, 43.6589699]}, "type": "Feature", "id": 705976140004003840, "properties": {"loc": [-79.3487625, 43.6589699], "centroid": [-79.48871890418637, 43.67977929463143], "screen_name": "TheBronwynist", "time": 1457170802.0, "tid": 705976140004003840, "text": "It's not every night I get to see two legends of comedy (and personal heroes of mine),\u2026 https://t.co/qREp27Gvlj", "created_at": "Sat Mar 05 04:40:02 +0000 2016", "klabel": 119}}, {"geometry": {"type": "Point", "coordinates": [-79.33546, 43.66185]}, "type": "Feature", "id": 706001539547136000, "properties": {"loc": [-79.33546, 43.66185], "centroid": [-79.48871890418637, 43.67977929463143], "screen_name": "121031forever", "time": 1457176858.0, "tid": 706001539547136000, "text": "THE AVALANCHE\nAcrylic on board, 17x24\nOctober 2014\n\nOn display now for \nBLACK &amp; WHITE at \nBen\u2026 https://t.co/JLJgferH43", "created_at": "Sat Mar 05 06:20:58 +0000 2016", "klabel": 119}}, {"geometry": {"type": "Point", "coordinates": [-79.34685, 43.65969]}, "type": "Feature", "id": 706147633027485696, "properties": {"loc": [-79.34685, 43.65969], "centroid": [-79.48871890418637, 43.67977929463143], "screen_name": "countyriverside", "time": 1457211689.0, "tid": 706147633027485696, "text": "Come get it while it's still a bit chilly out! Cinnamon bourbon with hot apple cider! \nRocking\u2026 https://t.co/BElkxXItdA", "created_at": "Sat Mar 05 16:01:29 +0000 2016", "klabel": 119}}, {"geometry": {"type": "Point", "coordinates": [-79.3417969, 43.6644211]}, "type": "Feature", "id": 706156969887797248, "properties": {"loc": [-79.3417969, 43.6644211], "centroid": [-79.48871890418637, 43.67977929463143], "screen_name": "TonicLiving", "time": 1457213916.0, "tid": 706156969887797248, "text": "Really cool shoot happening right now with the smitherystyle gang. Shop for your shape ladies!\u2026 https://t.co/fwWJIPgDFy", "created_at": "Sat Mar 05 16:38:36 +0000 2016", "klabel": 119}}, {"geometry": {"type": "Point", "coordinates": [-79.3487625, 43.6589699]}, "type": "Feature", "id": 706175944675831808, "properties": {"loc": [-79.3487625, 43.6589699], "centroid": [-79.48871890418637, 43.67977929463143], "screen_name": "NessaFotograf", "time": 1457218439.0, "tid": 706175944675831808, "text": "XX of SOVEREIGN BRUTALITY! @INERTIACONCERTS celebrated w/ #Panzerfaust, #Macabre,\u2026 https://t.co/LC7E6f6eUX", "created_at": "Sat Mar 05 17:53:59 +0000 2016", "klabel": 119}}, {"geometry": {"type": "Point", "coordinates": [-79.3424768, 43.6605212]}, "type": "Feature", "id": 707593049560498176, "properties": {"loc": [-79.3424768, 43.6605212], "centroid": [-79.48871890418637, 43.67977929463143], "screen_name": "tpscalls", "time": 1457556304.0, "tid": 707593049560498176, "text": "Hazard | Queen St E &amp; Logan Ave [55 Div.] 03/09 10:40 #Leslieville #Toronto", "created_at": "Wed Mar 09 15:45:04 +0000 2016", "klabel": 119}}, {"geometry": {"type": "Point", "coordinates": [-79.3395462, 43.6613083]}, "type": "Feature", "id": 707596642791399424, "properties": {"loc": [-79.3395462, 43.6613083], "centroid": [-79.48871890418637, 43.67977929463143], "screen_name": "SunnyInThe6", "time": 1457557160.0, "tid": 707596642791399424, "text": "Tomorrow Thursday March 10 @ Wayla Bar 8pm! Be There!  @maizyf #StepIntoTheMaze #HottTv\u2026 https://t.co/R6sSj9Moxl", "created_at": "Wed Mar 09 15:59:20 +0000 2016", "klabel": 119}}, {"geometry": {"type": "Point", "coordinates": [-79.34271675, 43.66653112]}, "type": "Feature", "id": 707605616450281472, "properties": {"loc": [-79.34271675, 43.66653112], "centroid": [-79.48871890418637, 43.67977929463143], "screen_name": "Killthe8", "time": 1457559300.0, "tid": 707605616450281472, "text": "@eptic_music is fresh off the #neversaydierecords #tour and stocked up online! 8 bit tee plus\u2026 https://t.co/x9f74MKjjC", "created_at": "Wed Mar 09 16:35:00 +0000 2016", "klabel": 119}}, {"geometry": {"type": "Point", "coordinates": [-79.3472976, 43.663385]}, "type": "Feature", "id": 707622495730442240, "properties": {"loc": [-79.3472976, 43.663385], "centroid": [-79.48871890418637, 43.67977929463143], "screen_name": "tpscalls", "time": 1457563324.0, "tid": 707622495730442240, "text": "See Ambulance | Dundas St E &amp; Gerrard St E [51 Div.] 03/09 12:38 #Riverside #Toronto", "created_at": "Wed Mar 09 17:42:04 +0000 2016", "klabel": 119}}, {"geometry": {"type": "Point", "coordinates": [-79.34224, 43.66573]}, "type": "Feature", "id": 707629456312115201, "properties": {"loc": [-79.34224, 43.66573], "centroid": [-79.48871890418637, 43.67977929463143], "screen_name": "TomFidgen", "time": 1457564984.0, "tid": 707629456312115201, "text": "Local black walnut syrup brought in by a student. Amazing flavour! Kind of a mild/wilder maple\u2026 https://t.co/xGIPJopnKV", "created_at": "Wed Mar 09 18:09:44 +0000 2016", "klabel": 119}}, {"geometry": {"type": "Point", "coordinates": [-79.33581, 43.66186]}, "type": "Feature", "id": 749804477641732096, "properties": {"loc": [-79.33581, 43.66186], "centroid": [-79.48871890418637, 43.67977929463143], "screen_name": "CelineGunton", "time": 1467620292.0, "tid": 749804477641732096, "text": "A little bit of sunshine on a rainy day @ Leslieville Neighborhood https://t.co/pGtphseofY", "created_at": "Mon Jul 04 03:18:12 +0000 2016", "klabel": 119}}, {"geometry": {"type": "Point", "coordinates": [-79.3418, 43.66442]}, "type": "Feature", "id": 749950650176401408, "properties": {"loc": [-79.3418, 43.66442], "centroid": [-79.48871890418637, 43.67977929463143], "screen_name": "jstarrMakes", "time": 1467655143.0, "tid": 749950650176401408, "text": "Beautiful day #theUnpluggedWoodshop #theUWToronto #woodworking #handtools #Toronto #RiversideTO\u2026 https://t.co/YWdol3RLaq", "created_at": "Mon Jul 04 12:59:03 +0000 2016", "klabel": 119}}, {"geometry": {"type": "Point", "coordinates": [-79.34510105, 43.6590421]}, "type": "Feature", "id": 749964017570082816, "properties": {"loc": [-79.34510105, 43.6590421], "centroid": [-79.48871890418637, 43.67977929463143], "screen_name": "ChiJunky", "time": 1467658330.0, "tid": 749964017570082816, "text": "Love this pose! Tricky cat advanced variation. Great to open the hips and chest. Brings energy,\u2026 https://t.co/ORi29Timzl", "created_at": "Mon Jul 04 13:52:10 +0000 2016", "klabel": 119}}, {"geometry": {"type": "Point", "coordinates": [-79.34769474, 43.65924445]}, "type": "Feature", "id": 750051222606876672, "properties": {"loc": [-79.34769474, 43.65924445], "centroid": [-79.48871890418637, 43.67977929463143], "screen_name": "MarcScottEmery", "time": 1467679121.0, "tid": 750051222606876672, "text": "Alex wanted a photo during his visit to Cannabis Culture at 711 Queen St. West, so Manager Erin\u2026 https://t.co/9PoKTluBVf", "created_at": "Mon Jul 04 19:38:41 +0000 2016", "klabel": 119}}, {"geometry": {"type": "Point", "coordinates": [-79.33581, 43.66186]}, "type": "Feature", "id": 750056331294412800, "properties": {"loc": [-79.33581, 43.66186], "centroid": [-79.48871890418637, 43.67977929463143], "screen_name": "djbanim8r", "time": 1467680339.0, "tid": 750056331294412800, "text": "BFFs @ Leslieville Neighborhood https://t.co/pX8lPlS7T4", "created_at": "Mon Jul 04 19:58:59 +0000 2016", "klabel": 119}}, {"geometry": {"type": "Point", "coordinates": [-79.3428098, 43.6584402]}, "type": "Feature", "id": 750098126606897153, "properties": {"loc": [-79.3428098, 43.6584402], "centroid": [-79.48871890418637, 43.67977929463143], "screen_name": "tpscalls", "time": 1467690304.0, "tid": 750098126606897153, "text": "See Ambulance | Empire Ave &amp; Booth Ave [55 Div.] 07/04 18:41 #Old_Toronto", "created_at": "Mon Jul 04 22:45:04 +0000 2016", "klabel": 119}}, {"geometry": {"type": "Point", "coordinates": [-79.3451741, 43.6669456]}, "type": "Feature", "id": 750125648941871104, "properties": {"loc": [-79.3451741, 43.6669456], "centroid": [-79.48871890418637, 43.67977929463143], "screen_name": "Keffaleng", "time": 1467696866.0, "tid": 750125648941871104, "text": "\"@visionelie: Toronto people hate putting on Toronto people.\" Fuck em.", "created_at": "Tue Jul 05 00:34:26 +0000 2016", "klabel": 119}}, {"geometry": {"type": "Point", "coordinates": [-79.33581, 43.66186]}, "type": "Feature", "id": 750149852185583616, "properties": {"loc": [-79.33581, 43.66186], "centroid": [-79.48871890418637, 43.67977929463143], "screen_name": "AuraEffect", "time": 1467702636.0, "tid": 750149852185583616, "text": "\ud83d\ude3b\ud83d\udc36Night time safety for best friend\ud83d\udc15\ud83d\udc08 #glowcollar \n.\n.\n.\n#furryfriend #dogsofinstagram\u2026 https://t.co/qL7uRcErGN", "created_at": "Tue Jul 05 02:10:36 +0000 2016", "klabel": 119}}, {"geometry": {"type": "Point", "coordinates": [-79.3375585, 43.6551313]}, "type": "Feature", "id": 750156020324892674, "properties": {"loc": [-79.3375585, 43.6551313], "centroid": [-79.48871890418637, 43.67977929463143], "screen_name": "tofireS", "time": 1467704107.0, "tid": 750156020324892674, "text": "Vehicle (Personal Injury) - Lake Shore Boulevard East @ Carlaw Avenue, Toronto (2 Trucks)", "created_at": "Tue Jul 05 02:35:07 +0000 2016", "klabel": 119}}, {"geometry": {"type": "Point", "coordinates": [-79.34769474, 43.65924445]}, "type": "Feature", "id": 750331741953331200, "properties": {"loc": [-79.34769474, 43.65924445], "centroid": [-79.48871890418637, 43.67977929463143], "screen_name": "MarcScottEmery", "time": 1467746002.0, "tid": 750331741953331200, "text": "Blue Widow up close in the jar at Cannabis Culture 711 Queen St. East in Toronto. I'm here till\u2026 https://t.co/ED26QvyHdC", "created_at": "Tue Jul 05 14:13:22 +0000 2016", "klabel": 119}}, {"geometry": {"type": "Point", "coordinates": [-79.34769474, 43.65924445]}, "type": "Feature", "id": 750381705886781440, "properties": {"loc": [-79.34769474, 43.65924445], "centroid": [-79.48871890418637, 43.67977929463143], "screen_name": "MarcScottEmery", "time": 1467757914.0, "tid": 750381705886781440, "text": "Sun poll today! VOTE NOW @ https://t.co/Osb4KU3UwH \"Should marijuana be sold in vending machines?\" @\u2026 https://t.co/SP3PTH9wQ5", "created_at": "Tue Jul 05 17:31:54 +0000 2016", "klabel": 119}}, {"geometry": {"type": "Point", "coordinates": [-79.34685, 43.65969]}, "type": "Feature", "id": 750389216073359361, "properties": {"loc": [-79.34685, 43.65969], "centroid": [-79.48871890418637, 43.67977929463143], "screen_name": "countyriverside", "time": 1467759705.0, "tid": 750389216073359361, "text": "Good things are being unwrapped here today!!! We've got some delicious summer surprises about to\u2026 https://t.co/OMpRsnAXhy", "created_at": "Tue Jul 05 18:01:45 +0000 2016", "klabel": 119}}, {"geometry": {"type": "Point", "coordinates": [-79.34177529, 43.66487949]}, "type": "Feature", "id": 751213878474903552, "properties": {"loc": [-79.34177529, 43.66487949], "centroid": [-79.48871890418637, 43.67977929463143], "screen_name": "sorannomsport", "time": 1467956320.0, "tid": 751213878474903552, "text": "Well the answer to yesterday's question is the #audiallroad. It was burnt beyond recognition.\u2026 https://t.co/vJeLhUbNcm", "created_at": "Fri Jul 08 00:38:40 +0000 2016", "klabel": 119}}, {"geometry": {"type": "Point", "coordinates": [-79.34224, 43.66573]}, "type": "Feature", "id": 751230806601924608, "properties": {"loc": [-79.34224, 43.66573], "centroid": [-79.48871890418637, 43.67977929463143], "screen_name": "TomFidgen", "time": 1467960356.0, "tid": 751230806601924608, "text": "It was a full house for our Open Class tonight at the Unplugged Woodshop! Lots of great projects\u2026 https://t.co/Gw63uh2O8h", "created_at": "Fri Jul 08 01:45:56 +0000 2016", "klabel": 119}}, {"geometry": {"type": "Point", "coordinates": [-79.3383477, 43.6692568]}, "type": "Feature", "id": 751753877859426304, "properties": {"loc": [-79.3383477, 43.6692568], "centroid": [-79.48871890418637, 43.67977929463143], "screen_name": "tmj_gta_retail", "time": 1468085066.0, "tid": 751753877859426304, "text": "Can you recommend anyone for this #job? https://t.co/VB6OOXlmUA #Retail #Toronto, ON #Hiring #CareerArc", "created_at": "Sat Jul 09 12:24:26 +0000 2016", "klabel": 119}}, {"geometry": {"type": "Point", "coordinates": [-79.34538, 43.66688]}, "type": "Feature", "id": 751779424324886528, "properties": {"loc": [-79.34538, 43.66688], "centroid": [-79.48871890418637, 43.67977929463143], "screen_name": "qingaling_", "time": 1468091156.0, "tid": 751779424324886528, "text": "Table for 2 please \ud83d\udc81 \u2615 @ Hailed Coffee https://t.co/m3ABtuysyq", "created_at": "Sat Jul 09 14:05:56 +0000 2016", "klabel": 119}}, {"geometry": {"type": "Point", "coordinates": [-79.33976, 43.66814]}, "type": "Feature", "id": 751812257789644800, "properties": {"loc": [-79.33976, 43.66814], "centroid": [-79.48871890418637, 43.67977929463143], "screen_name": "MapleLeafTavern", "time": 1468098984.0, "tid": 751812257789644800, "text": "Day Drinks anyone? #mltavern #leslieville #gerrardsteast #tavern #freshjuice #brunchtoronto @\u2026 https://t.co/diUAVlMPVp", "created_at": "Sat Jul 09 16:16:24 +0000 2016", "klabel": 119}}, {"geometry": {"type": "Point", "coordinates": [-79.34348, 43.660524]}, "type": "Feature", "id": 751812581782945792, "properties": {"loc": [-79.34348, 43.660524], "centroid": [-79.48871890418637, 43.67977929463143], "screen_name": "Justin_fotog", "time": 1468099062.0, "tid": 751812581782945792, "text": "Brunch (@ Barrio Cerveceria) https://t.co/yQiZucunCx", "created_at": "Sat Jul 09 16:17:42 +0000 2016", "klabel": 119}}, {"geometry": {"type": "Point", "coordinates": [-79.34054, 43.6552]}, "type": "Feature", "id": 751821816461533185, "properties": {"loc": [-79.34054, 43.6552], "centroid": [-79.48871890418637, 43.67977929463143], "screen_name": "crossfitlime", "time": 1468101263.0, "tid": 751821816461533185, "text": "jrampone completed her first weight lifting competition. She took second in her weight class.\u2026 https://t.co/w7nt4FBSbL", "created_at": "Sat Jul 09 16:54:23 +0000 2016", "klabel": 119}}, {"geometry": {"type": "Point", "coordinates": [-79.3472475, 43.6589718]}, "type": "Feature", "id": 751823998263132160, "properties": {"loc": [-79.3472475, 43.6589718], "centroid": [-79.48871890418637, 43.67977929463143], "screen_name": "tpscalls", "time": 1468101784.0, "tid": 751823998263132160, "text": "Trespass | Grant St &amp; Saulter St [55 Div.] 07/09 12:59 #Toronto", "created_at": "Sat Jul 09 17:03:04 +0000 2016", "klabel": 119}}, {"geometry": {"type": "Point", "coordinates": [-79.3423668, 43.6496586]}, "type": "Feature", "id": 751853442797273089, "properties": {"loc": [-79.3423668, 43.6496586], "centroid": [-79.48871890418637, 43.67977929463143], "screen_name": "tpscalls", "time": 1468108804.0, "tid": 751853442797273089, "text": "Unknown Trouble | Saulter St S &amp; Commissioners St [55 Div.] 07/09 14:54 #Port_Lands #Toronto", "created_at": "Sat Jul 09 19:00:04 +0000 2016", "klabel": 119}}, {"geometry": {"type": "Point", "coordinates": [-79.34224, 43.66573]}, "type": "Feature", "id": 751859400806174720, "properties": {"loc": [-79.34224, 43.66573], "centroid": [-79.48871890418637, 43.67977929463143], "screen_name": "jstarrMakes", "time": 1468110224.0, "tid": 751859400806174720, "text": "Clouds over UW today. #theUnpluggedWoodshop #theUWToronto #woodworking #handtools #Toronto\u2026 https://t.co/FZw2hqJW7Y", "created_at": "Sat Jul 09 19:23:44 +0000 2016", "klabel": 119}}, {"geometry": {"type": "Point", "coordinates": [-79.3351, 43.6455]}, "type": "Feature", "id": 751864535468957696, "properties": {"loc": [-79.3351, 43.6455], "centroid": [-79.48871890418637, 43.67977929463143], "screen_name": "adamhuggins", "time": 1468111448.0, "tid": 751864535468957696, "text": "Image by @adamhuggins #onassignment for @nytimesphoto in #Toronto, #Canada\n\nContinuing the story\u2026 https://t.co/eAKfhDfGbR", "created_at": "Sat Jul 09 19:44:08 +0000 2016", "klabel": 119}}, {"geometry": {"type": "Point", "coordinates": [-79.34224, 43.66573]}, "type": "Feature", "id": 751867944934727681, "properties": {"loc": [-79.34224, 43.66573], "centroid": [-79.48871890418637, 43.67977929463143], "screen_name": "TomFidgen", "time": 1468112261.0, "tid": 751867944934727681, "text": "Posted a new YouTube video today- Installing an HNT GORDON Tail Vice at the Unplugged Woodshop\u2026 https://t.co/tJJNCQIVex", "created_at": "Sat Jul 09 19:57:41 +0000 2016", "klabel": 119}}, {"geometry": {"type": "Point", "coordinates": [-79.34056213, 43.65519391]}, "type": "Feature", "id": 751870576034144260, "properties": {"loc": [-79.34056213, 43.65519391], "centroid": [-79.48871890418637, 43.67977929463143], "screen_name": "FrontlineEnt", "time": 1468112889.0, "tid": 751870576034144260, "text": "Good Afternoon!!                                                Last day to get your outfits in\u2026 https://t.co/dh9LFNXfAz", "created_at": "Sat Jul 09 20:08:09 +0000 2016", "klabel": 119}}, {"geometry": {"type": "Point", "coordinates": [-79.34923768, 43.65931089]}, "type": "Feature", "id": 751903823485165568, "properties": {"loc": [-79.34923768, 43.65931089], "centroid": [-79.48871890418637, 43.67977929463143], "screen_name": "ryan_boudreau", "time": 1468120815.0, "tid": 751903823485165568, "text": "Happy Birthday Keith (at @RubyWatchCo. in Toronto, ON) https://t.co/znPHQc4TSO", "created_at": "Sat Jul 09 22:20:15 +0000 2016", "klabel": 119}}, {"geometry": {"type": "Point", "coordinates": [-79.33581134, 43.66488101]}, "type": "Feature", "id": 751921459136753665, "properties": {"loc": [-79.33581134, 43.66488101], "centroid": [-79.48871890418637, 43.67977929463143], "screen_name": "DougCookRD", "time": 1468125020.0, "tid": 751921459136753665, "text": "Using up my stock of #bananas by #bbq them with #butter &amp; #brown #sugar. An #easy #dessert to go\u2026 https://t.co/h7yLLU13Pv", "created_at": "Sat Jul 09 23:30:20 +0000 2016", "klabel": 119}}, {"geometry": {"type": "Point", "coordinates": [-79.3463699, 43.65984]}, "type": "Feature", "id": 751948348446412800, "properties": {"loc": [-79.3463699, 43.65984], "centroid": [-79.48871890418637, 43.67977929463143], "screen_name": "UberLearn", "time": 1468131431.0, "tid": 751948348446412800, "text": "#dinner #tabule #lebanese #toronto @ Tabule https://t.co/O8YNo0GmnI", "created_at": "Sun Jul 10 01:17:11 +0000 2016", "klabel": 119}}, {"geometry": {"type": "Point", "coordinates": [-79.3359543, 43.6610608]}, "type": "Feature", "id": 751953858243461121, "properties": {"loc": [-79.3359543, 43.6610608], "centroid": [-79.48871890418637, 43.67977929463143], "screen_name": "tpscalls", "time": 1468132745.0, "tid": 751953858243461121, "text": "Fire | Pape Ave &amp; Winnifred Ave [55 Div.] 07/09 21:33 #Leslieville #Toronto", "created_at": "Sun Jul 10 01:39:05 +0000 2016", "klabel": 119}}, {"geometry": {"type": "Point", "coordinates": [-79.34139, 43.66359]}, "type": "Feature", "id": 752109398189805569, "properties": {"loc": [-79.34139, 43.66359], "centroid": [-79.48871890418637, 43.67977929463143], "screen_name": "sonofwoodcutter", "time": 1468169828.0, "tid": 752109398189805569, "text": "Looking for a custom dining table? Come by our shop in Leslieville, Toronto to see a wide range\u2026 https://t.co/wyKauF78fp", "created_at": "Sun Jul 10 11:57:08 +0000 2016", "klabel": 119}}, {"geometry": {"type": "Point", "coordinates": [-79.34912, 43.66511]}, "type": "Feature", "id": 752111796664676352, "properties": {"loc": [-79.34912, 43.66511], "centroid": [-79.48871890418637, 43.67977929463143], "screen_name": "asnides86", "time": 1468170400.0, "tid": 752111796664676352, "text": "To be honest is a hard discipline. Not the honesty we share with others, but the honesty we\u2026 https://t.co/lmPm74nFIT", "created_at": "Sun Jul 10 12:06:40 +0000 2016", "klabel": 119}}, {"geometry": {"type": "Point", "coordinates": [-79.34056213, 43.65519391]}, "type": "Feature", "id": 752126049002151936, "properties": {"loc": [-79.34056213, 43.65519391], "centroid": [-79.48871890418637, 43.67977929463143], "screen_name": "Ron_DARK_Burke", "time": 1468173798.0, "tid": 752126049002151936, "text": "\u30fb\u30fb\u30fb\nRise up! breakingdawnca #toronto #canada The Breakfast  Party. @District28TO #dawnwithus @\u2026 https://t.co/omUQdyFKvq", "created_at": "Sun Jul 10 13:03:18 +0000 2016", "klabel": 119}}, {"geometry": {"type": "Point", "coordinates": [-79.33976, 43.66814]}, "type": "Feature", "id": 752145412128174080, "properties": {"loc": [-79.33976, 43.66814], "centroid": [-79.48871890418637, 43.67977929463143], "screen_name": "MapleLeafTavern", "time": 1468178415.0, "tid": 752145412128174080, "text": "Buttermilk Waffles and Grilled Bacon #tavern #leslieville #gerrardsteast #brunch @ Maple Leaf\u2026 https://t.co/g8OXhPnAzL", "created_at": "Sun Jul 10 14:20:15 +0000 2016", "klabel": 119}}, {"geometry": {"type": "Point", "coordinates": [-79.34505677, 43.66694874]}, "type": "Feature", "id": 752175636723142656, "properties": {"loc": [-79.34505677, 43.66694874], "centroid": [-79.48871890418637, 43.67977929463143], "screen_name": "DanielJosef", "time": 1468185621.0, "tid": 752175636723142656, "text": "I'm at Saturday Dinette in Toronto, Ontario https://t.co/JjeIi33C4S", "created_at": "Sun Jul 10 16:20:21 +0000 2016", "klabel": 119}}, {"geometry": {"type": "Point", "coordinates": [-79.34739, 43.65967]}, "type": "Feature", "id": 752213362273050628, "properties": {"loc": [-79.34739, 43.65967], "centroid": [-79.48871890418637, 43.67977929463143], "screen_name": "EvitaDzilna", "time": 1468194615.0, "tid": 752213362273050628, "text": "sweetjesus perfection \n\n#sweetjesus #icecream #Sunday #lui7 #beachDay #coolDown @ Sweet Jesus\u2026 https://t.co/kRpejiMcSX", "created_at": "Sun Jul 10 18:50:15 +0000 2016", "klabel": 119}}, {"geometry": {"type": "Point", "coordinates": [-79.3478758, 43.6590669]}, "type": "Feature", "id": 752244244677402624, "properties": {"loc": [-79.3478758, 43.6590669], "centroid": [-79.48871890418637, 43.67977929463143], "screen_name": "tmj_gta_retail", "time": 1468201978.0, "tid": 752244244677402624, "text": "Can you recommend anyone for this #job? Wine Merchant - https://t.co/PP0QgwmHDm #Retail #Toronto, ON #Hiring #CareerArc", "created_at": "Sun Jul 10 20:52:58 +0000 2016", "klabel": 119}}, {"geometry": {"type": "Point", "coordinates": [-79.34327, 43.66781]}, "type": "Feature", "id": 752258176519643138, "properties": {"loc": [-79.34327, 43.66781], "centroid": [-79.48871890418637, 43.67977929463143], "screen_name": "RealJerkToronto", "time": 1468205300.0, "tid": 752258176519643138, "text": "#congrats Portugal!!! #soccar #game #finals #beer #bar #the6ix #therealjerk @ The Real Jerk\u2026 https://t.co/puvLZ3cGpp", "created_at": "Sun Jul 10 21:48:20 +0000 2016", "klabel": 119}}, {"geometry": {"type": "Point", "coordinates": [-79.34121, 43.66317]}, "type": "Feature", "id": 752300650277531648, "properties": {"loc": [-79.34121, 43.66317], "centroid": [-79.48871890418637, 43.67977929463143], "screen_name": "PaulHillierdesu", "time": 1468215426.0, "tid": 752300650277531648, "text": "Behind the Scenes \nShooting the EDI cosplay by blackwatercosplay\nPhotograph by @tarsipix\nLatex\u2026 https://t.co/Uq64xsjQzF", "created_at": "Mon Jul 11 00:37:06 +0000 2016", "klabel": 119}}, {"geometry": {"type": "Point", "coordinates": [-79.34055925, 43.66238783]}, "type": "Feature", "id": 752472641496166400, "properties": {"loc": [-79.34055925, 43.66238783], "centroid": [-79.48871890418637, 43.67977929463143], "screen_name": "BuddingNut", "time": 1468256432.0, "tid": 752472641496166400, "text": "Fuelling up with a blueberry kefir Gut Busters Smoothie Bowl before my demo today @naturescanada\u2026 https://t.co/JAVFo5QK0N", "created_at": "Mon Jul 11 12:00:32 +0000 2016", "klabel": 119}}, {"geometry": {"type": "Point", "coordinates": [-79.3438669, 43.6703417]}, "type": "Feature", "id": 752509511307522048, "properties": {"loc": [-79.3438669, 43.6703417], "centroid": [-79.48871890418637, 43.67977929463143], "screen_name": "tpscalls", "time": 1468265223.0, "tid": 752509511307522048, "text": "Break &amp; Enter | Ln E Logan N Riverdale &amp; Carlaw Ave [55 Div.] 07/11 10:23 #Toronto", "created_at": "Mon Jul 11 14:27:03 +0000 2016", "klabel": 119}}, {"geometry": {"type": "Point", "coordinates": [-79.34627, 43.65985]}, "type": "Feature", "id": 752529949593047040, "properties": {"loc": [-79.34627, 43.65985], "centroid": [-79.48871890418637, 43.67977929463143], "screen_name": "KellyFurgalToye", "time": 1468270095.0, "tid": 752529949593047040, "text": "New review for Lady Midnight is up guys! Did you love this book like I did?\n\nI had such a\u2026 https://t.co/geUvrEmcNf", "created_at": "Mon Jul 11 15:48:15 +0000 2016", "klabel": 119}}, {"geometry": {"type": "Point", "coordinates": [-79.3492508, 43.6587906]}, "type": "Feature", "id": 752553194765574144, "properties": {"loc": [-79.3492508, 43.6587906], "centroid": [-79.48871890418637, 43.67977929463143], "screen_name": "dmcjeff", "time": 1468275638.0, "tid": 752553194765574144, "text": "One of my pickups today! #Vegan @ Pulp Kitchen Juicebar &amp; Healthy Eatery https://t.co/o2Q9BWby1Q", "created_at": "Mon Jul 11 17:20:38 +0000 2016", "klabel": 119}}, {"geometry": {"type": "Point", "coordinates": [-79.3351, 43.6455]}, "type": "Feature", "id": 752587187779231744, "properties": {"loc": [-79.3351, 43.6455], "centroid": [-79.48871890418637, 43.67977929463143], "screen_name": "adamhuggins", "time": 1468283742.0, "tid": 752587187779231744, "text": "Image by @adamhuggins #onassignment for @nytimesphoto in #Toronto, #Canada\n\nContinuing the story\u2026 https://t.co/qnsKbB0Wwe", "created_at": "Mon Jul 11 19:35:42 +0000 2016", "klabel": 119}}, {"geometry": {"type": "Point", "coordinates": [-79.34224, 43.66573]}, "type": "Feature", "id": 752587423507443713, "properties": {"loc": [-79.34224, 43.66573], "centroid": [-79.48871890418637, 43.67977929463143], "screen_name": "TomFidgen", "time": 1468283798.0, "tid": 752587423507443713, "text": "Monday afternoon at the Unplugged Woodshop. Carolyn is sawing the corners off of this old\u2026 https://t.co/U9YZLpXK8b", "created_at": "Mon Jul 11 19:36:38 +0000 2016", "klabel": 119}}, {"geometry": {"type": "Point", "coordinates": [-79.34918, 43.65587]}, "type": "Feature", "id": 752609823087292416, "properties": {"loc": [-79.34918, 43.65587], "centroid": [-79.48871890418637, 43.67977929463143], "screen_name": "2wheeladv", "time": 1468289139.0, "tid": 752609823087292416, "text": "Checking out Bmw Toronto. #canada #makelifearide #adventure #eurocyclesoftampabay #advaddicts\u2026 https://t.co/17HApMITZd", "created_at": "Mon Jul 11 21:05:39 +0000 2016", "klabel": 119}}, {"geometry": {"type": "Point", "coordinates": [-79.34059556, 43.65515656]}, "type": "Feature", "id": 752629715870056448, "properties": {"loc": [-79.34059556, 43.65515656], "centroid": [-79.48871890418637, 43.67977929463143], "screen_name": "AshleyMckenzieB", "time": 1468293882.0, "tid": 752629715870056448, "text": "also excited to curate this crazy line up women artists for July 24, 6PM\u2026 https://t.co/q2alW6j9Tg", "created_at": "Mon Jul 11 22:24:42 +0000 2016", "klabel": 119}}, {"geometry": {"type": "Point", "coordinates": [-79.34739, 43.65967]}, "type": "Feature", "id": 752650173742886912, "properties": {"loc": [-79.34739, 43.65967], "centroid": [-79.48871890418637, 43.67977929463143], "screen_name": "Ismail_Osman", "time": 1468298759.0, "tid": 752650173742886912, "text": "\ud83d\udd25\ud83d\udd25\ud83d\udd25 #sweetjesus @ Sweet Jesus Eastside https://t.co/FU1j3VkOxL", "created_at": "Mon Jul 11 23:45:59 +0000 2016", "klabel": 119}}, {"geometry": {"type": "Point", "coordinates": [-79.3479, 43.65904]}, "type": "Feature", "id": 752677736498495488, "properties": {"loc": [-79.3479, 43.65904], "centroid": [-79.48871890418637, 43.67977929463143], "screen_name": "YARDCOREshows", "time": 1468305331.0, "tid": 752677736498495488, "text": "#boldaslove #rocknroll #riversideto #eastsidetilwedie #yardcore #friday #tdot #toronto #6ix @\u2026 https://t.co/S6b6POlQnp", "created_at": "Tue Jul 12 01:35:31 +0000 2016", "klabel": 119}}, {"geometry": {"type": "Point", "coordinates": [-79.345434, 43.65987]}, "type": "Feature", "id": 752702787864133632, "properties": {"loc": [-79.345434, 43.65987], "centroid": [-79.48871890418637, 43.67977929463143], "screen_name": "tpscalls", "time": 1468311303.0, "tid": 752702787864133632, "text": "Disorderlies | Mc Gee St &amp; Queen St E [55 Div.] 07/11 23:09 #Riverdale #Toronto", "created_at": "Tue Jul 12 03:15:03 +0000 2016", "klabel": 119}}, {"geometry": {"type": "Point", "coordinates": [-79.34510105, 43.6590421]}, "type": "Feature", "id": 752834423981219841, "properties": {"loc": [-79.34510105, 43.6590421], "centroid": [-79.48871890418637, 43.67977929463143], "screen_name": "ChiJunky", "time": 1468342688.0, "tid": 752834423981219841, "text": "A wall of legs. The beauty of small classes is being able to have one on one instruction to help\u2026 https://t.co/tnKgBBDNxM", "created_at": "Tue Jul 12 11:58:08 +0000 2016", "klabel": 119}}, {"geometry": {"type": "Point", "coordinates": [-79.3438669, 43.6703417]}, "type": "Feature", "id": 752863846805757956, "properties": {"loc": [-79.3438669, 43.6703417], "centroid": [-79.48871890418637, 43.67977929463143], "screen_name": "tpscalls", "time": 1468349703.0, "tid": 752863846805757956, "text": "Holding One With Trouble | Verral Ave &amp; Carlaw Ave [55 Div.] 07/12 09:49 #Toronto", "created_at": "Tue Jul 12 13:55:03 +0000 2016", "klabel": 119}}, {"geometry": {"type": "Point", "coordinates": [-79.34662613, 43.67101547]}, "type": "Feature", "id": 752865573034455040, "properties": {"loc": [-79.34662613, 43.67101547], "centroid": [-79.48871890418637, 43.67977929463143], "screen_name": "savageuponavon", "time": 1468350114.0, "tid": 752865573034455040, "text": "@mokonahapuuuuuu thanks for saying so!", "created_at": "Tue Jul 12 14:01:54 +0000 2016", "klabel": 119}}, {"geometry": {"type": "Point", "coordinates": [-79.34224, 43.66573]}, "type": "Feature", "id": 752892673883709441, "properties": {"loc": [-79.34224, 43.66573], "centroid": [-79.48871890418637, 43.67977929463143], "screen_name": "micheldrums88", "time": 1468356576.0, "tid": 752892673883709441, "text": "Work Work Work :)\nLearning with team.\n#rehearsal #session #recording #apululu #aguja #learning\u2026 https://t.co/6yagq5vVRq", "created_at": "Tue Jul 12 15:49:36 +0000 2016", "klabel": 119}}, {"geometry": {"type": "Point", "coordinates": [-79.34055925, 43.66238783]}, "type": "Feature", "id": 752899949545656320, "properties": {"loc": [-79.34055925, 43.66238783], "centroid": [-79.48871890418637, 43.67977929463143], "screen_name": "BuddingNut", "time": 1468358310.0, "tid": 752899949545656320, "text": "@cheese_boutique super pumped to be listed at this amazing store! Stay tuned for demo day!!!\u2026 https://t.co/fJJoIEFNPy", "created_at": "Tue Jul 12 16:18:30 +0000 2016", "klabel": 119}}, {"geometry": {"type": "Point", "coordinates": [-79.34685, 43.65969]}, "type": "Feature", "id": 752904042590924800, "properties": {"loc": [-79.34685, 43.65969], "centroid": [-79.48871890418637, 43.67977929463143], "screen_name": "countyriverside", "time": 1468359286.0, "tid": 752904042590924800, "text": "Sunday nights are seriously looking up! We've got live music inside and a BBQ smoking outside!\u2026 https://t.co/cP74ZKylQm", "created_at": "Tue Jul 12 16:34:46 +0000 2016", "klabel": 119}}, {"geometry": {"type": "Point", "coordinates": [-79.33976, 43.66814]}, "type": "Feature", "id": 752930573610520576, "properties": {"loc": [-79.33976, 43.66814], "centroid": [-79.48871890418637, 43.67977929463143], "screen_name": "MapleLeafTavern", "time": 1468365612.0, "tid": 752930573610520576, "text": "Pickled Eggs at the Maple Leaf Tavern. Bar Opens at 3pm Daily! #gerrardsteast #leslieville\u2026 https://t.co/wTOfpG0jb4", "created_at": "Tue Jul 12 18:20:12 +0000 2016", "klabel": 119}}, {"geometry": {"type": "Point", "coordinates": [-79.3479811, 43.65759]}, "type": "Feature", "id": 752942363643940865, "properties": {"loc": [-79.3479811, 43.65759], "centroid": [-79.48871890418637, 43.67977929463143], "screen_name": "tpscalls", "time": 1468368423.0, "tid": 752942363643940865, "text": "Disorderlies | Broadview Ave &amp; Lewis St [55 Div.] 07/12 15:01 #Riverdale #Toronto", "created_at": "Tue Jul 12 19:07:03 +0000 2016", "klabel": 119}}, {"geometry": {"type": "Point", "coordinates": [-79.34918, 43.65587]}, "type": "Feature", "id": 752953385524006912, "properties": {"loc": [-79.34918, 43.65587], "centroid": [-79.48871890418637, 43.67977929463143], "screen_name": "2wheeladv", "time": 1468371050.0, "tid": 752953385524006912, "text": "The BMW Motorrad shop of Canada is on the 4th floor over looking the city. Pretty cool.  #Canada\u2026 https://t.co/E6AwVNClX1", "created_at": "Tue Jul 12 19:50:50 +0000 2016", "klabel": 119}}, {"geometry": {"type": "Point", "coordinates": [-79.34142, 43.66054]}, "type": "Feature", "id": 752957802465943552, "properties": {"loc": [-79.34142, 43.66054], "centroid": [-79.48871890418637, 43.67977929463143], "screen_name": "JustGetFit", "time": 1468372104.0, "tid": 752957802465943552, "text": "These guys came ready to work work work work \ud83c\udfb6 through alllll the\u2026 https://t.co/FKOV2Vt79q", "created_at": "Tue Jul 12 20:08:24 +0000 2016", "klabel": 119}}, {"geometry": {"type": "Point", "coordinates": [-79.34510105, 43.6590421]}, "type": "Feature", "id": 752958227730558976, "properties": {"loc": [-79.34510105, 43.6590421], "centroid": [-79.48871890418637, 43.67977929463143], "screen_name": "ChiJunky", "time": 1468372205.0, "tid": 752958227730558976, "text": "This is how we roll...rooftop patio yoga .... YES PLEASE. Wanna do yoga but also wanna go have\u2026 https://t.co/foxTkQTo9f", "created_at": "Tue Jul 12 20:10:05 +0000 2016", "klabel": 119}}, {"geometry": {"type": "Point", "coordinates": [-79.3424768, 43.6605212]}, "type": "Feature", "id": 752993455459209216, "properties": {"loc": [-79.3424768, 43.6605212], "centroid": [-79.48871890418637, 43.67977929463143], "screen_name": "tofire", "time": 1468380604.0, "tid": 752993455459209216, "text": "Medical (Unconscious) - Logan Avenue @ Queen St East, Toronto (2 Trucks)", "created_at": "Tue Jul 12 22:30:04 +0000 2016", "klabel": 119}}, {"geometry": {"type": "Point", "coordinates": [-79.34739, 43.65967]}, "type": "Feature", "id": 753014327829987328, "properties": {"loc": [-79.34739, 43.65967], "centroid": [-79.48871890418637, 43.67977929463143], "screen_name": "MetroWineSake", "time": 1468385580.0, "tid": 753014327829987328, "text": "#SweetJesus is right - literally the size of my head \ud83c\udf66\ud83d\udc69\ud83c\udffb \n\ud83d\udcf7: @michaelatkisake @ Sweet Jesus\u2026 https://t.co/J81ggdy7oS", "created_at": "Tue Jul 12 23:53:00 +0000 2016", "klabel": 119}}, {"geometry": {"type": "Point", "coordinates": [-79.34638241, 43.65984356]}, "type": "Feature", "id": 753018191543201792, "properties": {"loc": [-79.34638241, 43.65984356], "centroid": [-79.48871890418637, 43.67977929463143], "screen_name": "dantran88", "time": 1468386501.0, "tid": 753018191543201792, "text": "I'm at @TabuleToronto in Toronto, Ontario https://t.co/9rzpQoda38", "created_at": "Wed Jul 13 00:08:21 +0000 2016", "klabel": 119}}, {"geometry": {"type": "Point", "coordinates": [-79.3464487, 43.6702252]}, "type": "Feature", "id": 753026671763128320, "properties": {"loc": [-79.3464487, 43.6702252], "centroid": [-79.48871890418637, 43.67977929463143], "screen_name": "tpscalls", "time": 1468388523.0, "tid": 753026671763128320, "text": "Fail To Remain Property Damage Collision | Ln E Howland Rd N Simpson &amp; Logan Ave [HP] 07/12 20:39 #Toronto", "created_at": "Wed Jul 13 00:42:03 +0000 2016", "klabel": 119}}, {"geometry": {"type": "Point", "coordinates": [-79.33705, 43.65589]}, "type": "Feature", "id": 753040204001189888, "properties": {"loc": [-79.33705, 43.65589], "centroid": [-79.48871890418637, 43.67977929463143], "screen_name": "_Jumpman_Jam_33", "time": 1468391750.0, "tid": 753040204001189888, "text": "Grade 2 Hamstring Tear - Meh joerehab me \n#DocSaidGiveIt8Weeks #ThatsWayTooLong #CutIt\u2026 https://t.co/Etfl4L8qsu", "created_at": "Wed Jul 13 01:35:50 +0000 2016", "klabel": 119}}, {"geometry": {"type": "Point", "coordinates": [-79.33976, 43.66814]}, "type": "Feature", "id": 753049280282292224, "properties": {"loc": [-79.33976, 43.66814], "centroid": [-79.48871890418637, 43.67977929463143], "screen_name": "Edwards1290", "time": 1468393914.0, "tid": 753049280282292224, "text": "Just posted a photo @ Maple Leaf Tavern https://t.co/DnBxd5F3o5", "created_at": "Wed Jul 13 02:11:54 +0000 2016", "klabel": 119}}, {"geometry": {"type": "Point", "coordinates": [-79.3415963, 43.6648269]}, "type": "Feature", "id": 753097640527749120, "properties": {"loc": [-79.3415963, 43.6648269], "centroid": [-79.48871890418637, 43.67977929463143], "screen_name": "tpscalls", "time": 1468405444.0, "tid": 753097640527749120, "text": "Personal Injury Collision | Carlaw Ave &amp; Dundas St E [HP] 07/13 01:20 #Leslieville #Toronto", "created_at": "Wed Jul 13 05:24:04 +0000 2016", "klabel": 119}}, {"geometry": {"type": "Point", "coordinates": [-79.34139, 43.66359]}, "type": "Feature", "id": 753184737573933056, "properties": {"loc": [-79.34139, 43.66359], "centroid": [-79.48871890418637, 43.67977929463143], "screen_name": "sonofwoodcutter", "time": 1468426209.0, "tid": 753184737573933056, "text": "Our most simple and most affordable design, The Knightsbridge. These are hand crafted from\u2026 https://t.co/m6IQ2JDo17", "created_at": "Wed Jul 13 11:10:09 +0000 2016", "klabel": 119}}, {"geometry": {"type": "Point", "coordinates": [-79.34685, 43.65969]}, "type": "Feature", "id": 753267174849077248, "properties": {"loc": [-79.34685, 43.65969], "centroid": [-79.48871890418637, 43.67977929463143], "screen_name": "countyriverside", "time": 1468445864.0, "tid": 753267174849077248, "text": "Two staples for a scorcher like today.... Sunglasses and and ice cold @shinyapplecider! Join us\u2026 https://t.co/8spbwdzAMs", "created_at": "Wed Jul 13 16:37:44 +0000 2016", "klabel": 119}}, {"geometry": {"type": "Point", "coordinates": [-79.34224, 43.66573]}, "type": "Feature", "id": 753271812658716672, "properties": {"loc": [-79.34224, 43.66573], "centroid": [-79.48871890418637, 43.67977929463143], "screen_name": "TomFidgen", "time": 1468446969.0, "tid": 753271812658716672, "text": "Wednesday morning at the Unplugged Woodshop. An Introduction to Hand Tools- Dominica and David\u2026 https://t.co/CmV6r3lrF3", "created_at": "Wed Jul 13 16:56:09 +0000 2016", "klabel": 119}}, {"geometry": {"type": "Point", "coordinates": [-79.33541, 43.66192]}, "type": "Feature", "id": 753288837330268160, "properties": {"loc": [-79.33541, 43.66192], "centroid": [-79.48871890418637, 43.67977929463143], "screen_name": "ProjectGalleryT", "time": 1468451028.0, "tid": 753288837330268160, "text": "Image Preview: Open Portrait Left collage, James Olley, mixed media on paper 38\u201d x 30\u201d\u2026 https://t.co/RHf6jLA5sw", "created_at": "Wed Jul 13 18:03:48 +0000 2016", "klabel": 119}}, {"geometry": {"type": "Point", "coordinates": [-79.33754656, 43.66167044]}, "type": "Feature", "id": 753291419087953920, "properties": {"loc": [-79.33754656, 43.66167044], "centroid": [-79.48871890418637, 43.67977929463143], "screen_name": "CaskMusic", "time": 1468451644.0, "tid": 753291419087953920, "text": "Used Line 6 MM-4 in great condition! This comprehensive modulation modeler is capable of\u2026 https://t.co/ytcb6h1CG5", "created_at": "Wed Jul 13 18:14:04 +0000 2016", "klabel": 119}}, {"geometry": {"type": "Point", "coordinates": [-79.3373984, 43.6683974]}, "type": "Feature", "id": 753296195397779456, "properties": {"loc": [-79.3373984, 43.6683974], "centroid": [-79.48871890418637, 43.67977929463143], "screen_name": "tpscalls", "time": 1468452783.0, "tid": 753296195397779456, "text": "Arrest | Pape Ave &amp; Marjory Ave [55 Div.] 07/13 14:27 #Leslieville #Toronto", "created_at": "Wed Jul 13 18:33:03 +0000 2016", "klabel": 119}}, {"geometry": {"type": "Point", "coordinates": [-79.3418, 43.66442]}, "type": "Feature", "id": 753318228827471872, "properties": {"loc": [-79.3418, 43.66442], "centroid": [-79.48871890418637, 43.67977929463143], "screen_name": "RyanBlacq", "time": 1468458036.0, "tid": 753318228827471872, "text": "I'm not entirely sure where you came from @lostcraftbeer, but you\u2026 https://t.co/GuwPcpOYj3", "created_at": "Wed Jul 13 20:00:36 +0000 2016", "klabel": 119}}, {"geometry": {"type": "Point", "coordinates": [-79.342756, 43.667619]}, "type": "Feature", "id": 753329428906840065, "properties": {"loc": [-79.342756, 43.667619], "centroid": [-79.48871890418637, 43.67977929463143], "screen_name": "tofiref", "time": 1468460706.0, "tid": 753329428906840065, "text": "Fire (Commercial/industrial) - Gerrard St East @ Carlaw Avenue, Toronto (7 Trucks)", "created_at": "Wed Jul 13 20:45:06 +0000 2016", "klabel": 119}}, {"geometry": {"type": "Point", "coordinates": [-79.342756, 43.667619]}, "type": "Feature", "id": 753329427740753921, "properties": {"loc": [-79.342756, 43.667619], "centroid": [-79.48871890418637, 43.67977929463143], "screen_name": "tofireS", "time": 1468460706.0, "tid": 753329427740753921, "text": "Fire (Commercial/industrial) - Gerrard St East @ Carlaw Avenue, Toronto (7 Trucks)", "created_at": "Wed Jul 13 20:45:06 +0000 2016", "klabel": 119}}, {"geometry": {"type": "Point", "coordinates": [-79.3373984, 43.6683974]}, "type": "Feature", "id": 753336208869187584, "properties": {"loc": [-79.3373984, 43.6683974], "centroid": [-79.48871890418637, 43.67977929463143], "screen_name": "tpscalls", "time": 1468462323.0, "tid": 753336208869187584, "text": "Arrest | Pape Ave &amp; Marjory Ave [55 Div.] 07/13 17:07 #Leslieville #Toronto", "created_at": "Wed Jul 13 21:12:03 +0000 2016", "klabel": 119}}, {"geometry": {"type": "Point", "coordinates": [-79.3399963, 43.6613312]}, "type": "Feature", "id": 753351353641172993, "properties": {"loc": [-79.3399963, 43.6613312], "centroid": [-79.48871890418637, 43.67977929463143], "screen_name": "djtomt1200", "time": 1468465933.0, "tid": 753351353641172993, "text": "On a mission trying find Chic &amp; Duran Duran in the T Dot...got a little sidetracked. Great food\u2026 https://t.co/nbBN34QXjF", "created_at": "Wed Jul 13 22:12:13 +0000 2016", "klabel": 119}}, {"geometry": {"type": "Point", "coordinates": [-79.348053, 43.6590118]}, "type": "Feature", "id": 753356516007313408, "properties": {"loc": [-79.348053, 43.6590118], "centroid": [-79.48871890418637, 43.67977929463143], "screen_name": "illbeseeingyou_", "time": 1468467164.0, "tid": 753356516007313408, "text": "Guess what?! It's wine Wednesday and we have white, red and rose ~ $6 glasses and $25 bottles ~\u2026 https://t.co/tz6Xizsfg1", "created_at": "Wed Jul 13 22:32:44 +0000 2016", "klabel": 119}}, {"geometry": {"type": "Point", "coordinates": [-79.33743717, 43.65611159]}, "type": "Feature", "id": 753387280035827712, "properties": {"loc": [-79.33743717, 43.65611159], "centroid": [-79.48871890418637, 43.67977929463143], "screen_name": "JamieNudelman", "time": 1468474499.0, "tid": 753387280035827712, "text": "Deadlifts from Fortis Fitness earlier with emprawrting. I'm feeling pretty confident with\u2026 https://t.co/7w0A7lmP9C", "created_at": "Thu Jul 14 00:34:59 +0000 2016", "klabel": 119}}, {"geometry": {"type": "Point", "coordinates": [-79.34737355, 43.65948553]}, "type": "Feature", "id": 753389970073747456, "properties": {"loc": [-79.34737355, 43.65948553], "centroid": [-79.48871890418637, 43.67977929463143], "screen_name": "dantran88", "time": 1468475140.0, "tid": 753389970073747456, "text": "I'm at @La_Carnita in Toronto, Ontario https://t.co/dwYL1CoLdn", "created_at": "Thu Jul 14 00:45:40 +0000 2016", "klabel": 119}}, {"geometry": {"type": "Point", "coordinates": [-79.34121, 43.66317]}, "type": "Feature", "id": 753391462209974275, "properties": {"loc": [-79.34121, 43.66317], "centroid": [-79.48871890418637, 43.67977929463143], "screen_name": "PaulHillierdesu", "time": 1468475496.0, "tid": 753391462209974275, "text": "5/5 last in the EDI cosplay project. Big thanks to all those involved. We even got featured in\u2026 https://t.co/aI2X4emEkS", "created_at": "Thu Jul 14 00:51:36 +0000 2016", "klabel": 119}}, {"geometry": {"type": "Point", "coordinates": [-79.34224, 43.66573]}, "type": "Feature", "id": 753401299643883521, "properties": {"loc": [-79.34224, 43.66573], "centroid": [-79.48871890418637, 43.67977929463143], "screen_name": "TomFidgen", "time": 1468477842.0, "tid": 753401299643883521, "text": "Wednesday night at the Unplugged Woodshop. Another great session of box making after another 12\u2026 https://t.co/rpqOsIuiJG", "created_at": "Thu Jul 14 01:30:42 +0000 2016", "klabel": 119}}, {"geometry": {"type": "Point", "coordinates": [-79.347356, 43.65947237]}, "type": "Feature", "id": 753404422928142336, "properties": {"loc": [-79.347356, 43.65947237], "centroid": [-79.48871890418637, 43.67977929463143], "screen_name": "dantran88", "time": 1468478586.0, "tid": 753404422928142336, "text": "I'm at @SweetJesus4life in Toronto https://t.co/Wz1uiyw4Py", "created_at": "Thu Jul 14 01:43:06 +0000 2016", "klabel": 119}}, {"geometry": {"type": "Point", "coordinates": [-79.34538, 43.66688]}, "type": "Feature", "id": 753409177809063936, "properties": {"loc": [-79.34538, 43.66688], "centroid": [-79.48871890418637, 43.67977929463143], "screen_name": "thelustlistt", "time": 1468479720.0, "tid": 753409177809063936, "text": "Coffee 'date' for 3 \u2615\ufe0f @ Hailed Coffee https://t.co/oVdFigF2oA", "created_at": "Thu Jul 14 02:02:00 +0000 2016", "klabel": 119}}, {"geometry": {"type": "Point", "coordinates": [-79.33743717, 43.65611159]}, "type": "Feature", "id": 753625365969375233, "properties": {"loc": [-79.33743717, 43.65611159], "centroid": [-79.48871890418637, 43.67977929463143], "screen_name": "JamieNudelman", "time": 1468531263.0, "tid": 753625365969375233, "text": "Some ugly 90lb chin ups. Using a wider grip in comparison to the bars I use at anytime fitness.\u2026 https://t.co/pyC2vmVij0", "created_at": "Thu Jul 14 16:21:03 +0000 2016", "klabel": 119}}, {"geometry": {"type": "Point", "coordinates": [-79.34934, 43.65918]}, "type": "Feature", "id": 753632000670433280, "properties": {"loc": [-79.34934, 43.65918], "centroid": [-79.48871890418637, 43.67977929463143], "screen_name": "Empirebybullet", "time": 1468532845.0, "tid": 753632000670433280, "text": "#madeincanada #siddickens #memory #blocks #hand #finished #disconnected pieces in stock #signed\u2026 https://t.co/ZNt9efsonE", "created_at": "Thu Jul 14 16:47:25 +0000 2016", "klabel": 119}}, {"geometry": {"type": "Point", "coordinates": [-79.34086452, 43.66091423]}, "type": "Feature", "id": 753647597102006272, "properties": {"loc": [-79.34086452, 43.66091423], "centroid": [-79.48871890418637, 43.67977929463143], "screen_name": "LoRichTimes", "time": 1468536563.0, "tid": 753647597102006272, "text": "Fish tacos, chips, chowdah from Reliable Fish and Chips. @ Reliable\u2026 https://t.co/oKW5YFFLey", "created_at": "Thu Jul 14 17:49:23 +0000 2016", "klabel": 119}}, {"geometry": {"type": "Point", "coordinates": [-79.3423626, 43.660742]}, "type": "Feature", "id": 753650360066019328, "properties": {"loc": [-79.3423626, 43.660742], "centroid": [-79.48871890418637, 43.67977929463143], "screen_name": "tmj_gta_hrta", "time": 1468537222.0, "tid": 753650360066019328, "text": "Want to work in 908 QUEEN ST E, #TORONTO, ON? View our latest opening: https://t.co/pFnQwwgMe4 #Job #Hospitality #Veterans #Jobs #Hiring", "created_at": "Thu Jul 14 18:00:22 +0000 2016", "klabel": 119}}, {"geometry": {"type": "Point", "coordinates": [-79.3367615, 43.6616211]}, "type": "Feature", "id": 753651852982517762, "properties": {"loc": [-79.3367615, 43.6616211], "centroid": [-79.48871890418637, 43.67977929463143], "screen_name": "mariskameijers", "time": 1468537578.0, "tid": 753651852982517762, "text": "Great to finally meet with stylish Nina of blackrooster! #interiordesign #retail #interior\u2026 https://t.co/WFMiyOt4Rm", "created_at": "Thu Jul 14 18:06:18 +0000 2016", "klabel": 119}}, {"geometry": {"type": "Point", "coordinates": [-79.34918, 43.65587]}, "type": "Feature", "id": 753666482530357248, "properties": {"loc": [-79.34918, 43.65587], "centroid": [-79.48871890418637, 43.67977929463143], "screen_name": "SabAlves", "time": 1468541066.0, "tid": 753666482530357248, "text": "When work does potluck. Too much yummy food for my tummy. I have a\u2026 https://t.co/0OfrA4qMk3", "created_at": "Thu Jul 14 19:04:26 +0000 2016", "klabel": 119}}, {"geometry": {"type": "Point", "coordinates": [-79.3447521, 43.659531]}, "type": "Feature", "id": 753701870393229312, "properties": {"loc": [-79.3447521, 43.659531], "centroid": [-79.48871890418637, 43.67977929463143], "screen_name": "tpscalls", "time": 1468549503.0, "tid": 753701870393229312, "text": "See Ambulance | Eastern Ave &amp; Graham Pl [55 Div.] 07/14 17:18 #Riverside #Toronto", "created_at": "Thu Jul 14 21:25:03 +0000 2016", "klabel": 119}}, {"geometry": {"type": "Point", "coordinates": [-79.3462145, 43.6590677]}, "type": "Feature", "id": 753725023790202880, "properties": {"loc": [-79.3462145, 43.6590677], "centroid": [-79.48871890418637, 43.67977929463143], "screen_name": "tpscalls", "time": 1468555023.0, "tid": 753725023790202880, "text": "Theft Just Occurred | Woodgreen Pl &amp; Strange St [55 Div.] 07/14 18:52 #Riverside #Toronto", "created_at": "Thu Jul 14 22:57:03 +0000 2016", "klabel": 119}}, {"geometry": {"type": "Point", "coordinates": [-79.34224, 43.66573]}, "type": "Feature", "id": 753738778271973376, "properties": {"loc": [-79.34224, 43.66573], "centroid": [-79.48871890418637, 43.67977929463143], "screen_name": "jstarrMakes", "time": 1468558303.0, "tid": 753738778271973376, "text": "Thursday Night class sans @TomFidgen. Ian was rather happy to have the cross pin hole drilled.\u2026 https://t.co/SLtM6CuqNC", "created_at": "Thu Jul 14 23:51:43 +0000 2016", "klabel": 119}}, {"geometry": {"type": "Point", "coordinates": [-79.3400698, 43.6610592]}, "type": "Feature", "id": 753749433016254465, "properties": {"loc": [-79.3400698, 43.6610592], "centroid": [-79.48871890418637, 43.67977929463143], "screen_name": "tpscalls", "time": 1468560843.0, "tid": 753749433016254465, "text": "Dispute | Carlaw Ave &amp; Queen St E [55 Div.] 07/14 20:29 #Leslieville #Toronto", "created_at": "Fri Jul 15 00:34:03 +0000 2016", "klabel": 119}}, {"geometry": {"type": "Point", "coordinates": [-79.34224, 43.66573]}, "type": "Feature", "id": 753781330417188864, "properties": {"loc": [-79.34224, 43.66573], "centroid": [-79.48871890418637, 43.67977929463143], "screen_name": "samguaiana", "time": 1468568448.0, "tid": 753781330417188864, "text": "Never forget where you came from #tbt @ Sam Guaiana - Room 21 Sound https://t.co/BJDVpZiHFX", "created_at": "Fri Jul 15 02:40:48 +0000 2016", "klabel": 119}}, {"geometry": {"type": "Point", "coordinates": [-79.3479, 43.65904]}, "type": "Feature", "id": 753989408945238016, "properties": {"loc": [-79.3479, 43.65904], "centroid": [-79.48871890418637, 43.67977929463143], "screen_name": "HiloToronto", "time": 1468618058.0, "tid": 753989408945238016, "text": "Tonight! 9pm DJ Bradshaw #nocover @ Hi-Lo Bar https://t.co/6ypQ0OLeZn", "created_at": "Fri Jul 15 16:27:38 +0000 2016", "klabel": 119}}, {"geometry": {"type": "Point", "coordinates": [-79.3383477, 43.6692568]}, "type": "Feature", "id": 753992816322158592, "properties": {"loc": [-79.3383477, 43.6692568], "centroid": [-79.48871890418637, 43.67977929463143], "screen_name": "tmj_gta_retail", "time": 1468618870.0, "tid": 753992816322158592, "text": "Join the TJX Canada team! See our latest #job opening here: https://t.co/VB6OOXlmUA #Retail #Toronto, ON #Hiring #CareerArc", "created_at": "Fri Jul 15 16:41:10 +0000 2016", "klabel": 119}}, {"geometry": {"type": "Point", "coordinates": [-79.33976, 43.66814]}, "type": "Feature", "id": 753993133323591681, "properties": {"loc": [-79.33976, 43.66814], "centroid": [-79.48871890418637, 43.67977929463143], "screen_name": "MapleLeafTavern", "time": 1468618946.0, "tid": 753993133323591681, "text": "Pickles and Pickled Pepperoni @ Maple Leaf Tavern https://t.co/uri3Flr4e8", "created_at": "Fri Jul 15 16:42:26 +0000 2016", "klabel": 119}}, {"geometry": {"type": "Point", "coordinates": [-79.3383477, 43.6692568]}, "type": "Feature", "id": 753994042908692480, "properties": {"loc": [-79.3383477, 43.6692568], "centroid": [-79.48871890418637, 43.67977929463143], "screen_name": "tmj_gta_cstsrv", "time": 1468619163.0, "tid": 753994042908692480, "text": "Want to work at CIBC? We're #hiring in #Toronto, Ontario! Click for details: https://t.co/olufqzl9iy #Job #cibc #cibcjobs #cibccareers #Jobs", "created_at": "Fri Jul 15 16:46:03 +0000 2016", "klabel": 119}}, {"geometry": {"type": "Point", "coordinates": [-79.33771, 43.65614]}, "type": "Feature", "id": 754005551848259584, "properties": {"loc": [-79.33771, 43.65614], "centroid": [-79.48871890418637, 43.67977929463143], "screen_name": "taranoellephoto", "time": 1468621906.0, "tid": 754005551848259584, "text": "Boys + Bands I like to shoot  #Repost erikjohnpotvin @convoband \u30fb\u30fb\u30fb\nJULY 19TH. @convoband\u2026 https://t.co/FB8gT0SZ2J", "created_at": "Fri Jul 15 17:31:46 +0000 2016", "klabel": 119}}, {"geometry": {"type": "Point", "coordinates": [-79.34685, 43.65969]}, "type": "Feature", "id": 754006003927097344, "properties": {"loc": [-79.34685, 43.65969], "centroid": [-79.48871890418637, 43.67977929463143], "screen_name": "countyriverside", "time": 1468622014.0, "tid": 754006003927097344, "text": "Grandma sheldonwalters_chef strikes again!! His peanut butter cookies with vanilla chantilly and\u2026 https://t.co/c5knXOlxyo", "created_at": "Fri Jul 15 17:33:34 +0000 2016", "klabel": 119}}, {"geometry": {"type": "Point", "coordinates": [-79.34510105, 43.6590421]}, "type": "Feature", "id": 754009413229445120, "properties": {"loc": [-79.34510105, 43.6590421], "centroid": [-79.48871890418637, 43.67977929463143], "screen_name": "ChiJunky", "time": 1468622827.0, "tid": 754009413229445120, "text": "This was lunch. I have very little time in fact it's a miracle when I have time to actually cook\u2026 https://t.co/PImDu2pfBI", "created_at": "Fri Jul 15 17:47:07 +0000 2016", "klabel": 119}}, {"geometry": {"type": "Point", "coordinates": [-79.34139, 43.66359]}, "type": "Feature", "id": 754011017504493570, "properties": {"loc": [-79.34139, 43.66359], "centroid": [-79.48871890418637, 43.67977929463143], "screen_name": "sonofwoodcutter", "time": 1468623210.0, "tid": 754011017504493570, "text": "Rough fitting this 8ft x 3.5ft table top together on a Friday arvo. Happy Friday all, wishing\u2026 https://t.co/Giex3gOFkU", "created_at": "Fri Jul 15 17:53:30 +0000 2016", "klabel": 119}}, {"geometry": {"type": "Point", "coordinates": [-79.34739, 43.65967]}, "type": "Feature", "id": 754023481251999744, "properties": {"loc": [-79.34739, 43.65967], "centroid": [-79.48871890418637, 43.67977929463143], "screen_name": "CourtneyT95", "time": 1468626181.0, "tid": 754023481251999744, "text": "cookies cookies cookies and cream \ud83c\udf6a @ Sweet Jesus Eastside https://t.co/RrCzPSGaXY", "created_at": "Fri Jul 15 18:43:01 +0000 2016", "klabel": 119}}, {"geometry": {"type": "Point", "coordinates": [-79.34086, 43.66474]}, "type": "Feature", "id": 754031946817306624, "properties": {"loc": [-79.34086, 43.66474], "centroid": [-79.48871890418637, 43.67977929463143], "screen_name": "CarlawBistro", "time": 1468628200.0, "tid": 754031946817306624, "text": "All day #brunch @ carlawbistro. Don't miss out! @ Carlaw Bistro Lounge https://t.co/E45nuUL2SY", "created_at": "Fri Jul 15 19:16:40 +0000 2016", "klabel": 119}}, {"geometry": {"type": "Point", "coordinates": [-79.34305, 43.66247]}, "type": "Feature", "id": 754038061248413696, "properties": {"loc": [-79.34305, 43.66247], "centroid": [-79.48871890418637, 43.67977929463143], "screen_name": "carmoede", "time": 1468629657.0, "tid": 754038061248413696, "text": "Al meerdere keren gediscrimineerd in dit land \u2049\ufe0f\u270a\ud83c\udfff\ud83d\udc41\ud83d\udc41 @ Your Sexy New Look https://t.co/B1D6ImNhor", "created_at": "Fri Jul 15 19:40:57 +0000 2016", "klabel": 119}}, {"geometry": {"type": "Point", "coordinates": [-79.3470686, 43.662799]}, "type": "Feature", "id": 754043623554052100, "properties": {"loc": [-79.3470686, 43.662799], "centroid": [-79.48871890418637, 43.67977929463143], "screen_name": "tpscalls", "time": 1468630983.0, "tid": 754043623554052100, "text": "Disorderlies | De Grassi St &amp; Cummings St [55 Div.] 07/15 15:58 #Riverside #Toronto", "created_at": "Fri Jul 15 20:03:03 +0000 2016", "klabel": 119}}, {"geometry": {"type": "Point", "coordinates": [-79.34178, 43.6494799]}, "type": "Feature", "id": 754058069475287044, "properties": {"loc": [-79.34178, 43.6494799], "centroid": [-79.48871890418637, 43.67977929463143], "screen_name": "jayexfalcioni", "time": 1468634428.0, "tid": 754058069475287044, "text": "on lunch, with @constance_sen \ud83d\ude4b\ud83c\udffb | #setlife #the6ix #makeupartist @ Pinewood Toronto Studios https://t.co/ObYoOp6fzq", "created_at": "Fri Jul 15 21:00:28 +0000 2016", "klabel": 119}}, {"geometry": {"type": "Point", "coordinates": [-79.3351, 43.6455]}, "type": "Feature", "id": 754067484823654401, "properties": {"loc": [-79.3351, 43.6455], "centroid": [-79.48871890418637, 43.67977929463143], "screen_name": "adamhuggins", "time": 1468636672.0, "tid": 754067484823654401, "text": "Image by @adamhuggins #onassignment for @nytimesphoto in #Toronto, #Canada\n\nContinuing the story\u2026 https://t.co/ct2V8sBa1J", "created_at": "Fri Jul 15 21:37:52 +0000 2016", "klabel": 119}}, {"geometry": {"type": "Point", "coordinates": [-79.348053, 43.6590118]}, "type": "Feature", "id": 754069258431295492, "properties": {"loc": [-79.348053, 43.6590118], "centroid": [-79.48871890418637, 43.67977929463143], "screen_name": "illbeseeingyou_", "time": 1468637095.0, "tid": 754069258431295492, "text": "Happy Friyay\ud83c\udf7b Cheers to $5 Collingwood Tallboys\ud83d\udc6f\ud83d\udc97\ud83d\ude0d\ud83d\udc83\ud83c\udffb\ud83c\udf7a@CollingwoodMick @CollingwoodBeer\u2026 https://t.co/fD66VGMAhC", "created_at": "Fri Jul 15 21:44:55 +0000 2016", "klabel": 119}}, {"geometry": {"type": "Point", "coordinates": [-79.34806, 43.65955]}, "type": "Feature", "id": 754080866662572032, "properties": {"loc": [-79.34806, 43.65955], "centroid": [-79.48871890418637, 43.67977929463143], "screen_name": "PCarmichaelArt", "time": 1468639863.0, "tid": 754080866662572032, "text": "#wip #workinprogress a return to my Bass Vibrations series with a new perspective. Oil on canvas\u2026 https://t.co/UHfjitmvgE", "created_at": "Fri Jul 15 22:31:03 +0000 2016", "klabel": 119}}, {"geometry": {"type": "Point", "coordinates": [-79.3491, 43.6592]}, "type": "Feature", "id": 754107854181785601, "properties": {"loc": [-79.3491, 43.6592], "centroid": [-79.48871890418637, 43.67977929463143], "screen_name": "st33lma8nolia", "time": 1468646297.0, "tid": 754107854181785601, "text": "#sisterwife #happybirthdayAndrew #runnersnotrunning #runforyourlife\u2026 https://t.co/tEj0cEMJYW", "created_at": "Sat Jul 16 00:18:17 +0000 2016", "klabel": 119}}, {"geometry": {"type": "Point", "coordinates": [-79.3435, 43.66053]}, "type": "Feature", "id": 754112192434216960, "properties": {"loc": [-79.3435, 43.66053], "centroid": [-79.48871890418637, 43.67977929463143], "screen_name": "Coopergirl40", "time": 1468647332.0, "tid": 754112192434216960, "text": "Welcome to the hood barrioonqueen    This tastes like another. #yummy #Leslieville @ Barrio https://t.co/fjzxNDV9Rz", "created_at": "Sat Jul 16 00:35:32 +0000 2016", "klabel": 119}}, {"geometry": {"type": "Point", "coordinates": [-79.34696842, 43.65953044]}, "type": "Feature", "id": 754121419269795840, "properties": {"loc": [-79.34696842, 43.65953044], "centroid": [-79.48871890418637, 43.67977929463143], "screen_name": "DavidGilgan", "time": 1468649531.0, "tid": 754121419269795840, "text": "La Carnita catchup with mayormaher elizabeth_maher &amp; @andrewennals . Cocktails, tacos and way\u2026 https://t.co/BkrMJeweYD", "created_at": "Sat Jul 16 01:12:11 +0000 2016", "klabel": 119}}, {"geometry": {"type": "Point", "coordinates": [-79.3373984, 43.6683974]}, "type": "Feature", "id": 754137995683434496, "properties": {"loc": [-79.3373984, 43.6683974], "centroid": [-79.48871890418637, 43.67977929463143], "screen_name": "tpscalls", "time": 1468653484.0, "tid": 754137995683434496, "text": "Arrest | Pape Ave &amp; Marjory Ave [55 Div.] 07/15 22:13 #Leslieville #Toronto", "created_at": "Sat Jul 16 02:18:04 +0000 2016", "klabel": 119}}, {"geometry": {"type": "Point", "coordinates": [-79.34739, 43.65967]}, "type": "Feature", "id": 754142678607167489, "properties": {"loc": [-79.34739, 43.65967], "centroid": [-79.48871890418637, 43.67977929463143], "screen_name": "mistermkan", "time": 1468654600.0, "tid": 754142678607167489, "text": "Cookies Cookies Cookies &amp; Cream soft serve, anyone? \ud83c\udf6a\ud83c\udf66 @ Sweet Jesus Eastside https://t.co/7oxNuQWK9X", "created_at": "Sat Jul 16 02:36:40 +0000 2016", "klabel": 119}}, {"geometry": {"type": "Point", "coordinates": [-79.349205, 43.659004]}, "type": "Feature", "id": 754154208383889408, "properties": {"loc": [-79.349205, 43.659004], "centroid": [-79.48871890418637, 43.67977929463143], "screen_name": "Type1Dayna", "time": 1468657349.0, "tid": 754154208383889408, "text": "Love this place (@ Boots n Bourbon - @bootsbourbon in Toronto, ON) https://t.co/HuYdSZ34zI", "created_at": "Sat Jul 16 03:22:29 +0000 2016", "klabel": 119}}, {"geometry": {"type": "Point", "coordinates": [-79.34905, 43.6587699]}, "type": "Feature", "id": 754155840798457857, "properties": {"loc": [-79.34905, 43.6587699], "centroid": [-79.48871890418637, 43.67977929463143], "screen_name": "Type1Dayna", "time": 1468657738.0, "tid": 754155840798457857, "text": "Ridding bills way to go Rebecca @ Boots &amp; Bourbon Saloon https://t.co/2UF4Jc7IwW", "created_at": "Sat Jul 16 03:28:58 +0000 2016", "klabel": 119}}, {"geometry": {"type": "Point", "coordinates": [-79.34905, 43.6587699]}, "type": "Feature", "id": 754156270785994752, "properties": {"loc": [-79.34905, 43.6587699], "centroid": [-79.48871890418637, 43.67977929463143], "screen_name": "Type1Dayna", "time": 1468657841.0, "tid": 754156270785994752, "text": "Just posted a video @ Boots &amp; Bourbon Saloon https://t.co/IcIq27gH7b", "created_at": "Sat Jul 16 03:30:41 +0000 2016", "klabel": 119}}, {"geometry": {"type": "Point", "coordinates": [-79.34905, 43.6587699]}, "type": "Feature", "id": 754166302961307648, "properties": {"loc": [-79.34905, 43.6587699], "centroid": [-79.48871890418637, 43.67977929463143], "screen_name": "Type1Dayna", "time": 1468660233.0, "tid": 754166302961307648, "text": "Yup I'm ready for bed #goodnight #tgif @ Boots &amp; Bourbon Saloon https://t.co/kHqme5DkXd", "created_at": "Sat Jul 16 04:10:33 +0000 2016", "klabel": 119}}, {"geometry": {"type": "Point", "coordinates": [-79.3467245, 43.6595808]}, "type": "Feature", "id": 754181031343915009, "properties": {"loc": [-79.3467245, 43.6595808], "centroid": [-79.48871890418637, 43.67977929463143], "screen_name": "tpscalls", "time": 1468663744.0, "tid": 754181031343915009, "text": "Damage In Progress | Queen St E &amp; Boulton Ave [55 Div.] 07/16 01:04 #Riverside #Toronto", "created_at": "Sat Jul 16 05:09:04 +0000 2016", "klabel": 119}}, {"geometry": {"type": "Point", "coordinates": [-79.3391982, 43.671807]}, "type": "Feature", "id": 754225816821702656, "properties": {"loc": [-79.3391982, 43.671807], "centroid": [-79.48871890418637, 43.67977929463143], "screen_name": "tpscalls", "time": 1468674422.0, "tid": 754225816821702656, "text": "Robbery | Egan Ave &amp; Kiswick St [55 Div.] 07/16 04:02 #Riverdale #Toronto", "created_at": "Sat Jul 16 08:07:02 +0000 2016", "klabel": 119}}, {"geometry": {"type": "Point", "coordinates": [-79.34139, 43.66359]}, "type": "Feature", "id": 754300288664739840, "properties": {"loc": [-79.34139, 43.66359], "centroid": [-79.48871890418637, 43.67977929463143], "screen_name": "sonofwoodcutter", "time": 1468692177.0, "tid": 754300288664739840, "text": "Yesterday we were blessed with the presence of Jesse jr_rusticdesign. He insisted on taking this\u2026 https://t.co/XjGdumEwoy", "created_at": "Sat Jul 16 13:02:57 +0000 2016", "klabel": 119}}, {"geometry": {"type": "Point", "coordinates": [-79.338425, 43.672214]}, "type": "Feature", "id": 754339574478991360, "properties": {"loc": [-79.338425, 43.672214], "centroid": [-79.48871890418637, 43.67977929463143], "screen_name": "HarkerShane", "time": 1468701544.0, "tid": 754339574478991360, "text": "Love it! #makeeverydayearthday @ Blake Street Jr PS https://t.co/MJl4jolsqg", "created_at": "Sat Jul 16 15:39:04 +0000 2016", "klabel": 119}}, {"geometry": {"type": "Point", "coordinates": [-79.335357, 43.6634903]}, "type": "Feature", "id": 754340462220062721, "properties": {"loc": [-79.335357, 43.6634903], "centroid": [-79.48871890418637, 43.67977929463143], "screen_name": "mathewgasenzer", "time": 1468701755.0, "tid": 754340462220062721, "text": "#CurbAppeal @ Bertmount Avenue, Toronto,  Ontario https://t.co/TosHPkgQtR", "created_at": "Sat Jul 16 15:42:35 +0000 2016", "klabel": 119}}, {"geometry": {"type": "Point", "coordinates": [-79.3373984, 43.6683974]}, "type": "Feature", "id": 754362219190685696, "properties": {"loc": [-79.3373984, 43.6683974], "centroid": [-79.48871890418637, 43.67977929463143], "screen_name": "tpscalls", "time": 1468706943.0, "tid": 754362219190685696, "text": "Holding One | Pape Ave &amp; Marjory Ave [55 Div.] 07/16 13:04 #Leslieville #Toronto", "created_at": "Sat Jul 16 17:09:03 +0000 2016", "klabel": 119}}, {"geometry": {"type": "Point", "coordinates": [-79.3473065, 43.65948369]}, "type": "Feature", "id": 754385641425801216, "properties": {"loc": [-79.3473065, 43.65948369], "centroid": [-79.48871890418637, 43.67977929463143], "screen_name": "hannerJ", "time": 1468712527.0, "tid": 754385641425801216, "text": "Dress shopping (@ Sash And Bustle in Toronto, Ontario) https://t.co/caQrWYO2tN", "created_at": "Sat Jul 16 18:42:07 +0000 2016", "klabel": 119}}, {"geometry": {"type": "Point", "coordinates": [-79.34685, 43.65969]}, "type": "Feature", "id": 754429406291062784, "properties": {"loc": [-79.34685, 43.65969], "centroid": [-79.48871890418637, 43.67977929463143], "screen_name": "countyriverside", "time": 1468722961.0, "tid": 754429406291062784, "text": "Pineapple is the star of zak.higgins416 featured cocktail tonight! White rum, apricot liqueur,\u2026 https://t.co/0c20z9QsKu", "created_at": "Sat Jul 16 21:36:01 +0000 2016", "klabel": 119}}, {"geometry": {"type": "Point", "coordinates": [-79.3385818, 43.66133907]}, "type": "Feature", "id": 754430300940296192, "properties": {"loc": [-79.3385818, 43.66133907], "centroid": [-79.48871890418637, 43.67977929463143], "screen_name": "click2KAREN", "time": 1468723175.0, "tid": 754430300940296192, "text": "There is always time for tea. Especially on a Saturday. @ Te Aro https://t.co/pXx4CYjsaX", "created_at": "Sat Jul 16 21:39:35 +0000 2016", "klabel": 119}}, {"geometry": {"type": "Point", "coordinates": [-79.342756, 43.667619]}, "type": "Feature", "id": 754431932868464640, "properties": {"loc": [-79.342756, 43.667619], "centroid": [-79.48871890418637, 43.67977929463143], "screen_name": "tofire", "time": 1468723564.0, "tid": 754431932868464640, "text": "Tems Transferred (Read Remarks) - Gerrard St East @ Carlaw Avenue, Toronto (2 Trucks)", "created_at": "Sat Jul 16 21:46:04 +0000 2016", "klabel": 119}}, {"geometry": {"type": "Point", "coordinates": [-79.342756, 43.667619]}, "type": "Feature", "id": 754431933975785473, "properties": {"loc": [-79.342756, 43.667619], "centroid": [-79.48871890418637, 43.67977929463143], "screen_name": "tofireS", "time": 1468723564.0, "tid": 754431933975785473, "text": "Tems Transferred (Read Remarks) - Gerrard St East @ Carlaw Avenue, Toronto (2 Trucks)", "created_at": "Sat Jul 16 21:46:04 +0000 2016", "klabel": 119}}, {"geometry": {"type": "Point", "coordinates": [-79.3351, 43.6455]}, "type": "Feature", "id": 754439072144363520, "properties": {"loc": [-79.3351, 43.6455], "centroid": [-79.48871890418637, 43.67977929463143], "screen_name": "adamhuggins", "time": 1468725266.0, "tid": 754439072144363520, "text": "Image by @adamhuggins #onassignment for @nytimesphoto in #Toronto, #Canada\n\nCompleting the story\u2026 https://t.co/Jeh1cTjPgB", "created_at": "Sat Jul 16 22:14:26 +0000 2016", "klabel": 119}}, {"geometry": {"type": "Point", "coordinates": [-79.348053, 43.6590118]}, "type": "Feature", "id": 754449048896151552, "properties": {"loc": [-79.348053, 43.6590118], "centroid": [-79.48871890418637, 43.67977929463143], "screen_name": "illbeseeingyou_", "time": 1468727644.0, "tid": 754449048896151552, "text": "Vanessa's at it again... #barlife #tequila #pregaming #shots #leslieville #riverside #riverside\u2026 https://t.co/CYuK0qKSOU", "created_at": "Sat Jul 16 22:54:04 +0000 2016", "klabel": 119}}, {"geometry": {"type": "Point", "coordinates": [-79.34224, 43.66573]}, "type": "Feature", "id": 754450378972946432, "properties": {"loc": [-79.34224, 43.66573], "centroid": [-79.48871890418637, 43.67977929463143], "screen_name": "jstarrMakes", "time": 1468727962.0, "tid": 754450378972946432, "text": "Dovetails and glue-ups at UW today. #theUnpluggedWoodshop #theUWToronto #woodworking #handtools\u2026 https://t.co/5HwNQcUUC7", "created_at": "Sat Jul 16 22:59:22 +0000 2016", "klabel": 119}}, {"geometry": {"type": "Point", "coordinates": [-79.33991432, 43.6680113]}, "type": "Feature", "id": 754454365730181121, "properties": {"loc": [-79.33991432, 43.6680113], "centroid": [-79.48871890418637, 43.67977929463143], "screen_name": "laurendorphin", "time": 1468728912.0, "tid": 754454365730181121, "text": "\ud83d\udc95 (@ Maple Leaf Tavern in Toronto, Ontario) https://t.co/FJrDhT2pLf", "created_at": "Sat Jul 16 23:15:12 +0000 2016", "klabel": 119}}, {"geometry": {"type": "Point", "coordinates": [-79.34248861, 43.66355892]}, "type": "Feature", "id": 754466595305508864, "properties": {"loc": [-79.34248861, 43.66355892], "centroid": [-79.48871890418637, 43.67977929463143], "screen_name": "aiimeeloovee", "time": 1468731828.0, "tid": 754466595305508864, "text": "#Bts It gets Saucy\ud83d\udca6\nMUA @Modern_Makeup \nSC\ud83d\udc7b: ayyeemeee @ Toronto Studio District https://t.co/uGq4IOroag", "created_at": "Sun Jul 17 00:03:48 +0000 2016", "klabel": 119}}, {"geometry": {"type": "Point", "coordinates": [-79.3435, 43.66053]}, "type": "Feature", "id": 754472014736461825, "properties": {"loc": [-79.3435, 43.66053], "centroid": [-79.48871890418637, 43.67977929463143], "screen_name": "garethscobie", "time": 1468733120.0, "tid": 754472014736461825, "text": "Turned 21 (x2) today. Went to 'Mexico'. 21 years ago I went to Leicester. Next stop #immt\u2026 https://t.co/9TnxF5x54m", "created_at": "Sun Jul 17 00:25:20 +0000 2016", "klabel": 119}}, {"geometry": {"type": "Point", "coordinates": [-79.3438669, 43.6703417]}, "type": "Feature", "id": 754476976954568704, "properties": {"loc": [-79.3438669, 43.6703417], "centroid": [-79.48871890418637, 43.67977929463143], "screen_name": "tpscalls", "time": 1468734303.0, "tid": 754476976954568704, "text": "Disorderlies | Ferrier Ave &amp; Carlaw Ave [54 Div.] 07/16 20:40 #Toronto", "created_at": "Sun Jul 17 00:45:03 +0000 2016", "klabel": 119}}, {"geometry": {"type": "Point", "coordinates": [-79.3447521, 43.659531]}, "type": "Feature", "id": 754478487839408129, "properties": {"loc": [-79.3447521, 43.659531], "centroid": [-79.48871890418637, 43.67977929463143], "screen_name": "tpscalls", "time": 1468734663.0, "tid": 754478487839408129, "text": "Disorderlies | Eastern Ave &amp; Graham Pl [55 Div.] 07/16 20:46 #Riverside #Toronto", "created_at": "Sun Jul 17 00:51:03 +0000 2016", "klabel": 119}}, {"geometry": {"type": "Point", "coordinates": [-79.33976, 43.66814]}, "type": "Feature", "id": 754507263843397632, "properties": {"loc": [-79.33976, 43.66814], "centroid": [-79.48871890418637, 43.67977929463143], "screen_name": "shontellep", "time": 1468741524.0, "tid": 754507263843397632, "text": "It's a family affair \ud83c\udf82 Celebrating the birth of my sweet brother Roberto \n\n#family #birthday\u2026 https://t.co/TsLf0rHckr", "created_at": "Sun Jul 17 02:45:24 +0000 2016", "klabel": 119}}, {"geometry": {"type": "Point", "coordinates": [-79.3400698, 43.6610592]}, "type": "Feature", "id": 754546439544573952, "properties": {"loc": [-79.3400698, 43.6610592], "centroid": [-79.48871890418637, 43.67977929463143], "screen_name": "tpscalls", "time": 1468750864.0, "tid": 754546439544573952, "text": "Dispute | Queen St E &amp; Carlaw Ave [55 Div.] 07/17 01:15 #Leslieville #Toronto", "created_at": "Sun Jul 17 05:21:04 +0000 2016", "klabel": 119}}, {"geometry": {"type": "Point", "coordinates": [-79.3356, 43.66183]}, "type": "Feature", "id": 754646391423692805, "properties": {"loc": [-79.3356, 43.66183], "centroid": [-79.48871890418637, 43.67977929463143], "screen_name": "chris_brown_uk", "time": 1468774695.0, "tid": 754646391423692805, "text": "#coffee #leslieville @ Remarkable Bean https://t.co/TuGCnPK8Ug", "created_at": "Sun Jul 17 11:58:15 +0000 2016", "klabel": 119}}, {"geometry": {"type": "Point", "coordinates": [-79.33976, 43.66814]}, "type": "Feature", "id": 754651658588659712, "properties": {"loc": [-79.33976, 43.66814], "centroid": [-79.48871890418637, 43.67977929463143], "screen_name": "MapleLeafTavern", "time": 1468775950.0, "tid": 754651658588659712, "text": "Good Morning #brunch #mltavern #gerrardsteast #leslieville @ Maple Leaf Tavern https://t.co/qrjKYn6f2E", "created_at": "Sun Jul 17 12:19:10 +0000 2016", "klabel": 119}}, {"geometry": {"type": "Point", "coordinates": [-79.33489334, 43.66219212]}, "type": "Feature", "id": 754686428173434880, "properties": {"loc": [-79.33489334, 43.66219212], "centroid": [-79.48871890418637, 43.67977929463143], "screen_name": "KellyFurgalToye", "time": 1468784240.0, "tid": 754686428173434880, "text": "Happy #SockSunday! Although lately it's been a #flipflop Sunday for me\ud83e\udd17\ud83d\ude0e\ud83c\udf1e So many of my\u2026 https://t.co/hgg9Ofr3TO", "created_at": "Sun Jul 17 14:37:20 +0000 2016", "klabel": 119}}, {"geometry": {"type": "Point", "coordinates": [-79.33745, 43.6618799]}, "type": "Feature", "id": 754706444667281408, "properties": {"loc": [-79.33745, 43.6618799], "centroid": [-79.48871890418637, 43.67977929463143], "screen_name": "CaskMusic", "time": 1468789012.0, "tid": 754706444667281408, "text": "Squier Vintage Modified Precision Bass TB in Tobacco burst finish. Great condition and great\u2026 https://t.co/UlOgWzvNoy", "created_at": "Sun Jul 17 15:56:52 +0000 2016", "klabel": 119}}, {"geometry": {"type": "Point", "coordinates": [-79.3473, 43.6634]}, "type": "Feature", "id": 754715608948670464, "properties": {"loc": [-79.3473, 43.6634], "centroid": [-79.48871890418637, 43.67977929463143], "screen_name": "chelle_0306", "time": 1468791197.0, "tid": 754715608948670464, "text": "Wonderful message on a beautiful Sunday #Sunday #positivevibes #goodvibes #positive #positivity\u2026 https://t.co/7kDRRfOjGT", "created_at": "Sun Jul 17 16:33:17 +0000 2016", "klabel": 119}}, {"geometry": {"type": "Point", "coordinates": [-79.34756738, 43.66716034]}, "type": "Feature", "id": 754720275048964097, "properties": {"loc": [-79.34756738, 43.66716034], "centroid": [-79.48871890418637, 43.67977929463143], "screen_name": "brenteverett", "time": 1468792310.0, "tid": 754720275048964097, "text": "Feeling Holy! @ MCC Toronto https://t.co/wARApAogbV", "created_at": "Sun Jul 17 16:51:50 +0000 2016", "klabel": 119}}, {"geometry": {"type": "Point", "coordinates": [-79.33552, 43.66233]}, "type": "Feature", "id": 754734125521788928, "properties": {"loc": [-79.33552, 43.66233], "centroid": [-79.48871890418637, 43.67977929463143], "screen_name": "GracieKlutz", "time": 1468795612.0, "tid": 754734125521788928, "text": "Day 2 of #sunshine #vendor #weekend @artsmarket  Today's #vintage partner @fitfshop #getsome\u2026 https://t.co/C1lIIwIHNb", "created_at": "Sun Jul 17 17:46:52 +0000 2016", "klabel": 119}}, {"geometry": {"type": "Point", "coordinates": [-79.3383477, 43.6692568]}, "type": "Feature", "id": 754756632265891840, "properties": {"loc": [-79.3383477, 43.6692568], "centroid": [-79.48871890418637, 43.67977929463143], "screen_name": "tmj_gta_retail", "time": 1468800978.0, "tid": 754756632265891840, "text": "If you're looking for work in #Toronto, ON, check out this #job: https://t.co/1T3Z3lhaJu #Retail #Hiring #CareerArc", "created_at": "Sun Jul 17 19:16:18 +0000 2016", "klabel": 119}}, {"geometry": {"type": "Point", "coordinates": [-79.3351, 43.6455]}, "type": "Feature", "id": 754760814171521024, "properties": {"loc": [-79.3351, 43.6455], "centroid": [-79.48871890418637, 43.67977929463143], "screen_name": "crvnium", "time": 1468801975.0, "tid": 754760814171521024, "text": "&lt;exit&gt; @ Hearn Generating Station https://t.co/jPQHXIySte", "created_at": "Sun Jul 17 19:32:55 +0000 2016", "klabel": 119}}, {"geometry": {"type": "Point", "coordinates": [-79.34219, 43.66033]}, "type": "Feature", "id": 754764302834282496, "properties": {"loc": [-79.34219, 43.66033], "centroid": [-79.48871890418637, 43.67977929463143], "screen_name": "anngagno", "time": 1468802807.0, "tid": 754764302834282496, "text": "Oh yes, these babies can get me off my couch on a lazy Sunday purplepenguin_cafe #applefritters\u2026 https://t.co/EqF8k3Aqk6", "created_at": "Sun Jul 17 19:46:47 +0000 2016", "klabel": 119}}, {"geometry": {"type": "Point", "coordinates": [-79.34165995, 43.66465263]}, "type": "Feature", "id": 754779285559320578, "properties": {"loc": [-79.34165995, 43.66465263], "centroid": [-79.48871890418637, 43.67977929463143], "screen_name": "eman3058", "time": 1468806379.0, "tid": 754779285559320578, "text": "Dark Nebula Presentation | July 30th | 8-10pm | Rehearsal Factory Mississauga #rap #hiphop\u2026 https://t.co/bt190JSHcQ", "created_at": "Sun Jul 17 20:46:19 +0000 2016", "klabel": 119}}, {"geometry": {"type": "Point", "coordinates": [-79.34739, 43.65967]}, "type": "Feature", "id": 754783713821495300, "properties": {"loc": [-79.34739, 43.65967], "centroid": [-79.48871890418637, 43.67977929463143], "screen_name": "haveyoumetmeg", "time": 1468807435.0, "tid": 754783713821495300, "text": "Ice cream overboard this weekend \ud83c\udf66 #sweetjesus @ Sweet Jesus Eastside https://t.co/mbvulpxcIr", "created_at": "Sun Jul 17 21:03:55 +0000 2016", "klabel": 119}}, {"geometry": {"type": "Point", "coordinates": [-79.348053, 43.6590118]}, "type": "Feature", "id": 754804296189960192, "properties": {"loc": [-79.348053, 43.6590118], "centroid": [-79.48871890418637, 43.67977929463143], "screen_name": "CeeFor", "time": 1468812342.0, "tid": 754804296189960192, "text": "#2116 Descendants El Buscador (Canada)\n\nSalute Shehan. So this 4% Mexican style light lager is\u2026 https://t.co/eIFV8qloQL", "created_at": "Sun Jul 17 22:25:42 +0000 2016", "klabel": 119}}, {"geometry": {"type": "Point", "coordinates": [-79.340971, 43.664344]}, "type": "Feature", "id": 754833471902654464, "properties": {"loc": [-79.340971, 43.664344], "centroid": [-79.48871890418637, 43.67977929463143], "screen_name": "ashleighsearles", "time": 1468819298.0, "tid": 754833471902654464, "text": "Opening celebration  https://t.co/iw2fZSyAaE", "created_at": "Mon Jul 18 00:21:38 +0000 2016", "klabel": 119}}, {"geometry": {"type": "Point", "coordinates": [-79.340971, 43.664344]}, "type": "Feature", "id": 754843308380200961, "properties": {"loc": [-79.340971, 43.664344], "centroid": [-79.48871890418637, 43.67977929463143], "screen_name": "ashleighsearles", "time": 1468821643.0, "tid": 754843308380200961, "text": "Mortgage 101: Terms  https://t.co/CVG8WdowWK", "created_at": "Mon Jul 18 01:00:43 +0000 2016", "klabel": 119}}, {"geometry": {"type": "Point", "coordinates": [-79.3468918, 43.6655824]}, "type": "Feature", "id": 754844328187432960, "properties": {"loc": [-79.3468918, 43.6655824], "centroid": [-79.48871890418637, 43.67977929463143], "screen_name": "Shmobo", "time": 1468821886.0, "tid": 754844328187432960, "text": "Pan Seared Ribeye Steak aged in House #toronto_beff @toronto_beff #beef #steak #meatlover #meat\u2026 https://t.co/UZIO5d2Fpu", "created_at": "Mon Jul 18 01:04:46 +0000 2016", "klabel": 119}}, {"geometry": {"type": "Point", "coordinates": [-79.3470686, 43.662799]}, "type": "Feature", "id": 754844655456575488, "properties": {"loc": [-79.3470686, 43.662799], "centroid": [-79.48871890418637, 43.67977929463143], "screen_name": "tpscalls", "time": 1468821964.0, "tid": 754844655456575488, "text": "Noise Complaint | Queen St E &amp; Ln N Queen W Degrassi St [55 Div.] 07/17 21:00 #Riverdale #Toronto", "created_at": "Mon Jul 18 01:06:04 +0000 2016", "klabel": 119}}, {"geometry": {"type": "Point", "coordinates": [-79.3353983, 43.66205555]}, "type": "Feature", "id": 754852237982261248, "properties": {"loc": [-79.3353983, 43.66205555], "centroid": [-79.48871890418637, 43.67977929463143], "screen_name": "stajans_girl", "time": 1468823772.0, "tid": 754852237982261248, "text": "Have to get up early for work tomorrow, but I had to stop by and say bye to @sarah_connors in\u2026 https://t.co/TGzSSBi5J7", "created_at": "Mon Jul 18 01:36:12 +0000 2016", "klabel": 119}}, {"geometry": {"type": "Point", "coordinates": [-79.337445, 43.6549986]}, "type": "Feature", "id": 754868059622498304, "properties": {"loc": [-79.337445, 43.6549986], "centroid": [-79.48871890418637, 43.67977929463143], "screen_name": "tpscalls", "time": 1468827544.0, "tid": 754868059622498304, "text": "Fire | Carlaw Ave &amp; Lake Shore Blvd East Trl [55 Div.] 07/17 22:34 #Port_Lands #Toronto", "created_at": "Mon Jul 18 02:39:04 +0000 2016", "klabel": 119}}, {"geometry": {"type": "Point", "coordinates": [-79.34538, 43.66688]},