{"type": "FeatureCollection", "features": [{"geometry": {"type": "Point", "coordinates": [-79.5606537, 43.6097641]}, "type": "Feature", "id": 705216309546651652, "properties": {"loc": [-79.5606537, 43.6097641], "centroid": [-79.39305822062992, 43.68932524984252], "screen_name": "katcasale", "time": 1456989645.0, "tid": 705216309546651652, "text": "#GNO @ JOEY Sherway https://t.co/SbCggH90ae", "created_at": "Thu Mar 03 02:20:45 +0000 2016", "klabel": 120}}, {"geometry": {"type": "Point", "coordinates": [-79.5607695, 43.6136517]}, "type": "Feature", "id": 705434174476292098, "properties": {"loc": [-79.5607695, 43.6136517], "centroid": [-79.39305822062992, 43.68932524984252], "screen_name": "tmj_on_jobs", "time": 1457041588.0, "tid": 705434174476292098, "text": "Can you recommend anyone for this #Hospitality #job? https://t.co/tGObbHCpHH 1950 THE QUEENSWAY, #ETOBICOKE, ON #Veterans #Hiring", "created_at": "Thu Mar 03 16:46:28 +0000 2016", "klabel": 120}}, {"geometry": {"type": "Point", "coordinates": [-79.5536889, 43.6323091]}, "type": "Feature", "id": 705457736474091520, "properties": {"loc": [-79.5536889, 43.6323091], "centroid": [-79.39305822062992, 43.68932524984252], "screen_name": "tofireW", "time": 1457047205.0, "tid": 705457736474091520, "text": "Medical (Seizures/convulsions) - The East Mall b/w Yarn Road / Lynnford Dr, Etobicoke (2 Trucks)", "created_at": "Thu Mar 03 18:20:05 +0000 2016", "klabel": 120}}, {"geometry": {"type": "Point", "coordinates": [-79.57196762, 43.62055426]}, "type": "Feature", "id": 705527783779397632, "properties": {"loc": [-79.57196762, 43.62055426], "centroid": [-79.39305822062992, 43.68932524984252], "screen_name": "HRSGTA", "time": 1457063906.0, "tid": 705527783779397632, "text": "The @rawlingssports Customs didn't end there. Check out this flashy piece as well.\u2026 https://t.co/dRmEfUiaEZ", "created_at": "Thu Mar 03 22:58:26 +0000 2016", "klabel": 120}}, {"geometry": {"type": "Point", "coordinates": [-79.57196762, 43.62055426]}, "type": "Feature", "id": 705528644215689216, "properties": {"loc": [-79.57196762, 43.62055426], "centroid": [-79.39305822062992, 43.68932524984252], "screen_name": "HRSGTA", "time": 1457064111.0, "tid": 705528644215689216, "text": "...AND last but not least...Feast your eyes on jevonkennedy new piece leather \ud83d\udd25\ud83d\udd25\u2026 https://t.co/pyRefSWnMo", "created_at": "Thu Mar 03 23:01:51 +0000 2016", "klabel": 120}}, {"geometry": {"type": "Point", "coordinates": [-79.55702113, 43.61167031]}, "type": "Feature", "id": 705537371501150213, "properties": {"loc": [-79.55702113, 43.61167031], "centroid": [-79.39305822062992, 43.68932524984252], "screen_name": "BurninBaits", "time": 1457066192.0, "tid": 705537371501150213, "text": "6 for 20 #wellwellwell #pleasepayagain #nosurprise #losingagain #rrrolluptherim #timhortons #xl\u2026 https://t.co/e5yPbhXC8t", "created_at": "Thu Mar 03 23:36:32 +0000 2016", "klabel": 120}}, {"geometry": {"type": "Point", "coordinates": [-79.55453502, 43.61187406]}, "type": "Feature", "id": 705796256136892416, "properties": {"loc": [-79.55453502, 43.61187406], "centroid": [-79.39305822062992, 43.68932524984252], "screen_name": "foodie411", "time": 1457127915.0, "tid": 705796256136892416, "text": "I'm at Beaumont Kitchen - @beaumontsherway in Toronto, ON https://t.co/4n9hsGXIIT", "created_at": "Fri Mar 04 16:45:15 +0000 2016", "klabel": 120}}, {"geometry": {"type": "Point", "coordinates": [-79.5568671, 43.6112889]}, "type": "Feature", "id": 705816611337285632, "properties": {"loc": [-79.5568671, 43.6112889], "centroid": [-79.39305822062992, 43.68932524984252], "screen_name": "tmj_gta_hrta", "time": 1457132768.0, "tid": 705816611337285632, "text": "See our latest #job and click to apply: Barista (CA) - https://t.co/l5Cn0gsWbB #Hospitality #Veterans #Hiring #CareerArc", "created_at": "Fri Mar 04 18:06:08 +0000 2016", "klabel": 120}}, {"geometry": {"type": "Point", "coordinates": [-79.55698684, 43.61168851]}, "type": "Feature", "id": 705819619676852224, "properties": {"loc": [-79.55698684, 43.61168851], "centroid": [-79.39305822062992, 43.68932524984252], "screen_name": "atyourserviced", "time": 1457133485.0, "tid": 705819619676852224, "text": "Sarah working her M A G I C \u2728\u2728                saks_sherwaygdns #luxurylounge #giorgioarmani\u2026 https://t.co/ieRhty1J98", "created_at": "Fri Mar 04 18:18:05 +0000 2016", "klabel": 120}}, {"geometry": {"type": "Point", "coordinates": [-79.55711527, 43.61994219]}, "type": "Feature", "id": 705826839034466305, "properties": {"loc": [-79.55711527, 43.61994219], "centroid": [-79.39305822062992, 43.68932524984252], "screen_name": "Whassaabee", "time": 1457135206.0, "tid": 705826839034466305, "text": "Got my custom Holbrook today. #Oakley #customholbrooks #oakleysunglasses #oakleyshades #3point5\u2026 https://t.co/jjX9qYMgrq", "created_at": "Fri Mar 04 18:46:46 +0000 2016", "klabel": 120}}, {"geometry": {"type": "Point", "coordinates": [-79.560642, 43.6097787]}, "type": "Feature", "id": 705859919275171840, "properties": {"loc": [-79.560642, 43.6097787], "centroid": [-79.39305822062992, 43.68932524984252], "screen_name": "foodie411", "time": 1457143093.0, "tid": 705859919275171840, "text": "Brisket. Fries. Beer. // Lovely space and service at O&amp;B's new Etobicoke space at Sherway\u2026 https://t.co/7UPvpcZhN7", "created_at": "Fri Mar 04 20:58:13 +0000 2016", "klabel": 120}}, {"geometry": {"type": "Point", "coordinates": [-79.57060395, 43.61741122]}, "type": "Feature", "id": 706062315905486848, "properties": {"loc": [-79.57060395, 43.61741122], "centroid": [-79.39305822062992, 43.68932524984252], "screen_name": "paulbuceta", "time": 1457191348.0, "tid": 706062315905486848, "text": "The latest cover for andiveromagazine with @sarascotford. I'm proud of this as its my first\u2026 https://t.co/Q5WZAOlSvb", "created_at": "Sat Mar 05 10:22:28 +0000 2016", "klabel": 120}}, {"geometry": {"type": "Point", "coordinates": [-79.55789945, 43.62470688]}, "type": "Feature", "id": 706100887299555329, "properties": {"loc": [-79.55789945, 43.62470688], "centroid": [-79.39305822062992, 43.68932524984252], "screen_name": "PhilipAlvesMD", "time": 1457200544.0, "tid": 706100887299555329, "text": "An empty workout studio is worth waking up early for. Even on a Saturday. \n\n#gym #gymlife\u2026 https://t.co/qs5m8r7vBm", "created_at": "Sat Mar 05 12:55:44 +0000 2016", "klabel": 120}}, {"geometry": {"type": "Point", "coordinates": [-79.560642, 43.6097787]}, "type": "Feature", "id": 706148795382300672, "properties": {"loc": [-79.560642, 43.6097787], "centroid": [-79.39305822062992, 43.68932524984252], "screen_name": "prschef", "time": 1457211967.0, "tid": 706148795382300672, "text": "Yogurt parfait br\u00fbl\u00e9e. #healthybrunch @beaumontsherway @oliverbonacini @michaelthehay\u2026 https://t.co/cMeGurbq3Y", "created_at": "Sat Mar 05 16:06:07 +0000 2016", "klabel": 120}}, {"geometry": {"type": "Point", "coordinates": [-79.560642, 43.6097787]}, "type": "Feature", "id": 706155340396695552, "properties": {"loc": [-79.560642, 43.6097787], "centroid": [-79.39305822062992, 43.68932524984252], "screen_name": "casandrabuccoo", "time": 1457213527.0, "tid": 706155340396695552, "text": "Best Brunch ever!!! PB&amp; J stuffed french toast and a Bellini\ud83d\ude0d\u2026 https://t.co/wgBDzyaTg1", "created_at": "Sat Mar 05 16:32:07 +0000 2016", "klabel": 120}}, {"geometry": {"type": "Point", "coordinates": [-79.5685959, 43.6248055]}, "type": "Feature", "id": 706175631818682368, "properties": {"loc": [-79.5685959, 43.6248055], "centroid": [-79.39305822062992, 43.68932524984252], "screen_name": "brianjeronimo", "time": 1457218365.0, "tid": 706175631818682368, "text": "All set up for tonight's #fundraiser! #remax  #realestate #toronto #euro2016 #eurocup2016\u2026 https://t.co/uOTuXsxu4B", "created_at": "Sat Mar 05 17:52:45 +0000 2016", "klabel": 120}}, {"geometry": {"type": "Point", "coordinates": [-79.55841733, 43.62494245]}, "type": "Feature", "id": 706176197948997634, "properties": {"loc": [-79.55841733, 43.62494245], "centroid": [-79.39305822062992, 43.68932524984252], "screen_name": "JaymesBeatty", "time": 1457218500.0, "tid": 706176197948997634, "text": "Gym w Jerry.  @thomsonator007 (at @GoodLifeFitness in Etobicoke, ON) https://t.co/9JI0Xi7dLT", "created_at": "Sat Mar 05 17:55:00 +0000 2016", "klabel": 120}}, {"geometry": {"type": "Point", "coordinates": [-79.5439529, 43.6226997]}, "type": "Feature", "id": 707592707556958209, "properties": {"loc": [-79.5439529, 43.6226997], "centroid": [-79.39305822062992, 43.68932524984252], "screen_name": "Storstac", "time": 1457556222.0, "tid": 707592707556958209, "text": "Staging one of our modular shipping container training structures in part of our yard before it\u2026 https://t.co/PFtO59jwAX", "created_at": "Wed Mar 09 15:43:42 +0000 2016", "klabel": 120}}, {"geometry": {"type": "Point", "coordinates": [-79.54215854, 43.61758133]}, "type": "Feature", "id": 707620178075521024, "properties": {"loc": [-79.54215854, 43.61758133], "centroid": [-79.39305822062992, 43.68932524984252], "screen_name": "jjtho", "time": 1457562772.0, "tid": 707620178075521024, "text": "I'm at Paramount Fine Foods - @paramountfoods in Etobicoke https://t.co/zocCqLwdky", "created_at": "Wed Mar 09 17:32:52 +0000 2016", "klabel": 120}}, {"geometry": {"type": "Point", "coordinates": [-79.5430808, 43.611104]}, "type": "Feature", "id": 749788594538213377, "properties": {"loc": [-79.5430808, 43.611104], "centroid": [-79.39305822062992, 43.68932524984252], "screen_name": "tofire", "time": 1467616505.0, "tid": 749788594538213377, "text": "Fire (Grass/rubbish) - Aldercrest Road @ Silvercrest Avenue, Etobicoke (2 Trucks)", "created_at": "Mon Jul 04 02:15:05 +0000 2016", "klabel": 120}}, {"geometry": {"type": "Point", "coordinates": [-79.5624101, 43.6274059]}, "type": "Feature", "id": 749788598623408128, "properties": {"loc": [-79.5624101, 43.6274059], "centroid": [-79.39305822062992, 43.68932524984252], "screen_name": "tofireW", "time": 1467616506.0, "tid": 749788598623408128, "text": "Alarm Residential - Neilson Dr b/w Dundas St West / Rickshaw Avenue, Etobicoke (5 Trucks)", "created_at": "Mon Jul 04 02:15:06 +0000 2016", "klabel": 120}}, {"geometry": {"type": "Point", "coordinates": [-79.5520066, 43.6342014]}, "type": "Feature", "id": 749792363850113024, "properties": {"loc": [-79.5520066, 43.6342014], "centroid": [-79.39305822062992, 43.68932524984252], "screen_name": "tpscalls", "time": 1467617404.0, "tid": 749792363850113024, "text": "Disorderlies | Yarn Rd &amp; Lynnford Dr [22 Div.] 07/03 22:24 #Islington_City_Centre_West #Toronto", "created_at": "Mon Jul 04 02:30:04 +0000 2016", "klabel": 120}}, {"geometry": {"type": "Point", "coordinates": [-79.57062488, 43.61744071]}, "type": "Feature", "id": 749935335791026176, "properties": {"loc": [-79.57062488, 43.61744071], "centroid": [-79.39305822062992, 43.68932524984252], "screen_name": "paulbuceta", "time": 1467651491.0, "tid": 749935335791026176, "text": "Happy 4th of July with @sybilsophia \nMake up and hair by @monicakalra and @sarascotford\u2026 https://t.co/X5MXaYL5nG", "created_at": "Mon Jul 04 11:58:11 +0000 2016", "klabel": 120}}, {"geometry": {"type": "Point", "coordinates": [-79.5568671, 43.6112889]}, "type": "Feature", "id": 749974598586806272, "properties": {"loc": [-79.5568671, 43.6112889], "centroid": [-79.39305822062992, 43.68932524984252], "screen_name": "tmj_gta_hrta", "time": 1467660852.0, "tid": 749974598586806272, "text": "Interested in a #Hospitality #job near ? This could be a great fit: https://t.co/l5Cn0gsWbB #Veterans #Hiring #CareerArc", "created_at": "Mon Jul 04 14:34:12 +0000 2016", "klabel": 120}}, {"geometry": {"type": "Point", "coordinates": [-79.57062488, 43.61744071]}, "type": "Feature", "id": 750028123752783872, "properties": {"loc": [-79.57062488, 43.61744071], "centroid": [-79.39305822062992, 43.68932524984252], "screen_name": "paulbuceta", "time": 1467673614.0, "tid": 750028123752783872, "text": "Shooting with kimxsmall today. Make up and hair by @sarascotford #paulbuceta #findyourselfapaul\u2026 https://t.co/V2yZuXUqga", "created_at": "Mon Jul 04 18:06:54 +0000 2016", "klabel": 120}}, {"geometry": {"type": "Point", "coordinates": [-79.55584, 43.61464]}, "type": "Feature", "id": 750083661849034752, "properties": {"loc": [-79.55584, 43.61464], "centroid": [-79.39305822062992, 43.68932524984252], "screen_name": "BierMarktQueens", "time": 1467686855.0, "tid": 750083661849034752, "text": "You're invited to our #PatioParty this Thursday for #Complimentary #Bier, Bites &amp; a #Poutine\u2026 https://t.co/RZuhIjg1Sq", "created_at": "Mon Jul 04 21:47:35 +0000 2016", "klabel": 120}}, {"geometry": {"type": "Point", "coordinates": [-79.53949, 43.61772]}, "type": "Feature", "id": 750107346265706496, "properties": {"loc": [-79.53949, 43.61772], "centroid": [-79.39305822062992, 43.68932524984252], "screen_name": "Type1Dayna", "time": 1467692502.0, "tid": 750107346265706496, "text": "That's right I had fast food it's all about balance I ordered a kids meal which is still 14\u2026 https://t.co/b0ubkVsbcJ", "created_at": "Mon Jul 04 23:21:42 +0000 2016", "klabel": 120}}, {"geometry": {"type": "Point", "coordinates": [-79.56870585, 43.62514741]}, "type": "Feature", "id": 750134862850449409, "properties": {"loc": [-79.56870585, 43.62514741], "centroid": [-79.39305822062992, 43.68932524984252], "screen_name": "ChelseaHuang_", "time": 1467699062.0, "tid": 750134862850449409, "text": "(5/7) i promise im almost done \n\ud83d\udcf8 : @kareem_baassiri @ Renaissance by the creek https://t.co/Heh6mub2AA", "created_at": "Tue Jul 05 01:11:02 +0000 2016", "klabel": 120}}, {"geometry": {"type": "Point", "coordinates": [-79.5452593, 43.6214063]}, "type": "Feature", "id": 750135879763628034, "properties": {"loc": [-79.5452593, 43.6214063], "centroid": [-79.39305822062992, 43.68932524984252], "screen_name": "tofire", "time": 1467699305.0, "tid": 750135879763628034, "text": "UD: Rescue (Structural Collapse) - The Queensway b/w North Queen St / Hepc, Etobicoke (14 Trucks)", "created_at": "Tue Jul 05 01:15:05 +0000 2016", "klabel": 120}}, {"geometry": {"type": "Point", "coordinates": [-79.5452593, 43.6214063]}, "type": "Feature", "id": 750135880761958400, "properties": {"loc": [-79.5452593, 43.6214063], "centroid": [-79.39305822062992, 43.68932524984252], "screen_name": "tofireW", "time": 1467699305.0, "tid": 750135880761958400, "text": "UD: Rescue (Structural Collapse) - The Queensway b/w North Queen St / Hepc, Etobicoke (14 Trucks)", "created_at": "Tue Jul 05 01:15:05 +0000 2016", "klabel": 120}}, {"geometry": {"type": "Point", "coordinates": [-79.5467053, 43.625654]}, "type": "Feature", "id": 750319870030536705, "properties": {"loc": [-79.5467053, 43.625654], "centroid": [-79.39305822062992, 43.68932524984252], "screen_name": "Pablo_074", "time": 1467743171.0, "tid": 750319870030536705, "text": "\ud83d\ude02\ud83d\ude02\u270c\ud83d\udcaa https://t.co/UzTnZxd0Hp", "created_at": "Tue Jul 05 13:26:11 +0000 2016", "klabel": 120}}, {"geometry": {"type": "Point", "coordinates": [-79.5467747, 43.6256439]}, "type": "Feature", "id": 750320233156599809, "properties": {"loc": [-79.5467747, 43.6256439], "centroid": [-79.39305822062992, 43.68932524984252], "screen_name": "Pablo_074", "time": 1467743258.0, "tid": 750320233156599809, "text": "@Radioacktiva_ \ud83d\udcaa\ud83d\ude02\ud83d\ude02\ud83d\ude01\u270c https://t.co/KS3xhr8F9H", "created_at": "Tue Jul 05 13:27:38 +0000 2016", "klabel": 120}}, {"geometry": {"type": "Point", "coordinates": [-79.5419342, 43.6202232]}, "type": "Feature", "id": 750332413197357056, "properties": {"loc": [-79.5419342, 43.6202232], "centroid": [-79.39305822062992, 43.68932524984252], "screen_name": "tpscalls", "time": 1467746162.0, "tid": 750332413197357056, "text": "Industrial Accident | Shorncliffe Rd &amp; Atomic Ave [22 Div.] 07/05 10:09 #Islington_City_Centre_West #Toronto", "created_at": "Tue Jul 05 14:16:02 +0000 2016", "klabel": 120}}, {"geometry": {"type": "Point", "coordinates": [-79.55704451, 43.61178176]}, "type": "Feature", "id": 750354226698653696, "properties": {"loc": [-79.55704451, 43.61178176], "centroid": [-79.39305822062992, 43.68932524984252], "screen_name": "TheOneTrueDave", "time": 1467751363.0, "tid": 750354226698653696, "text": "Note to self: do NOT get the \"cheese sauce\" on the hot dog from New York Fries. (at @Sherway_Gardens) https://t.co/xgRVfjdWLq", "created_at": "Tue Jul 05 15:42:43 +0000 2016", "klabel": 120}}, {"geometry": {"type": "Point", "coordinates": [-79.5568318, 43.611364]}, "type": "Feature", "id": 750376923843276800, "properties": {"loc": [-79.5568318, 43.611364], "centroid": [-79.39305822062992, 43.68932524984252], "screen_name": "tmj_usa_sales", "time": 1467756774.0, "tid": 750376923843276800, "text": "We're #hiring! Read about our latest #job opening here: Sales Associate, J.Crew Retail, Sherway Gardens - https://t.co/rHcY4H9aBS #Sales", "created_at": "Tue Jul 05 17:12:54 +0000 2016", "klabel": 120}}, {"geometry": {"type": "Point", "coordinates": [-79.560925, 43.609961]}, "type": "Feature", "id": 751223968888131584, "properties": {"loc": [-79.560925, 43.609961], "centroid": [-79.39305822062992, 43.68932524984252], "screen_name": "sysimonliu", "time": 1467958725.0, "tid": 751223968888131584, "text": "Second time having this, starting to take a real liking to it! culturesresto\u2026 https://t.co/AQX4PnWQk8", "created_at": "Fri Jul 08 01:18:45 +0000 2016", "klabel": 120}}, {"geometry": {"type": "Point", "coordinates": [-79.5575746, 43.6159508]}, "type": "Feature", "id": 751238139667161088, "properties": {"loc": [-79.5575746, 43.6159508], "centroid": [-79.39305822062992, 43.68932524984252], "screen_name": "tpscalls", "time": 1467962104.0, "tid": 751238139667161088, "text": "Assault Just Occurred | Hepc &amp; Nova Rd [22 Div.] 07/07 22:11 #Islington_City_Centre_West #Toronto", "created_at": "Fri Jul 08 02:15:04 +0000 2016", "klabel": 120}}, {"geometry": {"type": "Point", "coordinates": [-79.54462299, 43.61837323]}, "type": "Feature", "id": 751847077215408128, "properties": {"loc": [-79.54462299, 43.61837323], "centroid": [-79.39305822062992, 43.68932524984252], "screen_name": "JaylixPorter", "time": 1468107286.0, "tid": 751847077215408128, "text": "I'm at @BedBathBeyond in Etobicoke, ON https://t.co/ZSwYobmhcs", "created_at": "Sat Jul 09 18:34:46 +0000 2016", "klabel": 120}}, {"geometry": {"type": "Point", "coordinates": [-79.55584, 43.61464]}, "type": "Feature", "id": 751931535490576386, "properties": {"loc": [-79.55584, 43.61464], "centroid": [-79.39305822062992, 43.68932524984252], "screen_name": "realbagofchips", "time": 1468127422.0, "tid": 751931535490576386, "text": "Listening to Rock and Roll Hoochie Koo @ Bier Markt Queensway https://t.co/PFxaVUBDQH", "created_at": "Sun Jul 10 00:10:22 +0000 2016", "klabel": 120}}, {"geometry": {"type": "Point", "coordinates": [-79.5419342, 43.6202232]}, "type": "Feature", "id": 752084461089615872, "properties": {"loc": [-79.5419342, 43.6202232], "centroid": [-79.39305822062992, 43.68932524984252], "screen_name": "tpscalls", "time": 1468163883.0, "tid": 752084461089615872, "text": "See Ambulance | Algie Ave &amp; Atomic Ave [22 Div.] 07/10 06:14 #Islington_City_Centre_West #Toronto", "created_at": "Sun Jul 10 10:18:03 +0000 2016", "klabel": 120}}, {"geometry": {"type": "Point", "coordinates": [-79.55662876, 43.60472237]}, "type": "Feature", "id": 752126446882000896, "properties": {"loc": [-79.55662876, 43.60472237], "centroid": [-79.39305822062992, 43.68932524984252], "screen_name": "AP_Counselling", "time": 1468173893.0, "tid": 752126446882000896, "text": "Day #2 - #newmarkethawks @ Etobicoke Valley Park https://t.co/r31WYEs4df", "created_at": "Sun Jul 10 13:04:53 +0000 2016", "klabel": 120}}, {"geometry": {"type": "Point", "coordinates": [-79.55662876, 43.60472237]}, "type": "Feature", "id": 752127167081746436, "properties": {"loc": [-79.55662876, 43.60472237], "centroid": [-79.39305822062992, 43.68932524984252], "screen_name": "AP_Counselling", "time": 1468174065.0, "tid": 752127167081746436, "text": "Let's do this ! @ Etobicoke Valley Park https://t.co/uHoLi47GwW", "created_at": "Sun Jul 10 13:07:45 +0000 2016", "klabel": 120}}, {"geometry": {"type": "Point", "coordinates": [-79.55662876, 43.60472237]}, "type": "Feature", "id": 752133140076867585, "properties": {"loc": [-79.55662876, 43.60472237], "centroid": [-79.39305822062992, 43.68932524984252], "screen_name": "AP_Counselling", "time": 1468175489.0, "tid": 752133140076867585, "text": "Waiting for the game to begin ! @ Etobicoke Valley Park https://t.co/Alve7BfYb1", "created_at": "Sun Jul 10 13:31:29 +0000 2016", "klabel": 120}}, {"geometry": {"type": "Point", "coordinates": [-79.55704451, 43.61178176]}, "type": "Feature", "id": 752170552337596417, "properties": {"loc": [-79.55704451, 43.61178176], "centroid": [-79.39305822062992, 43.68932524984252], "screen_name": "mingazutdinova2", "time": 1468184408.0, "tid": 752170552337596417, "text": "I'm at @Sherway_Gardens in Etobicoke, ON https://t.co/nRTY63I18F", "created_at": "Sun Jul 10 16:00:08 +0000 2016", "klabel": 120}}, {"geometry": {"type": "Point", "coordinates": [-79.55702113, 43.61167031]}, "type": "Feature", "id": 752214977122041856, "properties": {"loc": [-79.55702113, 43.61167031], "centroid": [-79.39305822062992, 43.68932524984252], "screen_name": "SandraRunner", "time": 1468195000.0, "tid": 752214977122041856, "text": "#funnyface @ Sherway Gardens Shopping Centre https://t.co/A4ERxzJ98D", "created_at": "Sun Jul 10 18:56:40 +0000 2016", "klabel": 120}}, {"geometry": {"type": "Point", "coordinates": [-79.544673, 43.6321493]}, "type": "Feature", "id": 752545748512825344, "properties": {"loc": [-79.544673, 43.6321493], "centroid": [-79.39305822062992, 43.68932524984252], "screen_name": "tpscalls", "time": 1468273862.0, "tid": 752545748512825344, "text": "Impaired Driver | Shorncliffe Rd &amp; Dundas St W [22 Div.] 07/11 12:47 #Islington_City_Centre_West #Toronto", "created_at": "Mon Jul 11 16:51:02 +0000 2016", "klabel": 120}}, {"geometry": {"type": "Point", "coordinates": [-79.5498255, 43.6073516]}, "type": "Feature", "id": 752558342783037440, "properties": {"loc": [-79.5498255, 43.6073516], "centroid": [-79.39305822062992, 43.68932524984252], "screen_name": "tofireW", "time": 1468276865.0, "tid": 752558342783037440, "text": "Medical (Trouble Breathing) - Coules Crt b/w Ecker Dr / Brown's Line, Etobicoke (2 Trucks)", "created_at": "Mon Jul 11 17:41:05 +0000 2016", "klabel": 120}}, {"geometry": {"type": "Point", "coordinates": [-79.5498255, 43.6073516]}, "type": "Feature", "id": 752558341675769856, "properties": {"loc": [-79.5498255, 43.6073516], "centroid": [-79.39305822062992, 43.68932524984252], "screen_name": "tofire", "time": 1468276865.0, "tid": 752558341675769856, "text": "Medical (Trouble Breathing) - Coules Crt b/w Ecker Dr / Brown's Line, Etobicoke (2 Trucks)", "created_at": "Mon Jul 11 17:41:05 +0000 2016", "klabel": 120}}, {"geometry": {"type": "Point", "coordinates": [-79.5599945, 43.6160419]}, "type": "Feature", "id": 752564980969451520, "properties": {"loc": [-79.5599945, 43.6160419], "centroid": [-79.39305822062992, 43.68932524984252], "screen_name": "tmj_gta_retail", "time": 1468278448.0, "tid": 752564980969451520, "text": "If you're looking for work in #Etobicoke, ON, check out this #job: https://t.co/PCkXh5wdDH #Retail #Hiring #CareerArc", "created_at": "Mon Jul 11 18:07:28 +0000 2016", "klabel": 120}}, {"geometry": {"type": "Point", "coordinates": [-79.544673, 43.6321493]}, "type": "Feature", "id": 752625782363721728, "properties": {"loc": [-79.544673, 43.6321493], "centroid": [-79.39305822062992, 43.68932524984252], "screen_name": "tpscalls", "time": 1468292944.0, "tid": 752625782363721728, "text": "Personal Injury Collision | Dundas St W &amp; Shorncliffe Rd [22 Div.] 07/11 18:03 #Islington_City_Centre_West #Toronto", "created_at": "Mon Jul 11 22:09:04 +0000 2016", "klabel": 120}}, {"geometry": {"type": "Point", "coordinates": [-79.55520988, 43.63149371]}, "type": "Feature", "id": 752909717861728256, "properties": {"loc": [-79.55520988, 43.63149371], "centroid": [-79.39305822062992, 43.68932524984252], "screen_name": "Drewber66", "time": 1468360639.0, "tid": 752909717861728256, "text": "I'm at Cloverdale Mall in Etobicoke, ON https://t.co/ju3Eg7AhV8", "created_at": "Tue Jul 12 16:57:19 +0000 2016", "klabel": 120}}, {"geometry": {"type": "Point", "coordinates": [-79.55648327, 43.63211168]}, "type": "Feature", "id": 752910127817191424, "properties": {"loc": [-79.55648327, 43.63211168], "centroid": [-79.39305822062992, 43.68932524984252], "screen_name": "Drewber66", "time": 1468360737.0, "tid": 752910127817191424, "text": "Quick food break (@ A&amp;W - @awcanada in Etobicoke, ON) https://t.co/Xn8mkQqfau", "created_at": "Tue Jul 12 16:58:57 +0000 2016", "klabel": 120}}, {"geometry": {"type": "Point", "coordinates": [-79.5416599, 43.61731]}, "type": "Feature", "id": 752972786973442050, "properties": {"loc": [-79.5416599, 43.61731], "centroid": [-79.39305822062992, 43.68932524984252], "screen_name": "lindsayreid87", "time": 1468375676.0, "tid": 752972786973442050, "text": "Our depalletizer is in and the inner skater/stoner/tomboy I used to be is excited to learn it's\u2026 https://t.co/BsnIGeNr3c", "created_at": "Tue Jul 12 21:07:56 +0000 2016", "klabel": 120}}, {"geometry": {"type": "Point", "coordinates": [-79.561429, 43.6107192]}, "type": "Feature", "id": 752988424529928192, "properties": {"loc": [-79.561429, 43.6107192], "centroid": [-79.39305822062992, 43.68932524984252], "screen_name": "tofire", "time": 1468379404.0, "tid": 752988424529928192, "text": "Medical (Exposure) - The West Mall b/w Sherway Gardens Road / Hepc, Etobicoke (2 Trucks)", "created_at": "Tue Jul 12 22:10:04 +0000 2016", "klabel": 120}}, {"geometry": {"type": "Point", "coordinates": [-79.5492102, 43.6106947]}, "type": "Feature", "id": 753012326907965440, "properties": {"loc": [-79.5492102, 43.6106947], "centroid": [-79.39305822062992, 43.68932524984252], "screen_name": "tpscalls", "time": 1468385103.0, "tid": 753012326907965440, "text": "Drunk | Brown\\'S Line &amp; Evans Ave [22 Div.] 07/12 19:41 #Alderwood #Toronto", "created_at": "Tue Jul 12 23:45:03 +0000 2016", "klabel": 120}}, {"geometry": {"type": "Point", "coordinates": [-79.5419342, 43.6202232]}, "type": "Feature", "id": 753123304379146240, "properties": {"loc": [-79.5419342, 43.6202232], "centroid": [-79.39305822062992, 43.68932524984252], "screen_name": "tpscalls", "time": 1468411562.0, "tid": 753123304379146240, "text": "Assault Just Occurred | Algie Ave &amp; Atomic Ave [22 Div.] 07/13 03:02 #Islington_City_Centre_West #Toronto", "created_at": "Wed Jul 13 07:06:02 +0000 2016", "klabel": 120}}, {"geometry": {"type": "Point", "coordinates": [-79.5508804, 43.607132]}, "type": "Feature", "id": 753205599714807808, "properties": {"loc": [-79.5508804, 43.607132], "centroid": [-79.39305822062992, 43.68932524984252], "screen_name": "tpscalls", "time": 1468431183.0, "tid": 753205599714807808, "text": "Break &amp; Enter | Evans Browns Li Ramp &amp; Gair Dr [22 Div.] 07/13 08:28 #Alderwood #Toronto", "created_at": "Wed Jul 13 12:33:03 +0000 2016", "klabel": 120}}, {"geometry": {"type": "Point", "coordinates": [-79.55662876, 43.60472237]}, "type": "Feature", "id": 753211521765822464, "properties": {"loc": [-79.55662876, 43.60472237], "centroid": [-79.39305822062992, 43.68932524984252], "screen_name": "Margocita", "time": 1468432595.0, "tid": 753211521765822464, "text": "I won't lie.  Too humid to make the whole trail today.  Even with\u2026 https://t.co/OcdKjlugy7", "created_at": "Wed Jul 13 12:56:35 +0000 2016", "klabel": 120}}, {"geometry": {"type": "Point", "coordinates": [-79.55662876, 43.60472237]}, "type": "Feature", "id": 753212011274645504, "properties": {"loc": [-79.55662876, 43.60472237], "centroid": [-79.39305822062992, 43.68932524984252], "screen_name": "Margocita", "time": 1468432712.0, "tid": 753212011274645504, "text": "LOVE.  It Cambridge found everywhere if you just look.  #morningwalk\u2026 https://t.co/BV3eQm9Lzr", "created_at": "Wed Jul 13 12:58:32 +0000 2016", "klabel": 120}}, {"geometry": {"type": "Point", "coordinates": [-79.5624101, 43.6274059]}, "type": "Feature", "id": 753217174840438784, "properties": {"loc": [-79.5624101, 43.6274059], "centroid": [-79.39305822062992, 43.68932524984252], "screen_name": "tpscalls", "time": 1468433943.0, "tid": 753217174840438784, "text": "Personal Injury Collision | Dundas St W &amp; West Mall Cres [HP] 07/13 09:12 #Eatonville #Toronto", "created_at": "Wed Jul 13 13:19:03 +0000 2016", "klabel": 120}}, {"geometry": {"type": "Point", "coordinates": [-79.561593, 43.6141311]}, "type": "Feature", "id": 753236252271325185, "properties": {"loc": [-79.561593, 43.6141311], "centroid": [-79.39305822062992, 43.68932524984252], "screen_name": "tmj_gta_hrta", "time": 1468438491.0, "tid": 753236252271325185, "text": "We're #hiring! Read about our latest #job opening here: Barista (CA) - https://t.co/QTNCUYuSCU 1950 THE QUEENSWAY, #ETOBICOKE, ON #Veterans", "created_at": "Wed Jul 13 14:34:51 +0000 2016", "klabel": 120}}, {"geometry": {"type": "Point", "coordinates": [-79.5574835, 43.6151912]}, "type": "Feature", "id": 753276180157992961, "properties": {"loc": [-79.5574835, 43.6151912], "centroid": [-79.39305822062992, 43.68932524984252], "screen_name": "tmj_gta_hrta", "time": 1468448011.0, "tid": 753276180157992961, "text": "We're #hiring! Click to apply: Barista (CA) - https://t.co/0fSUlbh3oW #Job #Hospitality 1750 The Queensway, #Etobicoke, ON #Veterans #Jobs", "created_at": "Wed Jul 13 17:13:31 +0000 2016", "klabel": 120}}, {"geometry": {"type": "Point", "coordinates": [-79.560642, 43.6097787]}, "type": "Feature", "id": 753306383198683137, "properties": {"loc": [-79.560642, 43.6097787], "centroid": [-79.39305822062992, 43.68932524984252], "screen_name": "Margocita", "time": 1468455212.0, "tid": 753306383198683137, "text": "Beating the heat. #readingbooks #indigoatsherway #peacefulmoments\u2026 https://t.co/V6HaHJNfA0", "created_at": "Wed Jul 13 19:13:32 +0000 2016", "klabel": 120}}, {"geometry": {"type": "Point", "coordinates": [-79.5498859, 43.6303116]}, "type": "Feature", "id": 753311806769225730, "properties": {"loc": [-79.5498859, 43.6303116], "centroid": [-79.39305822062992, 43.68932524984252], "screen_name": "tofire", "time": 1468456505.0, "tid": 753311806769225730, "text": "Vehicle (Personal Injury) - Dundas St West @ The East Mall, Etobicoke (2 Trucks)", "created_at": "Wed Jul 13 19:35:05 +0000 2016", "klabel": 120}}, {"geometry": {"type": "Point", "coordinates": [-79.5498859, 43.6303116]}, "type": "Feature", "id": 753311807691972608, "properties": {"loc": [-79.5498859, 43.6303116], "centroid": [-79.39305822062992, 43.68932524984252], "screen_name": "tofireW", "time": 1468456505.0, "tid": 753311807691972608, "text": "Vehicle (Personal Injury) - Dundas St West @ The East Mall, Etobicoke (2 Trucks)", "created_at": "Wed Jul 13 19:35:05 +0000 2016", "klabel": 120}}, {"geometry": {"type": "Point", "coordinates": [-79.5563113, 43.6143238]}, "type": "Feature", "id": 753314314719748096, "properties": {"loc": [-79.5563113, 43.6143238], "centroid": [-79.39305822062992, 43.68932524984252], "screen_name": "tpscalls", "time": 1468457103.0, "tid": 753314314719748096, "text": "Indecent Exposure | The Queensway &amp; North Queen St [22 Div.] 07/13 15:41 #Islington_City_Centre_West #Toronto", "created_at": "Wed Jul 13 19:45:03 +0000 2016", "klabel": 120}}, {"geometry": {"type": "Point", "coordinates": [-79.5492102, 43.6106947]}, "type": "Feature", "id": 753316581430685696, "properties": {"loc": [-79.5492102, 43.6106947], "centroid": [-79.39305822062992, 43.68932524984252], "screen_name": "tpscalls", "time": 1468457643.0, "tid": 753316581430685696, "text": "Property Damage Collision | Brown\\'S Line &amp; Evans Ave [HP] 07/13 15:50 #Alderwood #Toronto", "created_at": "Wed Jul 13 19:54:03 +0000 2016", "klabel": 120}}, {"geometry": {"type": "Point", "coordinates": [-79.5587631, 43.6083897]}, "type": "Feature", "id": 753323127761952769, "properties": {"loc": [-79.5587631, 43.6083897], "centroid": [-79.39305822062992, 43.68932524984252], "screen_name": "tofire", "time": 1468459204.0, "tid": 753323127761952769, "text": "Vehicle Accident (Minor Fuel Leak) - Evans Avenue @ The West Mall, Etobicoke (2 Trucks)", "created_at": "Wed Jul 13 20:20:04 +0000 2016", "klabel": 120}}, {"geometry": {"type": "Point", "coordinates": [-79.5587631, 43.6083897]}, "type": "Feature", "id": 753323128613404672, "properties": {"loc": [-79.5587631, 43.6083897], "centroid": [-79.39305822062992, 43.68932524984252], "screen_name": "tofireW", "time": 1468459204.0, "tid": 753323128613404672, "text": "Vehicle Accident (Minor Fuel Leak) - Evans Avenue @ The West Mall, Etobicoke (2 Trucks)", "created_at": "Wed Jul 13 20:20:04 +0000 2016", "klabel": 120}}, {"geometry": {"type": "Point", "coordinates": [-79.561429, 43.6107192]}, "type": "Feature", "id": 753339738220814336, "properties": {"loc": [-79.561429, 43.6107192], "centroid": [-79.39305822062992, 43.68932524984252], "screen_name": "tofireW", "time": 1468463164.0, "tid": 753339738220814336, "text": "Medical (Exposure) - The West Mall b/w Sherway Gardens Road / Hepc, Etobicoke (2 Trucks)", "created_at": "Wed Jul 13 21:26:04 +0000 2016", "klabel": 120}}, {"geometry": {"type": "Point", "coordinates": [-79.5599945, 43.6160419]}, "type": "Feature", "id": 753343378314539008, "properties": {"loc": [-79.5599945, 43.6160419], "centroid": [-79.39305822062992, 43.68932524984252], "screen_name": "tmj_gta_retail", "time": 1468464032.0, "tid": 753343378314539008, "text": "See our latest #Etobicoke, ON #job and click to apply: Merchandise Processing Coordinator - https://t.co/BXjg4EoMhk #Retail #Hiring", "created_at": "Wed Jul 13 21:40:32 +0000 2016", "klabel": 120}}, {"geometry": {"type": "Point", "coordinates": [-79.5416599, 43.61731]}, "type": "Feature", "id": 753356806152392704, "properties": {"loc": [-79.5416599, 43.61731], "centroid": [-79.39305822062992, 43.68932524984252], "screen_name": "lindsayreid87", "time": 1468467233.0, "tid": 753356806152392704, "text": "Views from the 35 HL bright tank \ud83c\udf7b\ud83e\udd18\ud83d\ude19 filling tanks and crossing our fingers they let us brew\u2026 https://t.co/wXw4Z1BFtB", "created_at": "Wed Jul 13 22:33:53 +0000 2016", "klabel": 120}}, {"geometry": {"type": "Point", "coordinates": [-79.5599945, 43.6160419]}, "type": "Feature", "id": 753572473757507589, "properties": {"loc": [-79.5599945, 43.6160419], "centroid": [-79.39305822062992, 43.68932524984252], "screen_name": "tmj_gta_retail", "time": 1468518653.0, "tid": 753572473757507589, "text": "We're #hiring! Click to apply: Store Associate - https://t.co/IlmiEcmnPY #Job #Retail #Etobicoke, ON #Jobs #CareerArc", "created_at": "Thu Jul 14 12:50:53 +0000 2016", "klabel": 120}}, {"geometry": {"type": "Point", "coordinates": [-79.5568318, 43.611364]}, "type": "Feature", "id": 753606631158460416, "properties": {"loc": [-79.5568318, 43.611364], "centroid": [-79.39305822062992, 43.68932524984252], "screen_name": "tmj_usa_sales", "time": 1468526796.0, "tid": 753606631158460416, "text": "We're #hiring! Click to apply: Sales Associate, J.Crew Retail, Sherway Gardens - https://t.co/0kkoCyBRM7 #Job #Sales #Toronto, ON #Jobs", "created_at": "Thu Jul 14 15:06:36 +0000 2016", "klabel": 120}}, {"geometry": {"type": "Point", "coordinates": [-79.5599945, 43.6160419]}, "type": "Feature", "id": 753611116727590914, "properties": {"loc": [-79.5599945, 43.6160419], "centroid": [-79.39305822062992, 43.68932524984252], "screen_name": "tmj_gta_retail", "time": 1468527866.0, "tid": 753611116727590914, "text": "Want to work in #Etobicoke, ON? View our latest opening: https://t.co/6hEQH5PR5I #Job #Retail #Jobs #Hiring #CareerArc", "created_at": "Thu Jul 14 15:24:26 +0000 2016", "klabel": 120}}, {"geometry": {"type": "Point", "coordinates": [-79.560904, 43.609928]}, "type": "Feature", "id": 753625680898846720, "properties": {"loc": [-79.560904, 43.609928], "centroid": [-79.39305822062992, 43.68932524984252], "screen_name": "foodfeed_winc", "time": 1468531338.0, "tid": 753625680898846720, "text": "The all new Envivo Lungo, full body with a long intensity. I've quitted my daily coffee routine\u2026 https://t.co/NPW0R9LlYl", "created_at": "Thu Jul 14 16:22:18 +0000 2016", "klabel": 120}}, {"geometry": {"type": "Point", "coordinates": [-79.5568318, 43.611364]}, "type": "Feature", "id": 753627892727160833, "properties": {"loc": [-79.5568318, 43.611364], "centroid": [-79.39305822062992, 43.68932524984252], "screen_name": "tmj_usa_retail", "time": 1468531866.0, "tid": 753627892727160833, "text": "Can you recommend anyone for this #job? Associate Manager, J.Crew Retail, Sherway Gardens - https://t.co/46PnCqoEIq #Retail #Toronto, ON", "created_at": "Thu Jul 14 16:31:06 +0000 2016", "klabel": 120}}, {"geometry": {"type": "Point", "coordinates": [-79.5599945, 43.6160419]}, "type": "Feature", "id": 753678067973758980, "properties": {"loc": [-79.5599945, 43.6160419], "centroid": [-79.39305822062992, 43.68932524984252], "screen_name": "tmj_gta_retail", "time": 1468543828.0, "tid": 753678067973758980, "text": "Join the TJX Canada team! See our latest #job opening here: https://t.co/XsSRh1pJ1T #Retail #Etobicoke, ON #Hiring #CareerArc", "created_at": "Thu Jul 14 19:50:28 +0000 2016", "klabel": 120}}, {"geometry": {"type": "Point", "coordinates": [-79.5575746, 43.6159508]}, "type": "Feature", "id": 753684501402886144, "properties": {"loc": [-79.5575746, 43.6159508], "centroid": [-79.39305822062992, 43.68932524984252], "screen_name": "tpscalls", "time": 1468545362.0, "tid": 753684501402886144, "text": "Arrest | Hepc &amp; Nova Rd [22 Div.] 07/14 16:09 #Islington_City_Centre_West #Toronto", "created_at": "Thu Jul 14 20:16:02 +0000 2016", "klabel": 120}}, {"geometry": {"type": "Point", "coordinates": [-79.5719983, 43.62054437]}, "type": "Feature", "id": 753685515107463168, "properties": {"loc": [-79.5719983, 43.62054437], "centroid": [-79.39305822062992, 43.68932524984252], "screen_name": "HRSGTA", "time": 1468545604.0, "tid": 753685515107463168, "text": "Now In Stock at @HRSGTA\nThe @maruccisports Cutch 22 Pro Maple bat model\n\n#Repost @maruccisports\u2026 https://t.co/tZ1dXPMF3z", "created_at": "Thu Jul 14 20:20:04 +0000 2016", "klabel": 120}}, {"geometry": {"type": "Point", "coordinates": [-79.55704451, 43.61178176]}, "type": "Feature", "id": 753726485224103940, "properties": {"loc": [-79.55704451, 43.61178176], "centroid": [-79.39305822062992, 43.68932524984252], "screen_name": "Drewber66", "time": 1468555372.0, "tid": 753726485224103940, "text": "I'm at @Sherway_Gardens in Etobicoke, ON https://t.co/srtdNxFpZg", "created_at": "Thu Jul 14 23:02:52 +0000 2016", "klabel": 120}}, {"geometry": {"type": "Point", "coordinates": [-79.557538, 43.614542]}, "type": "Feature", "id": 753731085108965376, "properties": {"loc": [-79.557538, 43.614542], "centroid": [-79.39305822062992, 43.68932524984252], "screen_name": "dchavezodar", "time": 1468556468.0, "tid": 753731085108965376, "text": "I'm at LCBO in Toronto, ON https://t.co/QK9Vyj9xoq", "created_at": "Thu Jul 14 23:21:08 +0000 2016", "klabel": 120}}, {"geometry": {"type": "Point", "coordinates": [-79.55702113, 43.61167031]}, "type": "Feature", "id": 753759646616289281, "properties": {"loc": [-79.55702113, 43.61167031], "centroid": [-79.39305822062992, 43.68932524984252], "screen_name": "SiddiquiWaleed", "time": 1468563278.0, "tid": 753759646616289281, "text": "Just posted a video @ Sherway Gardens Shopping Centre https://t.co/x6MPSAbkNE", "created_at": "Fri Jul 15 01:14:38 +0000 2016", "klabel": 120}}, {"geometry": {"type": "Point", "coordinates": [-79.55002, 43.61893]}, "type": "Feature", "id": 753784033264406528, "properties": {"loc": [-79.55002, 43.61893], "centroid": [-79.39305822062992, 43.68932524984252], "screen_name": "NManias", "time": 1468569092.0, "tid": 753784033264406528, "text": "\ud83d\udc12 @ Boulderz Climbing Centre - Etobicoke https://t.co/JUIsydE3vO", "created_at": "Fri Jul 15 02:51:32 +0000 2016", "klabel": 120}}, {"geometry": {"type": "Point", "coordinates": [-79.56003249, 43.60916]}, "type": "Feature", "id": 753916149054701568, "properties": {"loc": [-79.56003249, 43.60916], "centroid": [-79.39305822062992, 43.68932524984252], "screen_name": "JaylixPorter", "time": 1468600591.0, "tid": 753916149054701568, "text": "I'm at @TimHortonsNews in Toronto, ON https://t.co/hYzTLt0FYM", "created_at": "Fri Jul 15 11:36:31 +0000 2016", "klabel": 120}}, {"geometry": {"type": "Point", "coordinates": [-79.5599945, 43.6160419]}, "type": "Feature", "id": 753981992044068864, "properties": {"loc": [-79.5599945, 43.6160419], "centroid": [-79.39305822062992, 43.68932524984252], "screen_name": "tmj_gta_retail", "time": 1468616289.0, "tid": 753981992044068864, "text": "See our latest #Etobicoke, ON #job and click to apply: Merchandise Coordinator - https://t.co/4oaGsQmMhe #Retail #Hiring #CareerArc", "created_at": "Fri Jul 15 15:58:09 +0000 2016", "klabel": 120}}, {"geometry": {"type": "Point", "coordinates": [-79.55876624, 43.61861929]}, "type": "Feature", "id": 754030644347408384, "properties": {"loc": [-79.55876624, 43.61861929], "centroid": [-79.39305822062992, 43.68932524984252], "screen_name": "December_Song", "time": 1468627889.0, "tid": 754030644347408384, "text": "I'm at Dollarama in Etobicoke, Ontario https://t.co/xrwCm70DoC", "created_at": "Fri Jul 15 19:11:29 +0000 2016", "klabel": 120}}, {"geometry": {"type": "Point", "coordinates": [-79.5568318, 43.611364]}, "type": "Feature", "id": 754044119085830144, "properties": {"loc": [-79.5568318, 43.611364], "centroid": [-79.39305822062992, 43.68932524984252], "screen_name": "tmj_usa_sales", "time": 1468631102.0, "tid": 754044119085830144, "text": "Want to work in #Toronto, ON? View our latest opening: https://t.co/q9eHQLjw9w #Job #Sales #Jobs #Hiring #CareerArc", "created_at": "Fri Jul 15 20:05:02 +0000 2016", "klabel": 120}}, {"geometry": {"type": "Point", "coordinates": [-79.5575746, 43.6159508]}, "type": "Feature", "id": 754045886926381061, "properties": {"loc": [-79.5575746, 43.6159508], "centroid": [-79.39305822062992, 43.68932524984252], "screen_name": "tpscalls", "time": 1468631523.0, "tid": 754045886926381061, "text": "Arrest | Nova Rd &amp; The Queensway [22 Div.] 07/15 16:07 #Islington_City_Centre_West #Toronto", "created_at": "Fri Jul 15 20:12:03 +0000 2016", "klabel": 120}}, {"geometry": {"type": "Point", "coordinates": [-79.54771, 43.61705]}, "type": "Feature", "id": 754163482312839169, "properties": {"loc": [-79.54771, 43.61705], "centroid": [-79.39305822062992, 43.68932524984252], "screen_name": "beautyparler", "time": 1468659560.0, "tid": 754163482312839169, "text": "One of the best #choripan sandwiches @chebabyto tonight! Gracias! #foodtruck #torontoeats\u2026 https://t.co/fggN4CvfV7", "created_at": "Sat Jul 16 03:59:20 +0000 2016", "klabel": 120}}, {"geometry": {"type": "Point", "coordinates": [-79.5582509, 43.6094688]}, "type": "Feature", "id": 754288239763034112, "properties": {"loc": [-79.5582509, 43.6094688], "centroid": [-79.39305822062992, 43.68932524984252], "screen_name": "madebyhana", "time": 1468689305.0, "tid": 754288239763034112, "text": "Grand Bridal Gowns For A Fairy Tale Wedding https://t.co/D8WaodGsd7 #toronto #wedding #bridal #weddingdress", "created_at": "Sat Jul 16 12:15:05 +0000 2016", "klabel": 120}}, {"geometry": {"type": "Point", "coordinates": [-79.55643388, 43.61297676]}, "type": "Feature", "id": 754377346745044994, "properties": {"loc": [-79.55643388, 43.61297676], "centroid": [-79.39305822062992, 43.68932524984252], "screen_name": "TheOneTrueDave", "time": 1468710549.0, "tid": 754377346745044994, "text": "Lunch! (@ JOEY Sherway - @joeyrestaurants in Etobicoke, Ontario) https://t.co/Ip87AieUWN", "created_at": "Sat Jul 16 18:09:09 +0000 2016", "klabel": 120}}, {"geometry": {"type": "Point", "coordinates": [-79.55702113, 43.61167031]}, "type": "Feature", "id": 754380825282609152, "properties": {"loc": [-79.55702113, 43.61167031], "centroid": [-79.39305822062992, 43.68932524984252], "screen_name": "londalarmond", "time": 1468711379.0, "tid": 754380825282609152, "text": "Have a great weekend!!!! #exceedingabundance2016 @ Sherway Gardens Shopping Centre https://t.co/eQ0lnEKhQq", "created_at": "Sat Jul 16 18:22:59 +0000 2016", "klabel": 120}}, {"geometry": {"type": "Point", "coordinates": [-79.560642, 43.6097787]}, "type": "Feature", "id": 754390160381321216, "properties": {"loc": [-79.560642, 43.6097787], "centroid": [-79.39305822062992, 43.68932524984252], "screen_name": "sanzana_xo", "time": 1468713604.0, "tid": 754390160381321216, "text": "Spent a good 45 colouring clouds today with such a wonderful associate (I wish I knew her name)!\u2026 https://t.co/HPBOkyqGVB", "created_at": "Sat Jul 16 19:00:04 +0000 2016", "klabel": 120}}, {"geometry": {"type": "Point", "coordinates": [-79.5568671, 43.6112889]}, "type": "Feature", "id": 754400082213036033, "properties": {"loc": [-79.5568671, 43.6112889], "centroid": [-79.39305822062992, 43.68932524984252], "screen_name": "tmj_gta_hrta", "time": 1468715970.0, "tid": 754400082213036033, "text": "If you're looking for work in , check out this #job: https://t.co/1rii5RBUZv #Hospitality #Veterans #Hiring #CareerArc", "created_at": "Sat Jul 16 19:39:30 +0000 2016", "klabel": 120}}, {"geometry": {"type": "Point", "coordinates": [-79.556926, 43.616159]}, "type": "Feature", "id": 754405838241067008, "properties": {"loc": [-79.556926, 43.616159], "centroid": [-79.39305822062992, 43.68932524984252], "screen_name": "sabbyli", "time": 1468717342.0, "tid": 754405838241067008, "text": "The VR is fun!! #PSVR #sony @ EB Games https://t.co/CcVLdCl3SS", "created_at": "Sat Jul 16 20:02:22 +0000 2016", "klabel": 120}}, {"geometry": {"type": "Point", "coordinates": [-79.560642, 43.6097787]}, "type": "Feature", "id": 754447603522080768, "properties": {"loc": [-79.560642, 43.6097787], "centroid": [-79.39305822062992, 43.68932524984252], "screen_name": "HaroldLi", "time": 1468727300.0, "tid": 754447603522080768, "text": "#beaumontlicious @ Beaumont Kitchen https://t.co/08cpi5KKAE", "created_at": "Sat Jul 16 22:48:20 +0000 2016", "klabel": 120}}, {"geometry": {"type": "Point", "coordinates": [-79.552565, 43.632141]}, "type": "Feature", "id": 754448901520908288, "properties": {"loc": [-79.552565, 43.632141], "centroid": [-79.39305822062992, 43.68932524984252], "screen_name": "dchavezodar", "time": 1468727609.0, "tid": 754448901520908288, "text": "I'm at Scruffy Murphy's in Toronto, ON https://t.co/HiNCN5gRUA", "created_at": "Sat Jul 16 22:53:29 +0000 2016", "klabel": 120}}, {"geometry": {"type": "Point", "coordinates": [-79.54884, 43.62108]}, "type": "Feature", "id": 754515450336116736, "properties": {"loc": [-79.54884, 43.62108], "centroid": [-79.39305822062992, 43.68932524984252], "screen_name": "MrDevonWright", "time": 1468743476.0, "tid": 754515450336116736, "text": "Yup. Ultron is me. I am Ultron. @ E Zone https://t.co/uhcn6WJgOe", "created_at": "Sun Jul 17 03:17:56 +0000 2016", "klabel": 120}}, {"geometry": {"type": "Point", "coordinates": [-79.5582168, 43.6094684]}, "type": "Feature", "id": 754650621395873792, "properties": {"loc": [-79.5582168, 43.6094684], "centroid": [-79.39305822062992, 43.68932524984252], "screen_name": "madebyhana", "time": 1468775703.0, "tid": 754650621395873792, "text": "12 celebrities who didn't wear white! https://t.co/TVHlksqf6i #wedding #weddingdress #bridal", "created_at": "Sun Jul 17 12:15:03 +0000 2016", "klabel": 120}}, {"geometry": {"type": "Point", "coordinates": [-79.5568671, 43.6112889]}, "type": "Feature", "id": 754659756866801664, "properties": {"loc": [-79.5568671, 43.6112889], "centroid": [-79.39305822062992, 43.68932524984252], "screen_name": "tmj_gta_hrta", "time": 1468777881.0, "tid": 754659756866801664, "text": "See our latest #job and click to apply: Barista (CA) - https://t.co/l5Cn0gsWbB #Hospitality #Veterans #Hiring #CareerArc", "created_at": "Sun Jul 17 12:51:21 +0000 2016", "klabel": 120}}, {"geometry": {"type": "Point", "coordinates": [-79.55775, 43.61905]}, "type": "Feature", "id": 754746064196866049, "properties": {"loc": [-79.55775, 43.61905], "centroid": [-79.39305822062992, 43.68932524984252], "screen_name": "JulianH89", "time": 1468798458.0, "tid": 754746064196866049, "text": "At @michaelsstores \u2014 https://t.co/a289kyExuy", "created_at": "Sun Jul 17 18:34:18 +0000 2016", "klabel": 120}}, {"geometry": {"type": "Point", "coordinates": [-79.55433462, 43.61953663]}, "type": "Feature", "id": 754819042159030272, "properties": {"loc": [-79.55433462, 43.61953663], "centroid": [-79.39305822062992, 43.68932524984252], "screen_name": "D0Y0Ulive", "time": 1468815858.0, "tid": 754819042159030272, "text": "Bomproveito! Reveling in some Portuguese/ Mozambique dishes while riding this city\u2026 https://t.co/KFIM3OkgAv", "created_at": "Sun Jul 17 23:24:18 +0000 2016", "klabel": 120}}, {"geometry": {"type": "Point", "coordinates": [-79.547618, 43.632734]}, "type": "Feature", "id": 754830308139266048, "properties": {"loc": [-79.547618, 43.632734], "centroid": [-79.39305822062992, 43.68932524984252], "screen_name": "tpscalls", "time": 1468818544.0, "tid": 754830308139266048, "text": "Natural Gas Leak | Maypole St &amp; Markhall Ave [22 Div.] 07/17 20:04 #Eatonville #Toronto", "created_at": "Mon Jul 18 00:09:04 +0000 2016", "klabel": 120}}, {"geometry": {"type": "Point", "coordinates": [-79.55584, 43.61464]}, "type": "Feature", "id": 755052735104442368, "properties": {"loc": [-79.55584, 43.61464], "centroid": [-79.39305822062992, 43.68932524984252], "screen_name": "BierMarktQueens", "time": 1468871574.0, "tid": 755052735104442368, "text": "Bier: master ventriloquist of the human species. Bier can talk and it wants to #patio &amp; #party |\u2026 https://t.co/CVSdVYPLUo", "created_at": "Mon Jul 18 14:52:54 +0000 2016", "klabel": 120}}, {"geometry": {"type": "Point", "coordinates": [-79.5541822, 43.60805999]}, "type": "Feature", "id": 755139304331051008, "properties": {"loc": [-79.5541822, 43.60805999], "centroid": [-79.39305822062992, 43.68932524984252], "screen_name": "PieCommish", "time": 1468892214.0, "tid": 755139304331051008, "text": "Our latest Sausage Roll collab is probably the best one yet!!  @beausallnatural Lug 'n Cheddar\u2026 https://t.co/0Ggki8tGSp", "created_at": "Mon Jul 18 20:36:54 +0000 2016", "klabel": 120}}, {"geometry": {"type": "Point", "coordinates": [-79.57046, 43.6173]}, "type": "Feature", "id": 755166727428767744, "properties": {"loc": [-79.57046, 43.6173], "centroid": [-79.39305822062992, 43.68932524984252], "screen_name": "paulbuceta", "time": 1468898752.0, "tid": 755166727428767744, "text": "Awesome day shooting with c0rtyblue today. Styling by olivealextinka \nMake up and hair by\u2026 https://t.co/UpQh6E6E0E", "created_at": "Mon Jul 18 22:25:52 +0000 2016", "klabel": 120}}, {"geometry": {"type": "Point", "coordinates": [-79.564441, 43.6269725]}, "type": "Feature", "id": 755330655370653696, "properties": {"loc": [-79.564441, 43.6269725], "centroid": [-79.39305822062992, 43.68932524984252], "screen_name": "FashionTruckCda", "time": 1468937836.0, "tid": 755330655370653696, "text": "OPEN TONIGHT!! \n\nCatch us along with lydz1976 from Stella and Dot at the Ceaderhouse Spa in\u2026 https://t.co/9pyBKED7wy", "created_at": "Tue Jul 19 09:17:16 +0000 2016", "klabel": 120}}, {"geometry": {"type": "Point", "coordinates": [-79.561593, 43.6141311]}, "type": "Feature", "id": 755421266010525696, "properties": {"loc": [-79.561593, 43.6141311], "centroid": [-79.39305822062992, 43.68932524984252], "screen_name": "tmj_gta_hrta", "time": 1468959439.0, "tid": 755421266010525696, "text": "Want to work in 1950 THE QUEENSWAY, #ETOBICOKE, ON? View our latest opening: https://t.co/QTNCUYuSCU #Job #Hospitality #Veterans #Jobs", "created_at": "Tue Jul 19 15:17:19 +0000 2016", "klabel": 120}}, {"geometry": {"type": "Point", "coordinates": [-79.5568318, 43.611364]}, "type": "Feature", "id": 755495012503162880, "properties": {"loc": [-79.5568318, 43.611364], "centroid": [-79.39305822062992, 43.68932524984252], "screen_name": "jcrew_jobs", "time": 1468977022.0, "tid": 755495012503162880, "text": "We're #hiring! Click to apply: Sales Associate, J.Crew Retail, Sherway Gardens - https://t.co/6ne0DO78uY #Job #Sales #Toronto, ON #Jobs", "created_at": "Tue Jul 19 20:10:22 +0000 2016", "klabel": 120}}, {"geometry": {"type": "Point", "coordinates": [-79.55702113, 43.61167031]}, "type": "Feature", "id": 755495851489976320, "properties": {"loc": [-79.55702113, 43.61167031], "centroid": [-79.39305822062992, 43.68932524984252], "screen_name": "GConnaughton", "time": 1468977222.0, "tid": 755495851489976320, "text": "I was just going to throw out a pair of jeans in similar condition..... @ Sherway Gardens\u2026 https://t.co/lOLfh8vmyH", "created_at": "Tue Jul 19 20:13:42 +0000 2016", "klabel": 120}}, {"geometry": {"type": "Point", "coordinates": [-79.5574835, 43.6151912]}, "type": "Feature", "id": 755516328740397057, "properties": {"loc": [-79.5574835, 43.6151912], "centroid": [-79.39305822062992, 43.68932524984252], "screen_name": "tmj_gta_hrta", "time": 1468982104.0, "tid": 755516328740397057, "text": "See our latest 1750 The Queensway, #Etobicoke, ON #job and click to apply: Shift Supervisor (CA) - https://t.co/yerJVoDoXQ #Hospitality", "created_at": "Tue Jul 19 21:35:04 +0000 2016", "klabel": 120}}, {"geometry": {"type": "Point", "coordinates": [-79.55457977, 43.61211214]}, "type": "Feature", "id": 755627587922227200, "properties": {"loc": [-79.55457977, 43.61211214], "centroid": [-79.39305822062992, 43.68932524984252], "screen_name": "Maryoumi25", "time": 1469008630.0, "tid": 755627587922227200, "text": "Sides For Today Include Turkey Sandwich And Cucumber And I Think Like Cupcakes Count! #Turkey\u2026 https://t.co/aX69tWFpE6", "created_at": "Wed Jul 20 04:57:10 +0000 2016", "klabel": 120}}, {"geometry": {"type": "Point", "coordinates": [-79.5568318, 43.611364]}, "type": "Feature", "id": 755658215694733312, "properties": {"loc": [-79.5568318, 43.611364], "centroid": [-79.39305822062992, 43.68932524984252], "screen_name": "jcrew_jobs", "time": 1469015932.0, "tid": 755658215694733312, "text": "See our latest #Toronto, ON #job and click to apply: Associate Manager, J.Crew Retail, Sherway Gardens - https://t.co/EhwWM1lnWU #Retail", "created_at": "Wed Jul 20 06:58:52 +0000 2016", "klabel": 120}}, {"geometry": {"type": "Point", "coordinates": [-79.55002, 43.61893]}, "type": "Feature", "id": 755735940476375041, "properties": {"loc": [-79.55002, 43.61893], "centroid": [-79.39305822062992, 43.68932524984252], "screen_name": "boulderzer", "time": 1469034463.0, "tid": 755735940476375041, "text": "We are hosting a Large Group TODAY 12noon-2pm Best to come in after\u2026 https://t.co/VbDjuejeSU", "created_at": "Wed Jul 20 12:07:43 +0000 2016", "klabel": 120}}, {"geometry": {"type": "Point", "coordinates": [-79.5599945, 43.6160419]}, "type": "Feature", "id": 755750661652828162, "properties": {"loc": [-79.5599945, 43.6160419], "centroid": [-79.39305822062992, 43.68932524984252], "screen_name": "tmj_gta_retail", "time": 1469037973.0, "tid": 755750661652828162, "text": "Want to work at TJX Canada? We're #hiring in #Etobicoke, ON! Click for details: https://t.co/BXjg4EoMhk #Job #Retail #Jobs #CareerArc", "created_at": "Wed Jul 20 13:06:13 +0000 2016", "klabel": 120}}, {"geometry": {"type": "Point", "coordinates": [-79.5599945, 43.6160419]}, "type": "Feature", "id": 755768677786464257, "properties": {"loc": [-79.5599945, 43.6160419], "centroid": [-79.39305822062992, 43.68932524984252], "screen_name": "tmj_gta_retail", "time": 1469042268.0, "tid": 755768677786464257, "text": "Want to work in #Etobicoke, ON? View our latest opening: https://t.co/IlmiEcmnPY #Job #Retail #Jobs #Hiring #CareerArc", "created_at": "Wed Jul 20 14:17:48 +0000 2016", "klabel": 120}}, {"geometry": {"type": "Point", "coordinates": [-79.5568318, 43.611364]}, "type": "Feature", "id": 755794997497114624, "properties": {"loc": [-79.5568318, 43.611364], "centroid": [-79.39305822062992, 43.68932524984252], "screen_name": "jcrew_jobs", "time": 1469048544.0, "tid": 755794997497114624, "text": "Interested in a #job near #Toronto, ON? This could be a great fit: https://t.co/f9HkHaRK1S #Retail #Hiring", "created_at": "Wed Jul 20 16:02:24 +0000 2016", "klabel": 120}}, {"geometry": {"type": "Point", "coordinates": [-79.5599945, 43.6160419]}, "type": "Feature", "id": 755805915861835776, "properties": {"loc": [-79.5599945, 43.6160419], "centroid": [-79.39305822062992, 43.68932524984252], "screen_name": "tmj_gta_retail", "time": 1469051147.0, "tid": 755805915861835776, "text": "Want to work at TJX Canada? We're #hiring in #Etobicoke, ON! Click for details: https://t.co/6hEQH5PR5I #Job #Retail #Jobs #CareerArc", "created_at": "Wed Jul 20 16:45:47 +0000 2016", "klabel": 120}}, {"geometry": {"type": "Point", "coordinates": [-79.5563979, 43.61302283]}, "type": "Feature", "id": 755824178197069824, "properties": {"loc": [-79.5563979, 43.61302283], "centroid": [-79.39305822062992, 43.68932524984252], "screen_name": "sheroncrane", "time": 1469055501.0, "tid": 755824178197069824, "text": "Can't believe of all the ramen I've tried this one might actually be my favourite! OMG so good!\u2026 https://t.co/coq0kPVBPz", "created_at": "Wed Jul 20 17:58:21 +0000 2016", "klabel": 120}}, {"geometry": {"type": "Point", "coordinates": [-79.5715633, 43.6209995]}, "type": "Feature", "id": 755845418953564161, "properties": {"loc": [-79.5715633, 43.6209995], "centroid": [-79.39305822062992, 43.68932524984252], "screen_name": "HRSGTA", "time": 1469060565.0, "tid": 755845418953564161, "text": "Happy #WilsonWednesday at all!  Check out this flashy wilsonballglove #CustomA2000 that came\u2026 https://t.co/4hp6R3RNFq", "created_at": "Wed Jul 20 19:22:45 +0000 2016", "klabel": 120}}, {"geometry": {"type": "Point", "coordinates": [-79.5536889, 43.6323091]}, "type": "Feature", "id": 755892820397985796, "properties": {"loc": [-79.5536889, 43.6323091], "centroid": [-79.39305822062992, 43.68932524984252], "screen_name": "tofire", "time": 1469071866.0, "tid": 755892820397985796, "text": "Check Call - The East Mall b/w Yarn Road / Lynnford Dr, Etobicoke (2 Trucks)", "created_at": "Wed Jul 20 22:31:06 +0000 2016", "klabel": 120}}, {"geometry": {"type": "Point", "coordinates": [-79.560642, 43.6097787]}, "type": "Feature", "id": 755920780622454784, "properties": {"loc": [-79.560642, 43.6097787], "centroid": [-79.39305822062992, 43.68932524984252], "screen_name": "jsquaredink", "time": 1469078533.0, "tid": 755920780622454784, "text": "a spot of indigo\n #readthenorth  \n #booknook @ Indigo CF Sherway Gardens https://t.co/RyKpimu25h", "created_at": "Thu Jul 21 00:22:13 +0000 2016", "klabel": 120}}, {"geometry": {"type": "Point", "coordinates": [-79.5568318, 43.611364]}, "type": "Feature", "id": 756030357980405760, "properties": {"loc": [-79.5568318, 43.611364], "centroid": [-79.39305822062992, 43.68932524984252], "screen_name": "jcrew_jobs", "time": 1469104658.0, "tid": 756030357980405760, "text": "Interested in a #job near #Toronto, ON? This could be a great fit: https://t.co/bjFrjogTSR #Sales #Hiring", "created_at": "Thu Jul 21 07:37:38 +0000 2016", "klabel": 120}}, {"geometry": {"type": "Point", "coordinates": [-79.57046, 43.6173]}, "type": "Feature", "id": 756091039832834048, "properties": {"loc": [-79.57046, 43.6173], "centroid": [-79.39305822062992, 43.68932524984252], "screen_name": "paulbuceta", "time": 1469119126.0, "tid": 756091039832834048, "text": "@bunnyazzopardi looking awesome as always. Make up and hair by @monicakalra \n#paulbuceta\u2026 https://t.co/0tNiwOc2e5", "created_at": "Thu Jul 21 11:38:46 +0000 2016", "klabel": 120}}, {"geometry": {"type": "Point", "coordinates": [-79.5416599, 43.61731]}, "type": "Feature", "id": 756123511295533056, "properties": {"loc": [-79.5416599, 43.61731], "centroid": [-79.39305822062992, 43.68932524984252], "screen_name": "lindsayreid87", "time": 1469126867.0, "tid": 756123511295533056, "text": "This beautiful girl is keeping us company today at the brewery. Introducing Miss Tallulah our\u2026 https://t.co/wAkT0WLng3", "created_at": "Thu Jul 21 13:47:47 +0000 2016", "klabel": 120}}, {"geometry": {"type": "Point", "coordinates": [-79.540606, 43.6224597]}, "type": "Feature", "id": 756149493045821440, "properties": {"loc": [-79.540606, 43.6224597], "centroid": [-79.39305822062992, 43.68932524984252], "screen_name": "tpscalls", "time": 1469133062.0, "tid": 756149493045821440, "text": "See Ambulance | North Queen St &amp; Shorncliffe Rd [22 Div.] 07/21 11:24 #Islington_City_Centre_West #Toronto", "created_at": "Thu Jul 21 15:31:02 +0000 2016", "klabel": 120}}, {"geometry": {"type": "Point", "coordinates": [-79.5599945, 43.6160419]}, "type": "Feature", "id": 756169161923887104, "properties": {"loc": [-79.5599945, 43.6160419], "centroid": [-79.39305822062992, 43.68932524984252], "screen_name": "tmj_gta_retail", "time": 1469137751.0, "tid": 756169161923887104, "text": "Want to work at TJX Canada? We're #hiring in #Etobicoke, ON! Click for details: https://t.co/XsSRh1pJ1T #Job #Retail #Jobs #CareerArc", "created_at": "Thu Jul 21 16:49:11 +0000 2016", "klabel": 120}}, {"geometry": {"type": "Point", "coordinates": [-79.5426, 43.6220216]}, "type": "Feature", "id": 756202350436646912, "properties": {"loc": [-79.5426, 43.6220216], "centroid": [-79.39305822062992, 43.68932524984252], "screen_name": "tofireW", "time": 1469145664.0, "tid": 756202350436646912, "text": "Fire (Grass/rubbish) - North Queen St @ Atomic Avenue, Etobicoke (2 Trucks)", "created_at": "Thu Jul 21 19:01:04 +0000 2016", "klabel": 120}}, {"geometry": {"type": "Point", "coordinates": [-79.5568318, 43.611364]}, "type": "Feature", "id": 756204193778585605, "properties": {"loc": [-79.5568318, 43.611364], "centroid": [-79.39305822062992, 43.68932524984252], "screen_name": "tmj_usa_sales", "time": 1469146104.0, "tid": 756204193778585605, "text": "This #job might be a great fit for you: Sales Associate, J.Crew Retail, Sherway Gardens - https://t.co/0kkoCyBRM7 #Sales #Toronto, ON", "created_at": "Thu Jul 21 19:08:24 +0000 2016", "klabel": 120}}, {"geometry": {"type": "Point", "coordinates": [-79.5426, 43.6220216]}, "type": "Feature", "id": 756205363096121344, "properties": {"loc": [-79.5426, 43.6220216], "centroid": [-79.39305822062992, 43.68932524984252], "screen_name": "tpscalls", "time": 1469146382.0, "tid": 756205363096121344, "text": "Fire | North Queen St &amp; Atomic Ave [22 Div.] 07/21 15:08 #Islington_City_Centre_West #Toronto", "created_at": "Thu Jul 21 19:13:02 +0000 2016", "klabel": 120}}, {"geometry": {"type": "Point", "coordinates": [-79.5568318, 43.611364]}, "type": "Feature", "id": 756221868248489984, "properties": {"loc": [-79.5568318, 43.611364], "centroid": [-79.39305822062992, 43.68932524984252], "screen_name": "tmj_usa_retail", "time": 1469150317.0, "tid": 756221868248489984, "text": "Can you recommend anyone for this #job? https://t.co/46PnCqoEIq #Retail #Toronto, ON #Hiring #CareerArc", "created_at": "Thu Jul 21 20:18:37 +0000 2016", "klabel": 120}}, {"geometry": {"type": "Point", "coordinates": [-79.56266, 43.6122446]}, "type": "Feature", "id": 756229781499371520, "properties": {"loc": [-79.56266, 43.6122446], "centroid": [-79.39305822062992, 43.68932524984252], "screen_name": "tofireW", "time": 1469152204.0, "tid": 756229781499371520, "text": "Vehicle (Personal Injury) - The West Mall @ The Queensway, Etobicoke (2 Trucks)", "created_at": "Thu Jul 21 20:50:04 +0000 2016", "klabel": 120}}, {"geometry": {"type": "Point", "coordinates": [-79.56266, 43.6122446]}, "type": "Feature", "id": 756231033440313344, "properties": {"loc": [-79.56266, 43.6122446], "centroid": [-79.39305822062992, 43.68932524984252], "screen_name": "tpscalls", "time": 1469152503.0, "tid": 756231033440313344, "text": "Personal Injury Collision | The West Mall &amp; The Queensway [HP] 07/21 16:49 #Islington_City_Centre_West #Toronto", "created_at": "Thu Jul 21 20:55:03 +0000 2016", "klabel": 120}}, {"geometry": {"type": "Point", "coordinates": [-79.54395, 43.6227]}, "type": "Feature", "id": 756255289704407040, "properties": {"loc": [-79.54395, 43.6227], "centroid": [-79.39305822062992, 43.68932524984252], "screen_name": "Storstac", "time": 1469158286.0, "tid": 756255289704407040, "text": "We have completed the installation of the kntdbythepier shipping container event space in\u2026 https://t.co/bgtAiAQJI9", "created_at": "Thu Jul 21 22:31:26 +0000 2016", "klabel": 120}}, {"geometry": {"type": "Point", "coordinates": [-79.57337, 43.62433]}, "type": "Feature", "id": 756273989291483136, "properties": {"loc": [-79.57337, 43.62433], "centroid": [-79.39305822062992, 43.68932524984252], "screen_name": "510movement", "time": 1469162744.0, "tid": 756273989291483136, "text": "Our orange 510 movement hat is still available in limited quantities for $30 each. We teamed up\u2026 https://t.co/5vGBqTSbvg", "created_at": "Thu Jul 21 23:45:44 +0000 2016", "klabel": 120}}, {"geometry": {"type": "Point", "coordinates": [-79.560642, 43.6097787]}, "type": "Feature", "id": 756287521143881729, "properties": {"loc": [-79.560642, 43.6097787], "centroid": [-79.39305822062992, 43.68932524984252], "screen_name": "missalyssackeel", "time": 1469165970.0, "tid": 756287521143881729, "text": "With the \u00fcber talented and always lovely emilygiffinauthor tonight, one of the writers who is\u2026 https://t.co/XxhAnmyRZU", "created_at": "Fri Jul 22 00:39:30 +0000 2016", "klabel": 120}}, {"geometry": {"type": "Point", "coordinates": [-79.56010995, 43.61419829]}, "type": "Feature", "id": 756363389392261121, "properties": {"loc": [-79.56010995, 43.61419829], "centroid": [-79.39305822062992, 43.68932524984252], "screen_name": "TruffleShufflen", "time": 1469184059.0, "tid": 756363389392261121, "text": "#GreatNight @ Jack Astors - Sherway https://t.co/qVqZgFJKqN", "created_at": "Fri Jul 22 05:40:59 +0000 2016", "klabel": 120}}, {"geometry": {"type": "Point", "coordinates": [-79.54395, 43.6227]}, "type": "Feature", "id": 756497114872569857, "properties": {"loc": [-79.54395, 43.6227], "centroid": [-79.39305822062992, 43.68932524984252], "screen_name": "Storstac", "time": 1469215941.0, "tid": 756497114872569857, "text": "We made the two roof balconies for the #RogersContainerComplexStorstac by cutting and removing\u2026 https://t.co/0AMnj7VO6u", "created_at": "Fri Jul 22 14:32:21 +0000 2016", "klabel": 120}}, {"geometry": {"type": "Point", "coordinates": [-79.57046, 43.6173]}, "type": "Feature", "id": 756511332178984961, "properties": {"loc": [-79.57046, 43.6173], "centroid": [-79.39305822062992, 43.68932524984252], "screen_name": "paulbuceta", "time": 1469219331.0, "tid": 756511332178984961, "text": "Onset today shooting for @STRONGFitMag with lutzyerin #paulbuceta #findyourselfapaul @ SESSIONS\u2026 https://t.co/JJFxSuwaSM", "created_at": "Fri Jul 22 15:28:51 +0000 2016", "klabel": 120}}, {"geometry": {"type": "Point", "coordinates": [-79.54346911, 43.61763276]}, "type": "Feature", "id": 756513461304164352, "properties": {"loc": [-79.54346911, 43.61763276], "centroid": [-79.39305822062992, 43.68932524984252], "screen_name": "SunnyBreakfasts", "time": 1469219839.0, "tid": 756513461304164352, "text": "Thank you Connor (a.k.a. Mr. Rudd) for over two years of service!  Good luck in Prague - send\u2026 https://t.co/xjGwUHBISr", "created_at": "Fri Jul 22 15:37:19 +0000 2016", "klabel": 120}}, {"geometry": {"type": "Point", "coordinates": [-79.55704451, 43.61178176]}, "type": "Feature", "id": 756541414121562113, "properties": {"loc": [-79.55704451, 43.61178176], "centroid": [-79.39305822062992, 43.68932524984252], "screen_name": "babykat", "time": 1469226503.0, "tid": 756541414121562113, "text": "I'm at @Sherway_Gardens in Etobicoke, ON https://t.co/4XElIeZ2Oj", "created_at": "Fri Jul 22 17:28:23 +0000 2016", "klabel": 120}}, {"geometry": {"type": "Point", "coordinates": [-79.561429, 43.6107192]}, "type": "Feature", "id": 756560706896556032, "properties": {"loc": [-79.561429, 43.6107192], "centroid": [-79.39305822062992, 43.68932524984252], "screen_name": "tofire", "time": 1469231103.0, "tid": 756560706896556032, "text": "Medical (Unconscious) - The West Mall b/w Sherway Gardens Road / Hepc, Etobicoke (2 Trucks)", "created_at": "Fri Jul 22 18:45:03 +0000 2016", "klabel": 120}}, {"geometry": {"type": "Point", "coordinates": [-79.561429, 43.6107192]}, "type": "Feature", "id": 756562219421298690, "properties": {"loc": [-79.561429, 43.6107192], "centroid": [-79.39305822062992, 43.68932524984252], "screen_name": "tofire", "time": 1469231464.0, "tid": 756562219421298690, "text": "UD: Tems Transferred (Read Remarks) - The West Mall b/w Sherway Gardens Road / Hepc, Etobicoke (2 Trucks)", "created_at": "Fri Jul 22 18:51:04 +0000 2016", "klabel": 120}}, {"geometry": {"type": "Point", "coordinates": [-79.561429, 43.6107192]}, "type": "Feature", "id": 756562220276912128, "properties": {"loc": [-79.561429, 43.6107192], "centroid": [-79.39305822062992, 43.68932524984252], "screen_name": "tofireW", "time": 1469231464.0, "tid": 756562220276912128, "text": "UD: Tems Transferred (Read Remarks) - The West Mall b/w Sherway Gardens Road / Hepc, Etobicoke (2 Trucks)", "created_at": "Fri Jul 22 18:51:04 +0000 2016", "klabel": 120}}, {"geometry": {"type": "Point", "coordinates": [-79.5448324, 43.6065576]}, "type": "Feature", "id": 756562222088945664, "properties": {"loc": [-79.5448324, 43.6065576], "centroid": [-79.39305822062992, 43.68932524984252], "screen_name": "tofireW", "time": 1469231464.0, "tid": 756562222088945664, "text": "Medical (Unconscious) - Sheldon Avenue b/w Valermo Dr / Lanor Avenue, Etobicoke (2 Trucks)", "created_at": "Fri Jul 22 18:51:04 +0000 2016", "klabel": 120}}, {"geometry": {"type": "Point", "coordinates": [-79.561429, 43.6107192]}, "type": "Feature", "id": 756568517437194242, "properties": {"loc": [-79.561429, 43.6107192], "centroid": [-79.39305822062992, 43.68932524984252], "screen_name": "tofireW", "time": 1469232965.0, "tid": 756568517437194242, "text": "Medical (Other) - The West Mall b/w Sherway Gardens Road / Hepc, Etobicoke (2 Trucks)", "created_at": "Fri Jul 22 19:16:05 +0000 2016", "klabel": 120}}, {"geometry": {"type": "Point", "coordinates": [-79.5363472, 43.613549]}, "type": "Feature", "id": 756602483108093957, "properties": {"loc": [-79.5363472, 43.613549], "centroid": [-79.39305822062992, 43.68932524984252], "screen_name": "tofire", "time": 1469241063.0, "tid": 756602483108093957, "text": "Alarm Commercial/industrial - Evans Avenue b/w Treeview Dr / North Carson St, Etobicoke (6 Trucks)", "created_at": "Fri Jul 22 21:31:03 +0000 2016", "klabel": 120}}, {"geometry": {"type": "Point", "coordinates": [-79.55212, 43.633506]}, "type": "Feature", "id": 756768924331548672, "properties": {"loc": [-79.55212, 43.633506], "centroid": [-79.39305822062992, 43.68932524984252], "screen_name": "KirdLank", "time": 1469280746.0, "tid": 756768924331548672, "text": "Bleach: Brave Souls \"Summer of Souls\" event is now on! Join the fun to get great prizes! #BraveSouls https://t.co/2hRuVr7Ly5", "created_at": "Sat Jul 23 08:32:26 +0000 2016", "klabel": 120}}, {"geometry": {"type": "Point", "coordinates": [-79.5427329, 43.6273777]}, "type": "Feature", "id": 756816137187459072, "properties": {"loc": [-79.5427329, 43.6273777], "centroid": [-79.39305822062992, 43.68932524984252], "screen_name": "tpscalls", "time": 1469292002.0, "tid": 756816137187459072, "text": "Person With A Knife | Wilmar Rd &amp; Shorncliffe Rd [22 Div.] 07/23 07:34 #Islington_City_Centre_West #Toronto", "created_at": "Sat Jul 23 11:40:02 +0000 2016", "klabel": 120}}, {"geometry": {"type": "Point", "coordinates": [-79.57046, 43.6173]}, "type": "Feature", "id": 756834788569382912, "properties": {"loc": [-79.57046, 43.6173], "centroid": [-79.39305822062992, 43.68932524984252], "screen_name": "paulbuceta", "time": 1469296449.0, "tid": 756834788569382912, "text": "From a shoot with @JuliaJewel \nMake up and hair by @two_chicks \n#paulbuceta #findyourselfapaul @\u2026 https://t.co/2rdp4pIWPS", "created_at": "Sat Jul 23 12:54:09 +0000 2016", "klabel": 120}}, {"geometry": {"type": "Point", "coordinates": [-79.55457977, 43.61211214]}, "type": "Feature", "id": 756966201998409730, "properties": {"loc": [-79.55457977, 43.61211214], "centroid": [-79.39305822062992, 43.68932524984252], "screen_name": "OMGshiva", "time": 1469327780.0, "tid": 756966201998409730, "text": "Just got excited to eat a blondie with nutella at the nutella cafe in saks by pusateris and i\u2026 https://t.co/TiOHvQ5KPy", "created_at": "Sat Jul 23 21:36:20 +0000 2016", "klabel": 120}}, {"geometry": {"type": "Point", "coordinates": [-79.55002, 43.61893]}, "type": "Feature", "id": 757007106977460224, "properties": {"loc": [-79.55002, 43.61893], "centroid": [-79.39305822062992, 43.68932524984252], "screen_name": "boulderzer", "time": 1469337533.0, "tid": 757007106977460224, "text": "We are OPEN Civic Holiday Mon Aug 1st 9am-9pm #Boulderz\u2026 https://t.co/AbvvNvp60m", "created_at": "Sun Jul 24 00:18:53 +0000 2016", "klabel": 120}}, {"geometry": {"type": "Point", "coordinates": [-79.5485243, 43.6044483]}, "type": "Feature", "id": 757014449752604673, "properties": {"loc": [-79.5485243, 43.6044483], "centroid": [-79.39305822062992, 43.68932524984252], "screen_name": "tpscalls", "time": 1469339284.0, "tid": 757014449752604673, "text": "Dispute | Mitcham Dr &amp; Cutler Cres [22 Div.] 07/23 20:44 #Alderwood #Toronto", "created_at": "Sun Jul 24 00:48:04 +0000 2016", "klabel": 120}}, {"geometry": {"type": "Point", "coordinates": [-79.55576435, 43.61298936]}, "type": "Feature", "id": 757232859568599041, "properties": {"loc": [-79.55576435, 43.61298936], "centroid": [-79.39305822062992, 43.68932524984252], "screen_name": "Drewber66", "time": 1469391357.0, "tid": 757232859568599041, "text": "Cool lime time!! w/ (@ Starbucks in Etobicoke, ON w/ @wolfishlivvy) https://t.co/yHXgXi9muc", "created_at": "Sun Jul 24 15:15:57 +0000 2016", "klabel": 120}}, {"geometry": {"type": "Point", "coordinates": [-79.5575746, 43.6159508]}, "type": "Feature", "id": 757246476674338816, "properties": {"loc": [-79.5575746, 43.6159508], "centroid": [-79.39305822062992, 43.68932524984252], "screen_name": "tpscalls", "time": 1469394603.0, "tid": 757246476674338816, "text": "Holding One | Nova Rd &amp; The Queensway [22 Div.] 07/24 12:04 #Islington_City_Centre_West #Toronto", "created_at": "Sun Jul 24 16:10:03 +0000 2016", "klabel": 120}}, {"geometry": {"type": "Point", "coordinates": [-79.55704451, 43.61178176]}, "type": "Feature", "id": 757297542149378048, "properties": {"loc": [-79.55704451, 43.61178176], "centroid": [-79.39305822062992, 43.68932524984252], "screen_name": "Hypershift", "time": 1469406778.0, "tid": 757297542149378048, "text": "I'm at @Sherway_Gardens in Etobicoke, ON https://t.co/gwdeHqPlNE", "created_at": "Sun Jul 24 19:32:58 +0000 2016", "klabel": 120}}, {"geometry": {"type": "Point", "coordinates": [-79.5536889, 43.6323091]}, "type": "Feature", "id": 757298318502494208, "properties": {"loc": [-79.5536889, 43.6323091], "centroid": [-79.39305822062992, 43.68932524984252], "screen_name": "tofire", "time": 1469406963.0, "tid": 757298318502494208, "text": "Medical (Unconscious) - The East Mall b/w Yarn Road / Lynnford Dr, Etobicoke (2 Trucks)", "created_at": "Sun Jul 24 19:36:03 +0000 2016", "klabel": 120}}, {"geometry": {"type": "Point", "coordinates": [-79.5536889, 43.6323091]}, "type": "Feature", "id": 757298319743942656, "properties": {"loc": [-79.5536889, 43.6323091], "centroid": [-79.39305822062992, 43.68932524984252], "screen_name": "tofireW", "time": 1469406964.0, "tid": 757298319743942656, "text": "Medical (Unconscious) - The East Mall b/w Yarn Road / Lynnford Dr, Etobicoke (2 Trucks)", "created_at": "Sun Jul 24 19:36:04 +0000 2016", "klabel": 120}}, {"geometry": {"type": "Point", "coordinates": [-79.55704451, 43.61178176]}, "type": "Feature", "id": 757306211045896192, "properties": {"loc": [-79.55704451, 43.61178176], "centroid": [-79.39305822062992, 43.68932524984252], "screen_name": "Drewber66", "time": 1469408845.0, "tid": 757306211045896192, "text": "I'm at @Sherway_Gardens in Etobicoke, ON https://t.co/3IFnx8J8aW", "created_at": "Sun Jul 24 20:07:25 +0000 2016", "klabel": 120}}, {"geometry": {"type": "Point", "coordinates": [-79.55979246, 43.60922942]}, "type": "Feature", "id": 757539141714374656, "properties": {"loc": [-79.55979246, 43.60922942], "centroid": [-79.39305822062992, 43.68932524984252], "screen_name": "JaylixPorter", "time": 1469464380.0, "tid": 757539141714374656, "text": "I'm at @TimHortonsNews in Toronto, ON https://t.co/9HMJfjrOBK", "created_at": "Mon Jul 25 11:33:00 +0000 2016", "klabel": 120}}, {"geometry": {"type": "Point", "coordinates": [-79.57046, 43.6173]}, "type": "Feature", "id": 757553197078736900, "properties": {"loc": [-79.57046, 43.6173], "centroid": [-79.39305822062992, 43.68932524984252], "screen_name": "paulbuceta", "time": 1469467731.0, "tid": 757553197078736900, "text": "Behind the scenes from our shoot with c0rtyblue Make up hair and wipes by @sarascotford\u2026 https://t.co/Ue1IB5Hcb6", "created_at": "Mon Jul 25 12:28:51 +0000 2016", "klabel": 120}}, {"geometry": {"type": "Point", "coordinates": [-79.561593, 43.6141311]}, "type": "Feature", "id": 757564960469692416, "properties": {"loc": [-79.561593, 43.6141311], "centroid": [-79.39305822062992, 43.68932524984252], "screen_name": "tmj_gta_hrta", "time": 1469470536.0, "tid": 757564960469692416, "text": "Can you recommend anyone for this #job? https://t.co/qmPstPLxTH #Hospitality 1950 THE QUEENSWAY, #ETOBICOKE, ON #Veterans #Hiring", "created_at": "Mon Jul 25 13:15:36 +0000 2016", "klabel": 120}}, {"geometry": {"type": "Point", "coordinates": [-79.5568318, 43.611364]}, "type": "Feature", "id": 757567730094518273, "properties": {"loc": [-79.5568318, 43.611364], "centroid": [-79.39305822062992, 43.68932524984252], "screen_name": "tmj_usa_retail", "time": 1469471196.0, "tid": 757567730094518273, "text": "See our latest #Toronto, ON #job and click to apply: Associate Manager, J.Crew Retail, Sherway Gardens - https://t.co/Pud8pKfHDU #Retail", "created_at": "Mon Jul 25 13:26:36 +0000 2016", "klabel": 120}}, {"geometry": {"type": "Point", "coordinates": [-79.55483649, 43.61205422]}, "type": "Feature", "id": 757578905545011200, "properties": {"loc": [-79.55483649, 43.61205422], "centroid": [-79.39305822062992, 43.68932524984252], "screen_name": "thewindwas", "time": 1469473860.0, "tid": 757578905545011200, "text": "An beautiful orchid arrangement from the floral section of #saksfifthavenue  at #sherwaygardens.\u2026 https://t.co/HcTjRkgsQf", "created_at": "Mon Jul 25 14:11:00 +0000 2016", "klabel": 120}}, {"geometry": {"type": "Point", "coordinates": [-79.54395, 43.6227]}, "type": "Feature", "id": 757603658024546304, "properties": {"loc": [-79.54395, 43.6227], "centroid": [-79.39305822062992, 43.68932524984252], "screen_name": "Storstac", "time": 1469479762.0, "tid": 757603658024546304, "text": "Were on site at York University setting up the #RogersContainerComplexStorstac for the Rogers\u2026 https://t.co/jAbSlHYpMx", "created_at": "Mon Jul 25 15:49:22 +0000 2016", "klabel": 120}}, {"geometry": {"type": "Point", "coordinates": [-79.55702113, 43.61167031]}, "type": "Feature", "id": 757633295697993728, "properties": {"loc": [-79.55702113, 43.61167031], "centroid": [-79.39305822062992, 43.68932524984252], "screen_name": "CutlerDesign", "time": 1469486828.0, "tid": 757633295697993728, "text": "For @samsungmobileca first introduction into the Ontario market, we wanted to make a statement\u2026 https://t.co/aNpTHGABF4", "created_at": "Mon Jul 25 17:47:08 +0000 2016", "klabel": 120}}, {"geometry": {"type": "Point", "coordinates": [-79.560642, 43.6097787]}, "type": "Feature", "id": 757637351476563968, "properties": {"loc": [-79.560642, 43.6097787], "centroid": [-79.39305822062992, 43.68932524984252], "screen_name": "prschef", "time": 1469487795.0, "tid": 757637351476563968, "text": "Our pb&amp;j eating competition. Watch the machine on the right, Rod Abengoza. @michaelthehay\u2026 https://t.co/PhneW1p9nG", "created_at": "Mon Jul 25 18:03:15 +0000 2016", "klabel": 120}}, {"geometry": {"type": "Point", "coordinates": [-79.55056705, 43.61741711]}, "type": "Feature", "id": 757667696276365312, "properties": {"loc": [-79.55056705, 43.61741711], "centroid": [-79.39305822062992, 43.68932524984252], "screen_name": "JaylixPorter", "time": 1469495030.0, "tid": 757667696276365312, "text": "I'm at Islington-City Centre West https://t.co/eaorrKmyHx", "created_at": "Mon Jul 25 20:03:50 +0000 2016", "klabel": 120}}, {"geometry": {"type": "Point", "coordinates": [-79.5521021, 43.606851]}, "type": "Feature", "id": 757725128927145985, "properties": {"loc": [-79.5521021, 43.606851], "centroid": [-79.39305822062992, 43.68932524984252], "screen_name": "tpscalls", "time": 1469508723.0, "tid": 757725128927145985, "text": "Robbery | Hawley Ave &amp; Ecker Dr [22 Div.] 07/25 19:46 #Alderwood #Toronto", "created_at": "Mon Jul 25 23:52:03 +0000 2016", "klabel": 120}}, {"geometry": {"type": "Point", "coordinates": [-79.55762477, 43.61104498]}, "type": "Feature", "id": 757729306541957120, "properties": {"loc": [-79.55762477, 43.61104498], "centroid": [-79.39305822062992, 43.68932524984252], "screen_name": "babykat", "time": 1469509719.0, "tid": 757729306541957120, "text": "I'm at @Sephora in Toronto, ON https://t.co/Xs5IncPywa", "created_at": "Tue Jul 26 00:08:39 +0000 2016", "klabel": 120}}, {"geometry": {"type": "Point", "coordinates": [-79.556599, 43.614383]}, "type": "Feature", "id": 757755548565725188, "properties": {"loc": [-79.556599, 43.614383], "centroid": [-79.39305822062992, 43.68932524984252], "screen_name": "AvaNoir", "time": 1469515975.0, "tid": 757755548565725188, "text": "This trip it was 42 designer pencils.\nShe put them back. \n#noluxuries #tbf2016\u2026 https://t.co/bLpiLAqWvy", "created_at": "Tue Jul 26 01:52:55 +0000 2016", "klabel": 120}}, {"geometry": {"type": "Point", "coordinates": [-79.5575746, 43.6159508]}, "type": "Feature", "id": 757758351782576128, "properties": {"loc": [-79.5575746, 43.6159508], "centroid": [-79.39305822062992, 43.68932524984252], "screen_name": "tpscalls", "time": 1469516644.0, "tid": 757758351782576128, "text": "Holding One | Hepc &amp; Nova Rd [22 Div.] 07/25 21:59 #Islington_City_Centre_West #Toronto", "created_at": "Tue Jul 26 02:04:04 +0000 2016", "klabel": 120}}, {"geometry": {"type": "Point", "coordinates": [-79.55584, 43.61464]}, "type": "Feature", "id": 757763274028949504, "properties": {"loc": [-79.55584, 43.61464], "centroid": [-79.39305822062992, 43.68932524984252], "screen_name": "DjPlink", "time": 1469517817.0, "tid": 757763274028949504, "text": "This Thursday Caribana Kick Off party at Bier Markt Queensway. Reserve now!! #djplink\u2026 https://t.co/6YGrD0rwzo", "created_at": "Tue Jul 26 02:23:37 +0000 2016", "klabel": 120}}, {"geometry": {"type": "Point", "coordinates": [-79.57046, 43.6173]}, "type": "Feature", "id": 757902526150836224, "properties": {"loc": [-79.57046, 43.6173], "centroid": [-79.39305822062992, 43.68932524984252], "screen_name": "paulbuceta", "time": 1469551018.0, "tid": 757902526150836224, "text": "@sybilsophia rocking the eye-patch during our shoot for kreatercustoms yesterday. #paulbuceta\u2026 https://t.co/Cfbp9tJZFJ", "created_at": "Tue Jul 26 11:36:58 +0000 2016", "klabel": 120}}, {"geometry": {"type": "Point", "coordinates": [-79.5494786, 43.6070923]}, "type": "Feature", "id": 758024856919273472, "properties": {"loc": [-79.5494786, 43.6070923], "centroid": [-79.39305822062992, 43.68932524984252], "screen_name": "tpscalls", "time": 1469580183.0, "tid": 758024856919273472, "text": "Fraud In Progress | Coules Crt &amp; Coules Crt [22 Div.] 07/26 15:38 #Alderwood #Toronto", "created_at": "Tue Jul 26 19:43:03 +0000 2016", "klabel": 120}}, {"geometry": {"type": "Point", "coordinates": [-79.55761928, 43.61293166]}, "type": "Feature", "id": 758061975851114496, "properties": {"loc": [-79.55761928, 43.61293166], "centroid": [-79.39305822062992, 43.68932524984252], "screen_name": "_JSA", "time": 1469589033.0, "tid": 758061975851114496, "text": "I'm at Holt Renfrew in Etobicoke, ON https://t.co/9Mr0pD5qqM", "created_at": "Tue Jul 26 22:10:33 +0000 2016", "klabel": 120}}, {"geometry": {"type": "Point", "coordinates": [-79.55695651, 43.61157513]}, "type": "Feature", "id": 758074571245260800, "properties": {"loc": [-79.55695651, 43.61157513], "centroid": [-79.39305822062992, 43.68932524984252], "screen_name": "_kriselle10", "time": 1469592036.0, "tid": 758074571245260800, "text": "Out with Mamu \ud83d\ude12\ud83d\udc4c\ud83c\udffc #pinkberry #peachpassion @ CF Sherway Gardens https://t.co/UJrkhnCiO1", "created_at": "Tue Jul 26 23:00:36 +0000 2016", "klabel": 120}}, {"geometry": {"type": "Point", "coordinates": [-79.5408386, 43.6177827]}, "type": "Feature", "id": 758171323239698436, "properties": {"loc": [-79.5408386, 43.6177827], "centroid": [-79.39305822062992, 43.68932524984252], "screen_name": "tpscalls", "time": 1469615104.0, "tid": 758171323239698436, "text": "Attempt Break &amp; Enter | The Queensway &amp; Atomic Ave [22 Div.] 07/27 01:20 #Islington_City_Centre_West #Toronto", "created_at": "Wed Jul 27 05:25:04 +0000 2016", "klabel": 120}}, {"geometry": {"type": "Point", "coordinates": [-79.5613414, 43.6177725]}, "type": "Feature", "id": 758185644762009600, "properties": {"loc": [-79.5613414, 43.6177725], "centroid": [-79.39305822062992, 43.68932524984252], "screen_name": "tpscalls", "time": 1469618518.0, "tid": 758185644762009600, "text": "Break &amp; Enter | Hepc &amp; Manstor Rd [22 Div.] 07/27 02:16 #Islington_City_Centre_West #Toronto", "created_at": "Wed Jul 27 06:21:58 +0000 2016", "klabel": 120}}, {"geometry": {"type": "Point", "coordinates": [-79.55979246, 43.60922942]}, "type": "Feature", "id": 758265014973235200, "properties": {"loc": [-79.55979246, 43.60922942], "centroid": [-79.39305822062992, 43.68932524984252], "screen_name": "JaylixPorter", "time": 1469637442.0, "tid": 758265014973235200, "text": "I'm at @TimHortonsNews in Toronto, ON https://t.co/gfuF2wTA5I", "created_at": "Wed Jul 27 11:37:22 +0000 2016", "klabel": 120}}, {"geometry": {"type": "Point", "coordinates": [-79.5462774, 43.6163736]}, "type": "Feature", "id": 758296645205422080, "properties": {"loc": [-79.5462774, 43.6163736], "centroid": [-79.39305822062992, 43.68932524984252], "screen_name": "tpscalls", "time": 1469644983.0, "tid": 758296645205422080, "text": "Personal Injury Collision | The Queensway &amp; The East Mall [22 Div.] 07/27 09:36 #Islington_City_Centre_West #Toronto", "created_at": "Wed Jul 27 13:43:03 +0000 2016", "klabel": 120}}, {"geometry": {"type": "Point", "coordinates": [-79.55457977, 43.61211214]}, "type": "Feature", "id": 758348043494236160, "properties": {"loc": [-79.55457977, 43.61211214], "centroid": [-79.39305822062992, 43.68932524984252], "screen_name": "sheroncrane", "time": 1469657237.0, "tid": 758348043494236160, "text": "A colossus of macarons. #foodie #food #French #paris #sweet #dessert #colossus #macarons\u2026 https://t.co/NrlWo6yaZw", "created_at": "Wed Jul 27 17:07:17 +0000 2016", "klabel": 120}}, {"geometry": {"type": "Point", "coordinates": [-79.54395, 43.6227]}, "type": "Feature", "id": 758385811033382912, "properties": {"loc": [-79.54395, 43.6227], "centroid": [-79.39305822062992, 43.68932524984252], "screen_name": "Storstac", "time": 1469666242.0, "tid": 758385811033382912, "text": "We're staging a large three story tall shipping container training complex that we built right\u2026 https://t.co/L1iz18FA8q", "created_at": "Wed Jul 27 19:37:22 +0000 2016", "klabel": 120}}, {"geometry": {"type": "Point", "coordinates": [-79.5563979, 43.61302283]}, "type": "Feature", "id": 758412215263305728, "properties": {"loc": [-79.5563979, 43.61302283], "centroid": [-79.39305822062992, 43.68932524984252], "screen_name": "sheroncrane", "time": 1469672537.0, "tid": 758412215263305728, "text": "Absolutely delicious! #lunch #lunchisserved #food #foodie #healthy #healthyeating #yummy\u2026 https://t.co/9oMfbYZfq0", "created_at": "Wed Jul 27 21:22:17 +0000 2016", "klabel": 120}}, {"geometry": {"type": "Point", "coordinates": [-79.5575746, 43.6159508]}, "type": "Feature", "id": 758413664852508672, "properties": {"loc": [-79.5575746, 43.6159508], "centroid": [-79.39305822062992, 43.68932524984252], "screen_name": "tpscalls", "time": 1469672883.0, "tid": 758413664852508672, "text": "Arrest | Hepc &amp; Nova Rd [22 Div.] 07/27 17:23 #Islington_City_Centre_West #Toronto", "created_at": "Wed Jul 27 21:28:03 +0000 2016", "klabel": 120}}, {"geometry": {"type": "Point", "coordinates": [-79.55584, 43.61464]}, "type": "Feature", "id": 758443078835404800, "properties": {"loc": [-79.55584, 43.61464], "centroid": [-79.39305822062992, 43.68932524984252], "screen_name": "Errws", "time": 1469679895.0, "tid": 758443078835404800, "text": "Oyster time #biermarkt @ Bier Markt Queensway https://t.co/CJBK2VnL45", "created_at": "Wed Jul 27 23:24:55 +0000 2016", "klabel": 120}}, {"geometry": {"type": "Point", "coordinates": [-79.5563979, 43.61302283]}, "type": "Feature", "id": 758473181296373761, "properties": {"loc": [-79.5563979, 43.61302283], "centroid": [-79.39305822062992, 43.68932524984252], "screen_name": "RaphaelaMandel", "time": 1469687072.0, "tid": 758473181296373761, "text": "Ravioli for raph-eoli \ud83d\udc45 \ud83c\udf5d || @joeyrestaurants @ JOEY Sherway https://t.co/4GMaojB7YJ", "created_at": "Thu Jul 28 01:24:32 +0000 2016", "klabel": 120}}, {"geometry": {"type": "Point", "coordinates": [-79.55710836, 43.61181725]}, "type": "Feature", "id": 758667825552568320, "properties": {"loc": [-79.55710836, 43.61181725], "centroid": [-79.39305822062992, 43.68932524984252], "screen_name": "BrettJWalther", "time": 1469733479.0, "tid": 758667825552568320, "text": "Omg I need a @sportchek Climbing Treadmill. #SweatBetter @ Sherway Gardens Shopping Centre https://t.co/xyrcTyBPyw", "created_at": "Thu Jul 28 14:17:59 +0000 2016", "klabel": 120}}, {"geometry": {"type": "Point", "coordinates": [-79.55710836, 43.61181725]}, "type": "Feature", "id": 758674185958719488, "properties": {"loc": [-79.55710836, 43.61181725], "centroid": [-79.39305822062992, 43.68932524984252], "screen_name": "buckstop", "time": 1469734996.0, "tid": 758674185958719488, "text": "Mobile shoot #setlife at the new @sportchek cfsherway store! @ Sherway Gardens Shopping Centre https://t.co/cZeI7DTwyU", "created_at": "Thu Jul 28 14:43:16 +0000 2016", "klabel": 120}}, {"geometry": {"type": "Point", "coordinates": [-79.55584, 43.61464]}, "type": "Feature", "id": 758733645691531264, "properties": {"loc": [-79.55584, 43.61464], "centroid": [-79.39305822062992, 43.68932524984252], "screen_name": "BierMarktQueens", "time": 1469749172.0, "tid": 758733645691531264, "text": "This lucky beaute is going home with our #PartnerInStein, @carolynursabia! Enjoy your well\u2026 https://t.co/moLBLb4qGk", "created_at": "Thu Jul 28 18:39:32 +0000 2016", "klabel": 120}}, {"geometry": {"type": "Point", "coordinates": [-79.54550667, 43.61830091]}, "type": "Feature", "id": 758806491373510657, "properties": {"loc": [-79.54550667, 43.61830091], "centroid": [-79.39305822062992, 43.68932524984252], "screen_name": "Type1Dayna", "time": 1469766540.0, "tid": 758806491373510657, "text": "Oil change (at @CanadianTire in Etobicoke, ON) https://t.co/4MwKGpPh9P", "created_at": "Thu Jul 28 23:29:00 +0000 2016", "klabel": 120}}, {"geometry": {"type": "Point", "coordinates": [-79.54285162, 43.61754149]}, "type": "Feature", "id": 758820821921968131, "properties": {"loc": [-79.54285162, 43.61754149], "centroid": [-79.39305822062992, 43.68932524984252], "screen_name": "PreetsD", "time": 1469769956.0, "tid": 758820821921968131, "text": "Spending the weekend with this guy \ud83d\udc83\ud83c\udffd\u2764\ufe0f @ The Grille https://t.co/gk4ms8UNzd", "created_at": "Fri Jul 29 00:25:56 +0000 2016", "klabel": 120}}, {"geometry": {"type": "Point", "coordinates": [-79.5575746, 43.6159508]}, "type": "Feature", "id": 758870426059546624, "properties": {"loc": [-79.5575746, 43.6159508], "centroid": [-79.39305822062992, 43.68932524984252], "screen_name": "tpscalls", "time": 1469781783.0, "tid": 758870426059546624, "text": "Arrest | Hepc &amp; Nova Rd [22 Div.] 07/28 23:37 #Islington_City_Centre_West #Toronto", "created_at": "Fri Jul 29 03:43:03 +0000 2016", "klabel": 120}}, {"geometry": {"type": "Point", "coordinates": [-79.55979246, 43.60922942]}, "type": "Feature", "id": 758989698270240768, "properties": {"loc": [-79.55979246, 43.60922942], "centroid": [-79.39305822062992, 43.68932524984252], "screen_name": "JaylixPorter", "time": 1469810220.0, "tid": 758989698270240768, "text": "I'm at @TimHortonsNews in Toronto, ON https://t.co/wqZPMYxMxV", "created_at": "Fri Jul 29 11:37:00 +0000 2016", "klabel": 120}}, {"geometry": {"type": "Point", "coordinates": [-79.5568671, 43.6112889]}, "type": "Feature", "id": 759004978505617409, "properties": {"loc": [-79.5568671, 43.6112889], "centroid": [-79.39305822062992, 43.68932524984252], "screen_name": "tmj_gta_hrta", "time": 1469813863.0, "tid": 759004978505617409, "text": "Join the Starbucks team! See our latest #job opening here: https://t.co/1rii5RBUZv #Hospitality #Veterans #Hiring #CareerArc", "created_at": "Fri Jul 29 12:37:43 +0000 2016", "klabel": 120}}, {"geometry": {"type": "Point", "coordinates": [-79.54346911, 43.61763276]}, "type": "Feature", "id": 759012761422565377, "properties": {"loc": [-79.54346911, 43.61763276], "centroid": [-79.39305822062992, 43.68932524984252], "screen_name": "SunnyBreakfasts", "time": 1469815718.0, "tid": 759012761422565377, "text": "Pokeball Waffle! \ud83d\ude04\ud83c\udf53\ud83c\udf74\u2615\ufe0f #etobicoke #etobicokebreakfast #toeats #torontobrunch #waffle #realfruit\u2026 https://t.co/as8Ds5wHBn", "created_at": "Fri Jul 29 13:08:38 +0000 2016", "klabel": 120}}, {"geometry": {"type": "Point", "coordinates": [-79.54395, 43.6227]}, "type": "Feature", "id": 759029608654274561, "properties": {"loc": [-79.54395, 43.6227], "centroid": [-79.39305822062992, 43.68932524984252], "screen_name": "Storstac", "time": 1469819735.0, "tid": 759029608654274561, "text": "We are excited to unveil the  #RogersContainerConplexStorstac that was engineered and fabricated\u2026 https://t.co/EENd6I01dO", "created_at": "Fri Jul 29 14:15:35 +0000 2016", "klabel": 120}}, {"geometry": {"type": "Point", "coordinates": [-79.561207, 43.610772]}, "type": "Feature", "id": 759062025632878592, "properties": {"loc": [-79.561207, 43.610772], "centroid": [-79.39305822062992, 43.68932524984252], "screen_name": "ninaesece", "time": 1469827464.0, "tid": 759062025632878592, "text": "Relax\ud83c\udf43 @ Hudson's Bay https://t.co/djiN5KadDg", "created_at": "Fri Jul 29 16:24:24 +0000 2016", "klabel": 120}}, {"geometry": {"type": "Point", "coordinates": [-79.557, 43.6118]}, "type": "Feature", "id": 759079292747784192, "properties": {"loc": [-79.557, 43.6118], "centroid": [-79.39305822062992, 43.68932524984252], "screen_name": "Thunder_Unicorn", "time": 1469831581.0, "tid": 759079292747784192, "text": "Drinking a Rodenbach Grand Cru by @rodenbachbeer @ Sherway Gardens \u2014 https://t.co/vaJoD24CLi", "created_at": "Fri Jul 29 17:33:01 +0000 2016", "klabel": 120}}, {"geometry": {"type": "Point", "coordinates": [-79.5561, 43.6148]}, "type": "Feature", "id": 759089533115854848, "properties": {"loc": [-79.5561, 43.6148], "centroid": [-79.39305822062992, 43.68932524984252], "screen_name": "Thunder_Unicorn", "time": 1469834022.0, "tid": 759089533115854848, "text": "Drinking a Field Trip Cherry by @BrickworksCider @ Bier Markt Queensway \u2014 https://t.co/8z3YDtHB7y", "created_at": "Fri Jul 29 18:13:42 +0000 2016", "klabel": 120}}, {"geometry": {"type": "Point", "coordinates": [-79.5568318, 43.611364]}, "type": "Feature", "id": 759103506355597312, "properties": {"loc": [-79.5568318, 43.611364], "centroid": [-79.39305822062992, 43.68932524984252], "screen_name": "tmj_usa_sales", "time": 1469837354.0, "tid": 759103506355597312, "text": "Can you recommend anyone for this #job? https://t.co/0kkoCyBRM7 #Sales #Toronto, ON #Hiring #CareerArc", "created_at": "Fri Jul 29 19:09:14 +0000 2016", "klabel": 120}}, {"geometry": {"type": "Point", "coordinates": [-79.5448324, 43.6065576]}, "type": "Feature", "id": 759120326328541184, "properties": {"loc": [-79.5448324, 43.6065576], "centroid": [-79.39305822062992, 43.68932524984252], "screen_name": "tofireW", "time": 1469841364.0, "tid": 759120326328541184, "text": "UD: Tems Transferred (Read Remarks) - Sheldon Avenue b/w Valermo Dr / Lanor Avenue, Etobicoke (2 Trucks)", "created_at": "Fri Jul 29 20:16:04 +0000 2016", "klabel": 120}}, {"geometry": {"type": "Point", "coordinates": [-79.5462774, 43.6163736]}, "type": "Feature", "id": 759166374967214084, "properties": {"loc": [-79.5462774, 43.6163736], "centroid": [-79.39305822062992, 43.68932524984252], "screen_name": "tpscalls", "time": 1469852343.0, "tid": 759166374967214084, "text": "Found Property | The Queensway &amp; The East Mall [HP] 07/29 19:12 #Islington_City_Centre_West #Toronto", "created_at": "Fri Jul 29 23:19:03 +0000 2016", "klabel": 120}}, {"geometry": {"type": "Point", "coordinates": [-79.5419342, 43.6202232]}, "type": "Feature", "id": 759170905545314304, "properties": {"loc": [-79.5419342, 43.6202232], "centroid": [-79.39305822062992, 43.68932524984252], "screen_name": "tpscalls", "time": 1469853423.0, "tid": 759170905545314304, "text": "Arrest | Atomic Ave &amp; The East Mall [22 Div.] 07/29 19:32 #Islington_City_Centre_West #Toronto", "created_at": "Fri Jul 29 23:37:03 +0000 2016", "klabel": 120}}, {"geometry": {"type": "Point", "coordinates": [-79.55710836, 43.61181725]}, "type": "Feature", "id": 759174109431492608, "properties": {"loc": [-79.55710836, 43.61181725], "centroid": [-79.39305822062992, 43.68932524984252], "screen_name": "testadan", "time": 1469854187.0, "tid": 759174109431492608, "text": "Man of many reads\n\n#books #magazine #smart @ Sherway Gardens Shopping Centre https://t.co/XOF5WM1PzD", "created_at": "Fri Jul 29 23:49:47 +0000 2016", "klabel": 120}}, {"geometry": {"type": "Point", "coordinates": [-79.55584077, 43.61301984]}, "type": "Feature", "id": 759257184949665793, "properties": {"loc": [-79.55584077, 43.61301984], "centroid": [-79.39305822062992, 43.68932524984252], "screen_name": "Jason_Wink", "time": 1469873993.0, "tid": 759257184949665793, "text": "Reached a new level of basic tonight...tried the #pinkdrink. The\u2026 https://t.co/FqjitJtagt", "created_at": "Sat Jul 30 05:19:53 +0000 2016", "klabel": 120}}, {"geometry": {"type": "Point", "coordinates": [-79.55677962, 43.61986006]}, "type": "Feature", "id": 759450533874860032, "properties": {"loc": [-79.55677962, 43.61986006], "centroid": [-79.39305822062992, 43.68932524984252], "screen_name": "JaylixPorter", "time": 1469920091.0, "tid": 759450533874860032, "text": "I'm at Sail in Etobicoke, ON https://t.co/XBEDGL6tvR", "created_at": "Sat Jul 30 18:08:11 +0000 2016", "klabel": 120}}, {"geometry": {"type": "Point", "coordinates": [-79.56122875, 43.61418203]}, "type": "Feature", "id": 759469587851251712, "properties": {"loc": [-79.56122875, 43.61418203], "centroid": [-79.39305822062992, 43.68932524984252], "screen_name": "JaylixPorter", "time": 1469924634.0, "tid": 759469587851251712, "text": "I'm at Chapters in Toronto, ON https://t.co/ZtcNefAvB8", "created_at": "Sat Jul 30 19:23:54 +0000 2016", "klabel": 120}}, {"geometry": {"type": "Point", "coordinates": [-79.55564361, 43.60992063]},