{"type": "FeatureCollection", "features": [{"geometry": {"type": "Point", "coordinates": [-79.2122524, 43.78654618]}, "type": "Feature", "id": 705049542450765824, "properties": {"loc": [-79.2122524, 43.78654618], "centroid": [-79.55960548918961, 43.61353030798165], "screen_name": "HighcastleKB", "time": 1456949884.0, "tid": 705049542450765824, "text": "\"Oh no! One of our crickets got out.\"-JC We are curious to find out what this insect is. Any ideas? https://t.co/I9jujw49fH", "created_at": "Wed Mar 02 15:18:04 +0000 2016", "klabel": 132}}, {"geometry": {"type": "Point", "coordinates": [-79.18643049, 43.78453719]}, "type": "Feature", "id": 705063714140119040, "properties": {"loc": [-79.18643049, 43.78453719], "centroid": [-79.55960548918961, 43.61353030798165], "screen_name": "GigsHai", "time": 1456953263.0, "tid": 705063714140119040, "text": "kinda wavy", "created_at": "Wed Mar 02 16:14:23 +0000 2016", "klabel": 132}}, {"geometry": {"type": "Point", "coordinates": [-79.1954859, 43.7848172]}, "type": "Feature", "id": 705196014249107456, "properties": {"loc": [-79.1954859, 43.7848172], "centroid": [-79.55960548918961, 43.61353030798165], "screen_name": "tofireE", "time": 1456984806.0, "tid": 705196014249107456, "text": "Rescue (Elevator) - Mornelle Crt b/w Ellesmere Road / Morningside Avenue, Scarborough (2 Trucks)", "created_at": "Thu Mar 03 01:00:06 +0000 2016", "klabel": 132}}, {"geometry": {"type": "Point", "coordinates": [-79.1954859, 43.7848172]}, "type": "Feature", "id": 705198521931042816, "properties": {"loc": [-79.1954859, 43.7848172], "centroid": [-79.55960548918961, 43.61353030798165], "screen_name": "tofire", "time": 1456985404.0, "tid": 705198521931042816, "text": "UD: Rescue (Elevator) - Mornelle Crt b/w Ellesmere Road / Morningside Avenue, Scarborough (3 Trucks)", "created_at": "Thu Mar 03 01:10:04 +0000 2016", "klabel": 132}}, {"geometry": {"type": "Point", "coordinates": [-79.1954859, 43.7848172]}, "type": "Feature", "id": 705198523256606720, "properties": {"loc": [-79.1954859, 43.7848172], "centroid": [-79.55960548918961, 43.61353030798165], "screen_name": "tofireE", "time": 1456985404.0, "tid": 705198523256606720, "text": "UD: Rescue (Elevator) - Mornelle Crt b/w Ellesmere Road / Morningside Avenue, Scarborough (3 Trucks)", "created_at": "Thu Mar 03 01:10:04 +0000 2016", "klabel": 132}}, {"geometry": {"type": "Point", "coordinates": [-79.1954859, 43.7848172]}, "type": "Feature", "id": 705491724420956160, "properties": {"loc": [-79.1954859, 43.7848172], "centroid": [-79.55960548918961, 43.61353030798165], "screen_name": "tofire", "time": 1457055309.0, "tid": 705491724420956160, "text": "Medical (Assist) - Mornelle Crt b/w Ellesmere Road / Morningside Avenue, Scarborough (2 Trucks)", "created_at": "Thu Mar 03 20:35:09 +0000 2016", "klabel": 132}}, {"geometry": {"type": "Point", "coordinates": [-79.1860667, 43.7871257]}, "type": "Feature", "id": 705549753573097473, "properties": {"loc": [-79.1860667, 43.7871257], "centroid": [-79.55960548918961, 43.61353030798165], "screen_name": "GigsHai", "time": 1457069144.0, "tid": 705549753573097473, "text": "purple nebula", "created_at": "Fri Mar 04 00:25:44 +0000 2016", "klabel": 132}}, {"geometry": {"type": "Point", "coordinates": [-79.19598169, 43.79853188]}, "type": "Feature", "id": 705888554120056833, "properties": {"loc": [-79.19598169, 43.79853188], "centroid": [-79.55960548918961, 43.61353030798165], "screen_name": "AshSilva", "time": 1457149920.0, "tid": 705888554120056833, "text": "Celebrating the new book with @nat_and_home and @yordanov_todor with spicy #carribeanfood ..\u2026 https://t.co/bI8SG5CwbD", "created_at": "Fri Mar 04 22:52:00 +0000 2016", "klabel": 132}}, {"geometry": {"type": "Point", "coordinates": [-79.1849518, 43.7847786]}, "type": "Feature", "id": 705913808729067521, "properties": {"loc": [-79.1849518, 43.7847786], "centroid": [-79.55960548918961, 43.61353030798165], "screen_name": "michaelmuraz", "time": 1457155941.0, "tid": 705913808729067521, "text": "Razor Sharp\n\nThe devil is in the details.\n\n#architecture #abstract #Toronto #UofT\u2026 https://t.co/DadKOEF0wp", "created_at": "Sat Mar 05 00:32:21 +0000 2016", "klabel": 132}}, {"geometry": {"type": "Point", "coordinates": [-79.20028386, 43.79631666]}, "type": "Feature", "id": 706160891222499328, "properties": {"loc": [-79.20028386, 43.79631666], "centroid": [-79.55960548918961, 43.61353030798165], "screen_name": "_radusa034", "time": 1457214850.0, "tid": 706160891222499328, "text": "Oh my, what a wonderful time. #18 #aboutlastnight @ Baton Rouge\u2026 https://t.co/iTSXsELlas", "created_at": "Sat Mar 05 16:54:10 +0000 2016", "klabel": 132}}, {"geometry": {"type": "Point", "coordinates": [-79.19406485, 43.79048598]}, "type": "Feature", "id": 706162338861359104, "properties": {"loc": [-79.19406485, 43.79048598], "centroid": [-79.55960548918961, 43.61353030798165], "screen_name": "asannia0525", "time": 1457215196.0, "tid": 706162338861359104, "text": "With the kulit \ud83d\ude05\ud83c\udfca @ Toronto Pan Am Sports Centre https://t.co/1Dmy4ZgUvb", "created_at": "Sat Mar 05 16:59:56 +0000 2016", "klabel": 132}}, {"geometry": {"type": "Point", "coordinates": [-79.19406485, 43.79048598]}, "type": "Feature", "id": 706166404580581376, "properties": {"loc": [-79.19406485, 43.79048598], "centroid": [-79.55960548918961, 43.61353030798165], "screen_name": "asannia0525", "time": 1457216165.0, "tid": 706166404580581376, "text": "Hi there pogi \ud83d\ude19\ud83c\udfca @ Toronto Pan Am Sports Centre https://t.co/gNFyd0RraY", "created_at": "Sat Mar 05 17:16:05 +0000 2016", "klabel": 132}}, {"geometry": {"type": "Point", "coordinates": [-79.196639, 43.794916]}, "type": "Feature", "id": 707615701008310272, "properties": {"loc": [-79.196639, 43.794916], "centroid": [-79.55960548918961, 43.61353030798165], "screen_name": "tpscalls", "time": 1457561704.0, "tid": 707615701008310272, "text": "Personal Injury Collision | Morningside Ave &amp; 401 Hwy W [42 Div.] 03/09 12:10 #Morningside #Toronto", "created_at": "Wed Mar 09 17:15:04 +0000 2016", "klabel": 132}}, {"geometry": {"type": "Point", "coordinates": [-79.1849518, 43.7847786]}, "type": "Feature", "id": 707632188712476672, "properties": {"loc": [-79.1849518, 43.7847786], "centroid": [-79.55960548918961, 43.61353030798165], "screen_name": "GigsHai", "time": 1457565635.0, "tid": 707632188712476672, "text": "l\u0101st \u0259p @ University of Toronto Scarborough (UTSC) https://t.co/0tP7vQh3hk", "created_at": "Wed Mar 09 18:20:35 +0000 2016", "klabel": 132}}, {"geometry": {"type": "Point", "coordinates": [-79.1968049, 43.7997406]}, "type": "Feature", "id": 749759140193570817, "properties": {"loc": [-79.1968049, 43.7997406], "centroid": [-79.55960548918961, 43.61353030798165], "screen_name": "tpscalls", "time": 1467609483.0, "tid": 749759140193570817, "text": "Disorderlies | Milner Ave &amp; Grand Marshall Dr [42 Div.] 07/03 20:13 #Malvern #Toronto", "created_at": "Mon Jul 04 00:18:03 +0000 2016", "klabel": 132}}, {"geometry": {"type": "Point", "coordinates": [-79.1954859, 43.7848172]}, "type": "Feature", "id": 749862377479438336, "properties": {"loc": [-79.1954859, 43.7848172], "centroid": [-79.55960548918961, 43.61353030798165], "screen_name": "tofireE", "time": 1467634097.0, "tid": 749862377479438336, "text": "Vehicle Fire (Underground) - Mornelle Crt b/w Ellesmere Road / Morningside Avenue, Scarborough (7 Trucks)", "created_at": "Mon Jul 04 07:08:17 +0000 2016", "klabel": 132}}, {"geometry": {"type": "Point", "coordinates": [-79.198, 43.779]}, "type": "Feature", "id": 750085391366127617, "properties": {"loc": [-79.198, 43.779], "centroid": [-79.55960548918961, 43.61353030798165], "screen_name": "travisweber13", "time": 1467687267.0, "tid": 750085391366127617, "text": "I should be organizing all my visa papers, but I'm just sitting in\u2026 https://t.co/7FYsbB7OE1", "created_at": "Mon Jul 04 21:54:27 +0000 2016", "klabel": 132}}, {"geometry": {"type": "Point", "coordinates": [-79.196639, 43.794916]}, "type": "Feature", "id": 750169099750240256, "properties": {"loc": [-79.196639, 43.794916], "centroid": [-79.55960548918961, 43.61353030798165], "screen_name": "tpscalls", "time": 1467707225.0, "tid": 750169099750240256, "text": "Personal Injury Collision | Morningside Ave &amp; 401 Hwy E [HP] 07/04 23:21 #Morningside #Toronto", "created_at": "Tue Jul 05 03:27:05 +0000 2016", "klabel": 132}}, {"geometry": {"type": "Point", "coordinates": [-79.196639, 43.794916]}, "type": "Feature", "id": 750171360559820801, "properties": {"loc": [-79.196639, 43.794916], "centroid": [-79.55960548918961, 43.61353030798165], "screen_name": "tofire", "time": 1467707764.0, "tid": 750171360559820801, "text": "Vehicle Accident (Trapped) - Morningside Avenue @ Highway 401 X East, Scarborough (5 Trucks)", "created_at": "Tue Jul 05 03:36:04 +0000 2016", "klabel": 132}}, {"geometry": {"type": "Point", "coordinates": [-79.18760809, 43.78385219]}, "type": "Feature", "id": 751751572766466049, "properties": {"loc": [-79.18760809, 43.78385219], "centroid": [-79.55960548918961, 43.61353030798165], "screen_name": "deusLexmachina", "time": 1468084516.0, "tid": 751751572766466049, "text": "#tb to cassava chips and ros\u00e9 at the #foodstudies2016 conference opening. #snacks @ University\u2026 https://t.co/d2UvRL4XFh", "created_at": "Sat Jul 09 12:15:16 +0000 2016", "klabel": 132}}, {"geometry": {"type": "Point", "coordinates": [-79.185409, 43.78003823]}, "type": "Feature", "id": 751850214038855680, "properties": {"loc": [-79.185409, 43.78003823], "centroid": [-79.55960548918961, 43.61353030798165], "screen_name": "colinscameron", "time": 1468108034.0, "tid": 751850214038855680, "text": "A little early and that's a good thing #OPDL (@ Miller Lash House in Toronto, ON) https://t.co/E09TEhUMww", "created_at": "Sat Jul 09 18:47:14 +0000 2016", "klabel": 132}}, {"geometry": {"type": "Point", "coordinates": [-79.183262, 43.7878713]}, "type": "Feature", "id": 752002174213885956, "properties": {"loc": [-79.183262, 43.7878713], "centroid": [-79.55960548918961, 43.61353030798165], "screen_name": "tpscalls", "time": 1468144264.0, "tid": 752002174213885956, "text": "Personal Injury Collision | Conlins Rd &amp; Ellesmere Rd [43 Div.] 07/10 00:47 #Highland_Creek #Toronto", "created_at": "Sun Jul 10 04:51:04 +0000 2016", "klabel": 132}}, {"geometry": {"type": "Point", "coordinates": [-79.183262, 43.7878713]}, "type": "Feature", "id": 752004439741964288, "properties": {"loc": [-79.183262, 43.7878713], "centroid": [-79.55960548918961, 43.61353030798165], "screen_name": "tpscalls", "time": 1468144804.0, "tid": 752004439741964288, "text": "Personal Injury Collision | Conlins Rd &amp; Ellesmere Rd [HP] 07/10 00:56 #Highland_Creek #Toronto", "created_at": "Sun Jul 10 05:00:04 +0000 2016", "klabel": 132}}, {"geometry": {"type": "Point", "coordinates": [-79.1842526, 43.7931834]}, "type": "Feature", "id": 752385186873143296, "properties": {"loc": [-79.1842526, 43.7931834], "centroid": [-79.55960548918961, 43.61353030798165], "screen_name": "tpscalls", "time": 1468235581.0, "tid": 752385186873143296, "text": "Animal Comp | Canmore Blvd &amp; Tarsus Cres [43 Div.] 07/11 02:07 #Highland_Creek #Toronto", "created_at": "Mon Jul 11 06:13:01 +0000 2016", "klabel": 132}}, {"geometry": {"type": "Point", "coordinates": [-79.2056902, 43.7856839]}, "type": "Feature", "id": 752527879712505856, "properties": {"loc": [-79.2056902, 43.7856839], "centroid": [-79.55960548918961, 43.61353030798165], "screen_name": "tpscalls", "time": 1468269602.0, "tid": 752527879712505856, "text": "Assault In Progress | 10 Livonia Pl &amp; 21 Livonia Pl [43 Div.] 07/11 11:34 #Morningside #Toronto", "created_at": "Mon Jul 11 15:40:02 +0000 2016", "klabel": 132}}, {"geometry": {"type": "Point", "coordinates": [-79.1852771, 43.78425737]}, "type": "Feature", "id": 752610212276793344, "properties": {"loc": [-79.1852771, 43.78425737], "centroid": [-79.55960548918961, 43.61353030798165], "screen_name": "xmxxnhxi", "time": 1468289232.0, "tid": 752610212276793344, "text": "the white girl at work didn't wear makeup yesterday and now I know what a human without eyebrows looks like", "created_at": "Mon Jul 11 21:07:12 +0000 2016", "klabel": 132}}, {"geometry": {"type": "Point", "coordinates": [-79.1887864, 43.8011571]}, "type": "Feature", "id": 752621251454242816, "properties": {"loc": [-79.1887864, 43.8011571], "centroid": [-79.55960548918961, 43.61353030798165], "screen_name": "tofire", "time": 1468291864.0, "tid": 752621251454242816, "text": "Medical (Trouble Breathing) - Conlins Road b/w Milner Avenue / Auto Mall Dr, Scarborough (2 Trucks)", "created_at": "Mon Jul 11 21:51:04 +0000 2016", "klabel": 132}}, {"geometry": {"type": "Point", "coordinates": [-79.1887864, 43.8011571]}, "type": "Feature", "id": 752621252511162368, "properties": {"loc": [-79.1887864, 43.8011571], "centroid": [-79.55960548918961, 43.61353030798165], "screen_name": "tofireE", "time": 1468291864.0, "tid": 752621252511162368, "text": "Medical (Trouble Breathing) - Conlins Road b/w Milner Avenue / Auto Mall Dr, Scarborough (2 Trucks)", "created_at": "Mon Jul 11 21:51:04 +0000 2016", "klabel": 132}}, {"geometry": {"type": "Point", "coordinates": [-79.206, 43.787]}, "type": "Feature", "id": 752908908935647232, "properties": {"loc": [-79.206, 43.787], "centroid": [-79.55960548918961, 43.61353030798165], "screen_name": "riamercuri", "time": 1468360446.0, "tid": 752908908935647232, "text": "Learning to make roti today with my new friend, Jaspreet Jagpal #yes #grateful #roti #food\u2026 https://t.co/wFmFI7so1D", "created_at": "Tue Jul 12 16:54:06 +0000 2016", "klabel": 132}}, {"geometry": {"type": "Point", "coordinates": [-79.206, 43.787]}, "type": "Feature", "id": 753020154200588288, "properties": {"loc": [-79.206, 43.787], "centroid": [-79.55960548918961, 43.61353030798165], "screen_name": "riamercuri", "time": 1468386969.0, "tid": 753020154200588288, "text": "Thank you to jessnijjarjagpal for her and her family's hospitality, including her the incredible\u2026 https://t.co/QelDd9b0XZ", "created_at": "Wed Jul 13 00:16:09 +0000 2016", "klabel": 132}}, {"geometry": {"type": "Point", "coordinates": [-79.1810782, 43.7933997]}, "type": "Feature", "id": 753192010144747520, "properties": {"loc": [-79.1810782, 43.7933997], "centroid": [-79.55960548918961, 43.61353030798165], "screen_name": "tpscalls", "time": 1468427943.0, "tid": 753192010144747520, "text": "Fail To Remain Property Damage Collision | Euclid Ave &amp; Canmore Blvd [HP] 07/13 07:34 #Highland_Creek #Toronto", "created_at": "Wed Jul 13 11:39:03 +0000 2016", "klabel": 132}}, {"geometry": {"type": "Point", "coordinates": [-79.196639, 43.794916]}, "type": "Feature", "id": 753221455823994880, "properties": {"loc": [-79.196639, 43.794916], "centroid": [-79.55960548918961, 43.61353030798165], "screen_name": "tpscalls", "time": 1468434963.0, "tid": 753221455823994880, "text": "Impaired Driver | 401 Hwy E &amp; Morningside Ave [42 Div.] 07/13 09:32 #Morningside #Toronto", "created_at": "Wed Jul 13 13:36:03 +0000 2016", "klabel": 132}}, {"geometry": {"type": "Point", "coordinates": [-79.1932632, 43.7853028]}, "type": "Feature", "id": 753278094488797184, "properties": {"loc": [-79.1932632, 43.7853028], "centroid": [-79.55960548918961, 43.61353030798165], "screen_name": "tofire", "time": 1468448467.0, "tid": 753278094488797184, "text": "Medical (Trouble Breathing) - Morningside Avenue b/w Ellesmere Road / Mornelle Crt, Scarborough (2 Trucks)", "created_at": "Wed Jul 13 17:21:07 +0000 2016", "klabel": 132}}, {"geometry": {"type": "Point", "coordinates": [-79.21117, 43.790597]}, "type": "Feature", "id": 753278096317480960, "properties": {"loc": [-79.21117, 43.790597], "centroid": [-79.55960548918961, 43.61353030798165], "screen_name": "tofire", "time": 1468448468.0, "tid": 753278096317480960, "text": "Fire (Residential) - Sandrift Sq b/w Keeler Boulevard / Keeler Boulevard, Scarborough (7 Trucks)", "created_at": "Wed Jul 13 17:21:08 +0000 2016", "klabel": 132}}, {"geometry": {"type": "Point", "coordinates": [-79.18784938, 43.78377491]}, "type": "Feature", "id": 753715164306890752, "properties": {"loc": [-79.18784938, 43.78377491], "centroid": [-79.55960548918961, 43.61353030798165], "screen_name": "xmxxnhxi", "time": 1468552673.0, "tid": 753715164306890752, "text": "I GOT THE OLD INSTAGRAM BACK AYE https://t.co/Plp7k4PqYC", "created_at": "Thu Jul 14 22:17:53 +0000 2016", "klabel": 132}}, {"geometry": {"type": "Point", "coordinates": [-79.19428, 43.7909]}, "type": "Feature", "id": 753803828059791360, "properties": {"loc": [-79.19428, 43.7909], "centroid": [-79.55960548918961, 43.61353030798165], "screen_name": "Mskchua", "time": 1468573812.0, "tid": 753803828059791360, "text": "Enjoyed my first #drumfit class at tpascentre thanks to our awesome coach @movewithrachel ! \u2764\ufe0f\u2026 https://t.co/SWdwCDrJzy", "created_at": "Fri Jul 15 04:10:12 +0000 2016", "klabel": 132}}, {"geometry": {"type": "Point", "coordinates": [-79.19428, 43.7909]}, "type": "Feature", "id": 754052454052929540, "properties": {"loc": [-79.19428, 43.7909], "centroid": [-79.55960548918961, 43.61353030798165], "screen_name": "MarkCaskenette", "time": 1468633089.0, "tid": 754052454052929540, "text": "What a day ! International Athletes' bra fitting with Canadian\u2026 https://t.co/hn9HH3ufLy", "created_at": "Fri Jul 15 20:38:09 +0000 2016", "klabel": 132}}, {"geometry": {"type": "Point", "coordinates": [-79.1810782, 43.7933997]}, "type": "Feature", "id": 754054194873663489, "properties": {"loc": [-79.1810782, 43.7933997], "centroid": [-79.55960548918961, 43.61353030798165], "screen_name": "tpscalls", "time": 1468633504.0, "tid": 754054194873663489, "text": "Person With A Gun | Ww W Morrish S Grover &amp; Canmore Blvd [43 Div.] 07/15 16:41 #Highland_Creek #Toronto", "created_at": "Fri Jul 15 20:45:04 +0000 2016", "klabel": 132}}, {"geometry": {"type": "Point", "coordinates": [-79.20599, 43.78112]}, "type": "Feature", "id": 754059688816304128, "properties": {"loc": [-79.20599, 43.78112], "centroid": [-79.55960548918961, 43.61353030798165], "screen_name": "DrChivers", "time": 1468634814.0, "tid": 754059688816304128, "text": "#Repost @CanadianSurgery\n\u30fb\u30fb\u30fb\nWorld Plastic Surgery Day: There is more to plastic surgery than\u2026 https://t.co/shl1Wj8fKU", "created_at": "Fri Jul 15 21:06:54 +0000 2016", "klabel": 132}}, {"geometry": {"type": "Point", "coordinates": [-79.1954859, 43.7848172]}, "type": "Feature", "id": 754218019958714368, "properties": {"loc": [-79.1954859, 43.7848172], "centroid": [-79.55960548918961, 43.61353030798165], "screen_name": "tofire", "time": 1468672563.0, "tid": 754218019958714368, "text": "Medical (Chest Pains) - Mornelle Crt b/w Ellesmere Road / Morningside Avenue, Scarborough (2 Trucks)", "created_at": "Sat Jul 16 07:36:03 +0000 2016", "klabel": 132}}, {"geometry": {"type": "Point", "coordinates": [-79.19428, 43.7909]}, "type": "Feature", "id": 754423116496068608, "properties": {"loc": [-79.19428, 43.7909], "centroid": [-79.55960548918961, 43.61353030798165], "screen_name": "Ryan_Wright1", "time": 1468721462.0, "tid": 754423116496068608, "text": "Camp Running Man challenge to end the week off right! Week 1 has been a blast! Looking forward\u2026 https://t.co/NkOrKN0MrV", "created_at": "Sat Jul 16 21:11:02 +0000 2016", "klabel": 132}}, {"geometry": {"type": "Point", "coordinates": [-79.204952, 43.782606]}, "type": "Feature", "id": 754435713463152641, "properties": {"loc": [-79.204952, 43.782606], "centroid": [-79.55960548918961, 43.61353030798165], "screen_name": "tofiref", "time": 1468724465.0, "tid": 754435713463152641, "text": "Fire (Grass/rubbish) - Ellesmere Road b/w Neilson Road / Ellesmere Ravine, Scarborough (2 Trucks)", "created_at": "Sat Jul 16 22:01:05 +0000 2016", "klabel": 132}}, {"geometry": {"type": "Point", "coordinates": [-79.203431, 43.783107]}, "type": "Feature", "id": 754447393706250240, "properties": {"loc": [-79.203431, 43.783107], "centroid": [-79.55960548918961, 43.61353030798165], "screen_name": "LariPakkanen", "time": 1468727250.0, "tid": 754447393706250240, "text": "The best burgers ever! #baconator #sonofbaconator #wendys #fatbutstrong #fatlife #powerfood\u2026 https://t.co/vqBPNUwng7", "created_at": "Sat Jul 16 22:47:30 +0000 2016", "klabel": 132}}, {"geometry": {"type": "Point", "coordinates": [-79.19428, 43.7909]}, "type": "Feature", "id": 754476514809380865, "properties": {"loc": [-79.19428, 43.7909], "centroid": [-79.55960548918961, 43.61353030798165], "screen_name": "Ryan_Wright1", "time": 1468734193.0, "tid": 754476514809380865, "text": "WEEK 1 CAMP RECAP: Day 4, we were able to put our campers through a stretch/roll recovery\u2026 https://t.co/iPwXy0Y9Dd", "created_at": "Sun Jul 17 00:43:13 +0000 2016", "klabel": 132}}, {"geometry": {"type": "Point", "coordinates": [-79.19751, 43.80005]}, "type": "Feature", "id": 754847758327156737, "properties": {"loc": [-79.19751, 43.80005], "centroid": [-79.55960548918961, 43.61353030798165], "screen_name": "SocaDread", "time": 1468822704.0, "tid": 754847758327156737, "text": "Continuing to lime by @torevellers because my little Princess is enjoying the lime  with friends\u2026 https://t.co/bahtD6cCNH", "created_at": "Mon Jul 18 01:18:24 +0000 2016", "klabel": 132}}, {"geometry": {"type": "Point", "coordinates": [-79.19428, 43.7909]}, "type": "Feature", "id": 754868377605251072, "properties": {"loc": [-79.19428, 43.7909], "centroid": [-79.55960548918961, 43.61353030798165], "screen_name": "TomPanizza86", "time": 1468827620.0, "tid": 754868377605251072, "text": "July training for 2016 Canadian Age Group Champs in Calgary @ Toronto Pan Am Sports Centre https://t.co/fG6xCj6Jbl", "created_at": "Mon Jul 18 02:40:20 +0000 2016", "klabel": 132}}, {"geometry": {"type": "Point", "coordinates": [-79.1962847, 43.7918939]}, "type": "Feature", "id": 754880894457044992, "properties": {"loc": [-79.1962847, 43.7918939], "centroid": [-79.55960548918961, 43.61353030798165], "screen_name": "tpscalls", "time": 1468830604.0, "tid": 754880894457044992, "text": "Sound Of Gunshots | Tams Rd &amp; Tams Rd [43 Div.] 07/17 23:25 #Morningside #Toronto", "created_at": "Mon Jul 18 03:30:04 +0000 2016", "klabel": 132}}, {"geometry": {"type": "Point", "coordinates": [-79.1794952, 43.7914466]}, "type": "Feature", "id": 754901275754565636, "properties": {"loc": [-79.1794952, 43.7914466], "centroid": [-79.55960548918961, 43.61353030798165], "screen_name": "tpscalls", "time": 1468835464.0, "tid": 754901275754565636, "text": "Personal Injury Collision | Halfmoon Sq &amp; Calverley Trl [HP] 07/18 00:47 #Highland_Creek #Toronto", "created_at": "Mon Jul 18 04:51:04 +0000 2016", "klabel": 132}}, {"geometry": {"type": "Point", "coordinates": [-79.1794952, 43.7914466]}, "type": "Feature", "id": 754948079820926976, "properties": {"loc": [-79.1794952, 43.7914466], "centroid": [-79.55960548918961, 43.61353030798165], "screen_name": "tpscalls", "time": 1468846623.0, "tid": 754948079820926976, "text": "Fail To Remain Property Damage Collision | Halfmoon Sq &amp; Calverley Trl [HP] 07/18 00:47 #Highland_Creek #Toronto", "created_at": "Mon Jul 18 07:57:03 +0000 2016", "klabel": 132}}, {"geometry": {"type": "Point", "coordinates": [-79.1794952, 43.7914466]}, "type": "Feature", "id": 754975260290719744, "properties": {"loc": [-79.1794952, 43.7914466], "centroid": [-79.55960548918961, 43.61353030798165], "screen_name": "tpscalls", "time": 1468853103.0, "tid": 754975260290719744, "text": "Fail To Remain Personal Injury Collision | Halfmoon Sq &amp; Calverley Trl [43 Div.] 07/18 05:39 #Highland_Creek #Toronto", "created_at": "Mon Jul 18 09:45:03 +0000 2016", "klabel": 132}}, {"geometry": {"type": "Point", "coordinates": [-79.1960693, 43.7931305]}, "type": "Feature", "id": 755143622320877568, "properties": {"loc": [-79.1960693, 43.7931305], "centroid": [-79.55960548918961, 43.61353030798165], "screen_name": "tpscalls", "time": 1468893244.0, "tid": 755143622320877568, "text": "Person With A Knife | Falaise Rd &amp; Morningside Ave [43 Div.] 07/18 16:50 #Scarborough #Toronto", "created_at": "Mon Jul 18 20:54:04 +0000 2016", "klabel": 132}}, {"geometry": {"type": "Point", "coordinates": [-79.204952, 43.782606]}, "type": "Feature", "id": 755194958504660992, "properties": {"loc": [-79.204952, 43.782606], "centroid": [-79.55960548918961, 43.61353030798165], "screen_name": "tpscalls", "time": 1468905483.0, "tid": 755194958504660992, "text": "Fail To Remain Personal Injury Collision | 2863 Ellesmere Rd &amp; Neilson Rd [HP] 07/18 20:12 #Morningside #Toronto", "created_at": "Tue Jul 19 00:18:03 +0000 2016", "klabel": 132}}, {"geometry": {"type": "Point", "coordinates": [-79.1960693, 43.7931305]}, "type": "Feature", "id": 755246298488532992, "properties": {"loc": [-79.1960693, 43.7931305], "centroid": [-79.55960548918961, 43.61353030798165], "screen_name": "tpscalls", "time": 1468917724.0, "tid": 755246298488532992, "text": "See Ambulance | Falaise Rd &amp; Morningside Ave [43 Div.] 07/18 23:37 #Scarborough #Toronto", "created_at": "Tue Jul 19 03:42:04 +0000 2016", "klabel": 132}}, {"geometry": {"type": "Point", "coordinates": [-79.19428, 43.7909]}, "type": "Feature", "id": 755411119171313664, "properties": {"loc": [-79.19428, 43.7909], "centroid": [-79.55960548918961, 43.61353030798165], "screen_name": "the_yan14", "time": 1468957020.0, "tid": 755411119171313664, "text": "It's a part of the day job #drugtested #peeisgold #cleanathlete @ Toronto Pan Am Sports Centre https://t.co/X8BhGuLzPB", "created_at": "Tue Jul 19 14:37:00 +0000 2016", "klabel": 132}}, {"geometry": {"type": "Point", "coordinates": [-79.1954859, 43.7848172]}, "type": "Feature", "id": 755449893041373184, "properties": {"loc": [-79.1954859, 43.7848172], "centroid": [-79.55960548918961, 43.61353030798165], "screen_name": "tofireE", "time": 1468966264.0, "tid": 755449893041373184, "text": "Fire (Grass/rubbish) - Mornelle Crt b/w Ellesmere Road / Morningside Avenue, Scarborough (2 Trucks)", "created_at": "Tue Jul 19 17:11:04 +0000 2016", "klabel": 132}}, {"geometry": {"type": "Point", "coordinates": [-79.1954859, 43.7848172]}, "type": "Feature", "id": 755449894001934336, "properties": {"loc": [-79.1954859, 43.7848172], "centroid": [-79.55960548918961, 43.61353030798165], "screen_name": "tofiref", "time": 1468966264.0, "tid": 755449894001934336, "text": "Fire (Grass/rubbish) - Mornelle Crt b/w Ellesmere Road / Morningside Avenue, Scarborough (2 Trucks)", "created_at": "Tue Jul 19 17:11:04 +0000 2016", "klabel": 132}}, {"geometry": {"type": "Point", "coordinates": [-79.20759559, 43.78241943]}, "type": "Feature", "id": 755633220339761152, "properties": {"loc": [-79.20759559, 43.78241943], "centroid": [-79.55960548918961, 43.61353030798165], "screen_name": "MeoMeoMeow", "time": 1469009973.0, "tid": 755633220339761152, "text": "Slipknot Tour 2016 in Toronto \u2764\ufe0f #slipknot #slipknot2016 #toronto @ Air Canada Centre https://t.co/Ih4Ev7jrVW", "created_at": "Wed Jul 20 05:19:33 +0000 2016", "klabel": 132}}, {"geometry": {"type": "Point", "coordinates": [-79.20759559, 43.78241943]}, "type": "Feature", "id": 755655210912063488, "properties": {"loc": [-79.20759559, 43.78241943], "centroid": [-79.55960548918961, 43.61353030798165], "screen_name": "MeoMeoMeow", "time": 1469015216.0, "tid": 755655210912063488, "text": "Slipknot Tour 2016 in Toronto\u2764\ufe0f #toronto #slipknot2016 #slipknot #marylinmanson #ofmiceandmen @\u2026 https://t.co/3HrnfdKmck", "created_at": "Wed Jul 20 06:46:56 +0000 2016", "klabel": 132}}, {"geometry": {"type": "Point", "coordinates": [-79.209707, 43.790723]}, "type": "Feature", "id": 755923004454998016, "properties": {"loc": [-79.209707, 43.790723], "centroid": [-79.55960548918961, 43.61353030798165], "screen_name": "tpscalls", "time": 1469079063.0, "tid": 755923004454998016, "text": "See Ambulance | Military Trl &amp; Misthollow Sq [43 Div.] 07/20 20:25 #Morningside #Toronto", "created_at": "Thu Jul 21 00:31:03 +0000 2016", "klabel": 132}}, {"geometry": {"type": "Point", "coordinates": [-79.1932632, 43.7853028]}, "type": "Feature", "id": 756033229010894848, "properties": {"loc": [-79.1932632, 43.7853028], "centroid": [-79.55960548918961, 43.61353030798165], "screen_name": "tpscalls", "time": 1469105342.0, "tid": 756033229010894848, "text": "Hazard | Morningside Ave &amp; Ellesmere Rd [43 Div.] 07/21 03:43 #Highland_Creek #Toronto", "created_at": "Thu Jul 21 07:49:02 +0000 2016", "klabel": 132}}, {"geometry": {"type": "Point", "coordinates": [-79.1962847, 43.7918939]}, "type": "Feature", "id": 756107972426752000, "properties": {"loc": [-79.1962847, 43.7918939], "centroid": [-79.55960548918961, 43.61353030798165], "screen_name": "tpscalls", "time": 1469123163.0, "tid": 756107972426752000, "text": "Animal Comp | Hepc &amp; Bonspiel Dr [43 Div.] 07/21 08:40 #Morningside #Toronto", "created_at": "Thu Jul 21 12:46:03 +0000 2016", "klabel": 132}}, {"geometry": {"type": "Point", "coordinates": [-79.204952, 43.782606]}, "type": "Feature", "id": 756117786959699968, "properties": {"loc": [-79.204952, 43.782606], "centroid": [-79.55960548918961, 43.61353030798165], "screen_name": "tpscalls", "time": 1469125503.0, "tid": 756117786959699968, "text": "See Ambulance | Neilson Rd &amp; Ellesmere Rd [43 Div.] 07/21 09:19 #Morningside #Toronto", "created_at": "Thu Jul 21 13:25:03 +0000 2016", "klabel": 132}}, {"geometry": {"type": "Point", "coordinates": [-79.21117, 43.790597]}, "type": "Feature", "id": 756202348599476224, "properties": {"loc": [-79.21117, 43.790597], "centroid": [-79.55960548918961, 43.61353030798165], "screen_name": "tofireE", "time": 1469145664.0, "tid": 756202348599476224, "text": "Medical (Vsa) - Sandrift Sq b/w Keeler Boulevard / Keeler Boulevard, Scarborough (2 Trucks)", "created_at": "Thu Jul 21 19:01:04 +0000 2016", "klabel": 132}}, {"geometry": {"type": "Point", "coordinates": [-79.1954859, 43.7848172]}, "type": "Feature", "id": 756204616094740480, "properties": {"loc": [-79.1954859, 43.7848172], "centroid": [-79.55960548918961, 43.61353030798165], "screen_name": "tofire", "time": 1469146204.0, "tid": 756204616094740480, "text": "Medical (Unconscious) - Mornelle Crt b/w Ellesmere Road / Morningside Avenue, Scarborough (2 Trucks)", "created_at": "Thu Jul 21 19:10:04 +0000 2016", "klabel": 132}}, {"geometry": {"type": "Point", "coordinates": [-79.1954859, 43.7848172]}, "type": "Feature", "id": 756204617004908544, "properties": {"loc": [-79.1954859, 43.7848172], "centroid": [-79.55960548918961, 43.61353030798165], "screen_name": "tofireE", "time": 1469146204.0, "tid": 756204617004908544, "text": "Medical (Unconscious) - Mornelle Crt b/w Ellesmere Road / Morningside Avenue, Scarborough (2 Trucks)", "created_at": "Thu Jul 21 19:10:04 +0000 2016", "klabel": 132}}, {"geometry": {"type": "Point", "coordinates": [-79.21117, 43.790597]}, "type": "Feature", "id": 756206124127424512, "properties": {"loc": [-79.21117, 43.790597], "centroid": [-79.55960548918961, 43.61353030798165], "screen_name": "tofire", "time": 1469146564.0, "tid": 756206124127424512, "text": "UD: Medical (Vsa) - Sandrift Sq b/w Keeler Boulevard / Keeler Boulevard, Scarborough (3 Trucks)", "created_at": "Thu Jul 21 19:16:04 +0000 2016", "klabel": 132}}, {"geometry": {"type": "Point", "coordinates": [-79.19319491, 43.7860351]}, "type": "Feature", "id": 756231370641408000, "properties": {"loc": [-79.19319491, 43.7860351], "centroid": [-79.55960548918961, 43.61353030798165], "screen_name": "gracelili92", "time": 1469152583.0, "tid": 756231370641408000, "text": "Post workout. That was a great \ud83c\udfc3! @ Centennial College Morningside Campus https://t.co/0QokF23mo6", "created_at": "Thu Jul 21 20:56:23 +0000 2016", "klabel": 132}}, {"geometry": {"type": "Point", "coordinates": [-79.204952, 43.782606]}, "type": "Feature", "id": 756250666788646913, "properties": {"loc": [-79.204952, 43.782606], "centroid": [-79.55960548918961, 43.61353030798165], "screen_name": "tpscalls", "time": 1469157184.0, "tid": 756250666788646913, "text": "Missing Vulnerable Person | 2863 Ellesmere Rd &amp; Neilson Rd [43 Div.] 07/21 18:06 #Morningside #Toronto", "created_at": "Thu Jul 21 22:13:04 +0000 2016", "klabel": 132}}, {"geometry": {"type": "Point", "coordinates": [-79.204952, 43.782606]}, "type": "Feature", "id": 756261488214568960, "properties": {"loc": [-79.204952, 43.782606], "centroid": [-79.55960548918961, 43.61353030798165], "screen_name": "tofire", "time": 1469159764.0, "tid": 756261488214568960, "text": "Alarm Institution - Neilson Road b/w 2877 Ellesmere Road / Ellesmere Road, Scarborough (7 Trucks)", "created_at": "Thu Jul 21 22:56:04 +0000 2016", "klabel": 132}}, {"geometry": {"type": "Point", "coordinates": [-79.204952, 43.782606]}, "type": "Feature", "id": 756261489409921024, "properties": {"loc": [-79.204952, 43.782606], "centroid": [-79.55960548918961, 43.61353030798165], "screen_name": "tofireE", "time": 1469159764.0, "tid": 756261489409921024, "text": "Alarm Institution - Neilson Road b/w 2877 Ellesmere Road / Ellesmere Road, Scarborough (7 Trucks)", "created_at": "Thu Jul 21 22:56:04 +0000 2016", "klabel": 132}}, {"geometry": {"type": "Point", "coordinates": [-79.20626, 43.785558]}, "type": "Feature", "id": 756376741766111232, "properties": {"loc": [-79.20626, 43.785558], "centroid": [-79.55960548918961, 43.61353030798165], "screen_name": "tpscalls", "time": 1469187242.0, "tid": 756376741766111232, "text": "Robbery | Neilson Rd &amp; Livonia Pl [42 Div.] 07/22 02:29 #Morningside #Toronto", "created_at": "Fri Jul 22 06:34:02 +0000 2016", "klabel": 132}}, {"geometry": {"type": "Point", "coordinates": [-79.1960693, 43.7931305]}, "type": "Feature", "id": 756509619812466688, "properties": {"loc": [-79.1960693, 43.7931305], "centroid": [-79.55960548918961, 43.61353030798165], "screen_name": "tpscalls", "time": 1469218923.0, "tid": 756509619812466688, "text": "Dispute | Falaise Rd &amp; Morningside Ave [43 Div.] 07/22 11:15 #Scarborough #Toronto", "created_at": "Fri Jul 22 15:22:03 +0000 2016", "klabel": 132}}, {"geometry": {"type": "Point", "coordinates": [-79.1944166, 43.7893018]}, "type": "Feature", "id": 756519436891348993, "properties": {"loc": [-79.1944166, 43.7893018], "centroid": [-79.55960548918961, 43.61353030798165], "screen_name": "tpscalls", "time": 1469221263.0, "tid": 756519436891348993, "text": "Disorderlies | Morningside Ave &amp; Military Trl [43 Div.] 07/22 11:55 #Morningside #Toronto", "created_at": "Fri Jul 22 16:01:03 +0000 2016", "klabel": 132}}, {"geometry": {"type": "Point", "coordinates": [-79.18760809, 43.78385219]}, "type": "Feature", "id": 756577388272705537, "properties": {"loc": [-79.18760809, 43.78385219], "centroid": [-79.55960548918961, 43.61353030798165], "screen_name": "StupidSciencer", "time": 1469235080.0, "tid": 756577388272705537, "text": "I may be smarter than I thought. #science #NMR #R @ University of Toronto Scarborough (UTSC) https://t.co/z0NgFFK2vr", "created_at": "Fri Jul 22 19:51:20 +0000 2016", "klabel": 132}}, {"geometry": {"type": "Point", "coordinates": [-79.1900593, 43.8041409]}, "type": "Feature", "id": 756595950030819330, "properties": {"loc": [-79.1900593, 43.8041409], "centroid": [-79.55960548918961, 43.61353030798165], "screen_name": "tofire", "time": 1469239506.0, "tid": 756595950030819330, "text": "Vehicle (Personal Injury) - Conlins Road @ Sheppard Avenue East, Scarborough (2 Trucks)", "created_at": "Fri Jul 22 21:05:06 +0000 2016", "klabel": 132}}, {"geometry": {"type": "Point", "coordinates": [-79.1900593, 43.8041409]}, "type": "Feature", "id": 756595950928465921, "properties": {"loc": [-79.1900593, 43.8041409], "centroid": [-79.55960548918961, 43.61353030798165], "screen_name": "tofireE", "time": 1469239506.0, "tid": 756595950928465921, "text": "Vehicle (Personal Injury) - Conlins Road @ Sheppard Avenue East, Scarborough (2 Trucks)", "created_at": "Fri Jul 22 21:05:06 +0000 2016", "klabel": 132}}, {"geometry": {"type": "Point", "coordinates": [-79.198, 43.779]}, "type": "Feature", "id": 756645861095014401, "properties": {"loc": [-79.198, 43.779], "centroid": [-79.55960548918961, 43.61353030798165], "screen_name": "tyeprincess", "time": 1469251405.0, "tid": 756645861095014401, "text": "I almost fell in @ Morningside Park (Toronto) https://t.co/q4M8sQkSXO", "created_at": "Sat Jul 23 00:23:25 +0000 2016", "klabel": 132}}, {"geometry": {"type": "Point", "coordinates": [-79.19428, 43.7909]}, "type": "Feature", "id": 756937721394978816, "properties": {"loc": [-79.19428, 43.7909], "centroid": [-79.55960548918961, 43.61353030798165], "screen_name": "DonekSnowboards", "time": 1469320990.0, "tid": 756937721394978816, "text": "Olympian @katietsuyuki training for her training time in #newzealand. Doesn't look fun but we're\u2026 https://t.co/o9UPIsxZE2", "created_at": "Sat Jul 23 19:43:10 +0000 2016", "klabel": 132}}, {"geometry": {"type": "Point", "coordinates": [-79.1944166, 43.7893018]}, "type": "Feature", "id": 757007149067272192, "properties": {"loc": [-79.1944166, 43.7893018], "centroid": [-79.55960548918961, 43.61353030798165], "screen_name": "tpscalls", "time": 1469337543.0, "tid": 757007149067272192, "text": "Personal Injury Collision | Military Trl &amp; Morningside Ave [HP] 07/23 20:13 #Morningside #Toronto", "created_at": "Sun Jul 24 00:19:03 +0000 2016", "klabel": 132}}, {"geometry": {"type": "Point", "coordinates": [-79.1960693, 43.7931305]}, "type": "Feature", "id": 757060507589369858, "properties": {"loc": [-79.1960693, 43.7931305], "centroid": [-79.55960548918961, 43.61353030798165], "screen_name": "tpscalls", "time": 1469350265.0, "tid": 757060507589369858, "text": "Noisy Party | Bonspiel Dr &amp; Morningside Ave [43 Div.] 07/23 23:47 #Scarborough #Toronto", "created_at": "Sun Jul 24 03:51:05 +0000 2016", "klabel": 132}}, {"geometry": {"type": "Point", "coordinates": [-79.206981, 43.792816]}, "type": "Feature", "id": 757304611766145024, "properties": {"loc": [-79.206981, 43.792816], "centroid": [-79.55960548918961, 43.61353030798165], "screen_name": "tpscalls", "time": 1469408464.0, "tid": 757304611766145024, "text": "See Ambulance | Keeler Blvd &amp; Keeler Blvd [43 Div.] 07/24 15:56 #Morningside #Toronto", "created_at": "Sun Jul 24 20:01:04 +0000 2016", "klabel": 132}}, {"geometry": {"type": "Point", "coordinates": [-79.198, 43.779]}, "type": "Feature", "id": 757331782731567104, "properties": {"loc": [-79.198, 43.779], "centroid": [-79.55960548918961, 43.61353030798165], "screen_name": "hossain_food", "time": 1469414942.0, "tid": 757331782731567104, "text": "Two things in life I cherish very much. #foodeatingfood @\u2026 https://t.co/tii8XlQpDs", "created_at": "Sun Jul 24 21:49:02 +0000 2016", "klabel": 132}}, {"geometry": {"type": "Point", "coordinates": [-79.204952, 43.782606]}, "type": "Feature", "id": 757636799812497408, "properties": {"loc": [-79.204952, 43.782606], "centroid": [-79.55960548918961, 43.61353030798165], "screen_name": "tofire", "time": 1469487663.0, "tid": 757636799812497408, "text": "Medical (Unconscious) - Ellesmere Road b/w Neilson Road / Ellesmere Ravine, Scarborough (2 Trucks)", "created_at": "Mon Jul 25 18:01:03 +0000 2016", "klabel": 132}}, {"geometry": {"type": "Point", "coordinates": [-79.204952, 43.782606]}, "type": "Feature", "id": 757638056346255360, "properties": {"loc": [-79.204952, 43.782606], "centroid": [-79.55960548918961, 43.61353030798165], "screen_name": "tofire", "time": 1469487963.0, "tid": 757638056346255360, "text": "UD: Tems Transferred (Read Remarks) - Ellesmere Road b/w Neilson Road / Ellesmere Ravine, Scarborough (2 Trucks)", "created_at": "Mon Jul 25 18:06:03 +0000 2016", "klabel": 132}}, {"geometry": {"type": "Point", "coordinates": [-79.204952, 43.782606]}, "type": "Feature", "id": 757638057277394945, "properties": {"loc": [-79.204952, 43.782606], "centroid": [-79.55960548918961, 43.61353030798165], "screen_name": "tofireE", "time": 1469487963.0, "tid": 757638057277394945, "text": "UD: Tems Transferred (Read Remarks) - Ellesmere Road b/w Neilson Road / Ellesmere Ravine, Scarborough (2 Trucks)", "created_at": "Mon Jul 25 18:06:03 +0000 2016", "klabel": 132}}, {"geometry": {"type": "Point", "coordinates": [-79.204952, 43.782606]}, "type": "Feature", "id": 757639316529156096, "properties": {"loc": [-79.204952, 43.782606], "centroid": [-79.55960548918961, 43.61353030798165], "screen_name": "tofireE", "time": 1469488263.0, "tid": 757639316529156096, "text": "UD: Medical (Other) - Ellesmere Road b/w Neilson Road / Ellesmere Ravine, Scarborough (2 Trucks)", "created_at": "Mon Jul 25 18:11:03 +0000 2016", "klabel": 132}}, {"geometry": {"type": "Point", "coordinates": [-79.204952, 43.782606]}, "type": "Feature", "id": 757639315631513600, "properties": {"loc": [-79.204952, 43.782606], "centroid": [-79.55960548918961, 43.61353030798165], "screen_name": "tofire", "time": 1469488263.0, "tid": 757639315631513600, "text": "UD: Medical (Other) - Ellesmere Road b/w Neilson Road / Ellesmere Ravine, Scarborough (2 Trucks)", "created_at": "Mon Jul 25 18:11:03 +0000 2016", "klabel": 132}}, {"geometry": {"type": "Point", "coordinates": [-79.214973, 43.787649]}, "type": "Feature", "id": 757708525627932672, "properties": {"loc": [-79.214973, 43.787649], "centroid": [-79.55960548918961, 43.61353030798165], "screen_name": "tofire", "time": 1469504764.0, "tid": 757708525627932672, "text": "Check Call - Highcastle Road b/w Pineslope Crescent / Grovenest Dr, Scarborough (2 Trucks)", "created_at": "Mon Jul 25 22:46:04 +0000 2016", "klabel": 132}}, {"geometry": {"type": "Point", "coordinates": [-79.214973, 43.787649]}, "type": "Feature", "id": 757708526596853760, "properties": {"loc": [-79.214973, 43.787649], "centroid": [-79.55960548918961, 43.61353030798165], "screen_name": "tofireE", "time": 1469504764.0, "tid": 757708526596853760, "text": "Check Call - Highcastle Road b/w Pineslope Crescent / Grovenest Dr, Scarborough (2 Trucks)", "created_at": "Mon Jul 25 22:46:04 +0000 2016", "klabel": 132}}, {"geometry": {"type": "Point", "coordinates": [-79.1932632, 43.7853028]}, "type": "Feature", "id": 757847430234681345, "properties": {"loc": [-79.1932632, 43.7853028], "centroid": [-79.55960548918961, 43.61353030798165], "screen_name": "tpscalls", "time": 1469537882.0, "tid": 757847430234681345, "text": "Dispute | Ellesmere Rd &amp; Morningside Ave [43 Div.] 07/26 03:51 #Highland_Creek #Toronto", "created_at": "Tue Jul 26 07:58:02 +0000 2016", "klabel": 132}}, {"geometry": {"type": "Point", "coordinates": [-79.196639, 43.794916]}, "type": "Feature", "id": 758004467170217992, "properties": {"loc": [-79.196639, 43.794916], "centroid": [-79.55960548918961, 43.61353030798165], "screen_name": "tpscalls", "time": 1469575322.0, "tid": 758004467170217992, "text": "See Ambulance | Morningside Ave &amp; 401 Hwy E [43 Div.] 07/26 14:15 #Morningside #Toronto", "created_at": "Tue Jul 26 18:22:02 +0000 2016", "klabel": 132}}, {"geometry": {"type": "Point", "coordinates": [-79.204952, 43.782606]}, "type": "Feature", "id": 758122246288379904, "properties": {"loc": [-79.204952, 43.782606], "centroid": [-79.55960548918961, 43.61353030798165], "screen_name": "tpscalls", "time": 1469603403.0, "tid": 758122246288379904, "text": "Indecent Exposure | Ellesmere Rd &amp; Neilson Rd [43 Div.] 07/26 22:05 #Morningside #Toronto", "created_at": "Wed Jul 27 02:10:03 +0000 2016", "klabel": 132}}, {"geometry": {"type": "Point", "coordinates": [-79.18760809, 43.78385219]}, "type": "Feature", "id": 758132020614606849, "properties": {"loc": [-79.18760809, 43.78385219], "centroid": [-79.55960548918961, 43.61353030798165], "screen_name": "jahmoun1", "time": 1469605733.0, "tid": 758132020614606849, "text": "Toronto Toronto \ud83d\ude4c\ud83d\ude4c\ud83d\ude4c\n\n#Summer16 \n#Caribana2016\n#TribalCarnival @ University of Toronto\u2026 https://t.co/c3rU0nZtb2", "created_at": "Wed Jul 27 02:48:53 +0000 2016", "klabel": 132}}, {"geometry": {"type": "Point", "coordinates": [-79.1937768, 43.7881124]}, "type": "Feature", "id": 758152447135195138, "properties": {"loc": [-79.1937768, 43.7881124], "centroid": [-79.55960548918961, 43.61353030798165], "screen_name": "tpscalls", "time": 1469610603.0, "tid": 758152447135195138, "text": "Disorderlies | Mornelle Crt &amp; Morningside Ave [43 Div.] 07/27 00:03 #Morningside #Toronto", "created_at": "Wed Jul 27 04:10:03 +0000 2016", "klabel": 132}}, {"geometry": {"type": "Point", "coordinates": [-79.1932632, 43.7853028]}, "type": "Feature", "id": 758171321863987200, "properties": {"loc": [-79.1932632, 43.7853028], "centroid": [-79.55960548918961, 43.61353030798165], "screen_name": "tpscalls", "time": 1469615103.0, "tid": 758171321863987200, "text": "Personal Injury Collision | Morningside Ave &amp; Ellesmere Rd [HP] 07/27 01:19 #Highland_Creek #Toronto", "created_at": "Wed Jul 27 05:25:03 +0000 2016", "klabel": 132}}, {"geometry": {"type": "Point", "coordinates": [-79.1855726, 43.77997057]}, "type": "Feature", "id": 758294952480804864, "properties": {"loc": [-79.1855726, 43.77997057], "centroid": [-79.55960548918961, 43.61353030798165], "screen_name": "knottrudy", "time": 1469644579.0, "tid": 758294952480804864, "text": "It's knott what they say about you, Rudy, It's what they whisper.. @ Miller Lash House https://t.co/p9Ji7zKevo", "created_at": "Wed Jul 27 13:36:19 +0000 2016", "klabel": 132}}, {"geometry": {"type": "Point", "coordinates": [-79.18760809, 43.78385219]}, "type": "Feature", "id": 758308504947961856, "properties": {"loc": [-79.18760809, 43.78385219], "centroid": [-79.55960548918961, 43.61353030798165], "screen_name": "jahmoun1", "time": 1469647810.0, "tid": 758308504947961856, "text": "Morning Toronto \ud83d\udc83\ud83d\ude04\n\n#Summer16 \n#Caribana2016 \n#Toronto @ University of Toronto Scarborough (UTSC) https://t.co/bZqEOn5QA1", "created_at": "Wed Jul 27 14:30:10 +0000 2016", "klabel": 132}}, {"geometry": {"type": "Point", "coordinates": [-79.1944166, 43.7893018]}, "type": "Feature", "id": 758317031217303552, "properties": {"loc": [-79.1944166, 43.7893018], "centroid": [-79.55960548918961, 43.61353030798165], "screen_name": "tpscalls", "time": 1469649843.0, "tid": 758317031217303552, "text": "See Ambulance | Military Trl &amp; Morningside Ave [43 Div.] 07/27 10:59 #Morningside #Toronto", "created_at": "Wed Jul 27 15:04:03 +0000 2016", "klabel": 132}}, {"geometry": {"type": "Point", "coordinates": [-79.18760809, 43.78385219]}, "type": "Feature", "id": 758335700408209408, "properties": {"loc": [-79.18760809, 43.78385219], "centroid": [-79.55960548918961, 43.61353030798165], "screen_name": "jahmoun1", "time": 1469654294.0, "tid": 758335700408209408, "text": "Room Service \ud83d\ude02\n\n#PrinceEjay\ud83d\udc76\n#ChunkyVeg\ud83d\ude0b @ University of Toronto Scarborough (UTSC) https://t.co/PI8OMhxeM1", "created_at": "Wed Jul 27 16:18:14 +0000 2016", "klabel": 132}}, {"geometry": {"type": "Point", "coordinates": [-79.204952, 43.782606]}, "type": "Feature", "id": 758405364593418241, "properties": {"loc": [-79.204952, 43.782606], "centroid": [-79.55960548918961, 43.61353030798165], "screen_name": "tpscalls", "time": 1469670904.0, "tid": 758405364593418241, "text": "Disorderlies | 2863 Ellesmere Rd &amp; Neilson Rd [43 Div.] 07/27 16:48 #Morningside #Toronto", "created_at": "Wed Jul 27 20:55:04 +0000 2016", "klabel": 132}}, {"geometry": {"type": "Point", "coordinates": [-79.204952, 43.782606]}, "type": "Feature", "id": 758461231535620097, "properties": {"loc": [-79.204952, 43.782606], "centroid": [-79.55960548918961, 43.61353030798165], "screen_name": "tpscalls", "time": 1469684223.0, "tid": 758461231535620097, "text": "Disorderlies | Neilson Rd &amp; Ellesmere Rd [43 Div.] 07/27 20:30 #Morningside #Toronto", "created_at": "Thu Jul 28 00:37:03 +0000 2016", "klabel": 132}}, {"geometry": {"type": "Point", "coordinates": [-79.1932632, 43.7853028]}, "type": "Feature", "id": 758488160544366592, "properties": {"loc": [-79.1932632, 43.7853028], "centroid": [-79.55960548918961, 43.61353030798165], "screen_name": "tpscalls", "time": 1469690644.0, "tid": 758488160544366592, "text": "Person With A Knife | Morningside Ave &amp; Ellesmere Rd [43 Div.] 07/27 22:20 #Highland_Creek #Toronto", "created_at": "Thu Jul 28 02:24:04 +0000 2016", "klabel": 132}}, {"geometry": {"type": "Point", "coordinates": [-79.188292, 43.78658]}, "type": "Feature", "id": 758509300448956416, "properties": {"loc": [-79.188292, 43.78658], "centroid": [-79.55960548918961, 43.61353030798165], "screen_name": "tpscalls", "time": 1469695684.0, "tid": 758509300448956416, "text": "Disorderlies | C P R &amp; East Highland Creek [42 Div.] 07/27 23:43 #Scarborough #Toronto", "created_at": "Thu Jul 28 03:48:04 +0000 2016", "klabel": 132}}, {"geometry": {"type": "Point", "coordinates": [-79.198, 43.779]}, "type": "Feature", "id": 758702837014626304, "properties": {"loc": [-79.198, 43.779], "centroid": [-79.55960548918961, 43.61353030798165], "screen_name": "DJ_PEMBE", "time": 1469741827.0, "tid": 758702837014626304, "text": "Every year I am privileged to be apart of something grand in the fight against cancer! This year\u2026 https://t.co/eSFOM3EbRs", "created_at": "Thu Jul 28 16:37:07 +0000 2016", "klabel": 132}}, {"geometry": {"type": "Point", "coordinates": [-79.18760809, 43.78385219]}, "type": "Feature", "id": 758747121826746369, "properties": {"loc": [-79.18760809, 43.78385219], "centroid": [-79.55960548918961, 43.61353030798165], "screen_name": "jahmoun1", "time": 1469752385.0, "tid": 758747121826746369, "text": "I found company , di chupidness now start \ud83d\ude0b\ud83d\ude0a\ud83d\ude02\n\n#Toronto \n#Caribana2016 \n\n@dancingjade hymc \ud83d\ude2d @\u2026 https://t.co/x8ntQrOOzZ", "created_at": "Thu Jul 28 19:33:05 +0000 2016", "klabel": 132}}, {"geometry": {"type": "Point", "coordinates": [-79.18760809, 43.78385219]}, "type": "Feature", "id": 758822835670310912, "properties": {"loc": [-79.18760809, 43.78385219], "centroid": [-79.55960548918961, 43.61353030798165], "screen_name": "xmxxnhxi", "time": 1469770436.0, "tid": 758822835670310912, "text": "salvia divinorum @ University of Toronto Scarborough (UTSC) https://t.co/vHr3Us1OhL", "created_at": "Fri Jul 29 00:33:56 +0000 2016", "klabel": 132}}, {"geometry": {"type": "Point", "coordinates": [-79.198, 43.779]}, "type": "Feature", "id": 759033076597002240, "properties": {"loc": [-79.198, 43.779], "centroid": [-79.55960548918961, 43.61353030798165], "screen_name": "evaristomafilho", "time": 1469820562.0, "tid": 759033076597002240, "text": "\ud83d\udd1d @ Morningside Park (Toronto) https://t.co/Ijm5DxOGuj", "created_at": "Fri Jul 29 14:29:22 +0000 2016", "klabel": 132}}, {"geometry": {"type": "Point", "coordinates": [-79.206, 43.787]}, "type": "Feature", "id": 759036880167899137, "properties": {"loc": [-79.206, 43.787], "centroid": [-79.55960548918961, 43.61353030798165], "screen_name": "jahmoun1", "time": 1469821469.0, "tid": 759036880167899137, "text": "\ud83d\udc83\ud83d\udc83\ud83d\udc83 @ Morningside, Toronto https://t.co/LGNLYwXZd2", "created_at": "Fri Jul 29 14:44:29 +0000 2016", "klabel": 132}}, {"geometry": {"type": "Point", "coordinates": [-79.204952, 43.782606]}, "type": "Feature", "id": 759207900665487360, "properties": {"loc": [-79.204952, 43.782606], "centroid": [-79.55960548918961, 43.61353030798165], "screen_name": "tpscalls", "time": 1469862243.0, "tid": 759207900665487360, "text": "See Ambulance | Neilson Rd &amp; Ellesmere Rd [43 Div.] 07/29 21:59 #Morningside #Toronto", "created_at": "Sat Jul 30 02:04:03 +0000 2016", "klabel": 132}}, {"geometry": {"type": "Point", "coordinates": [-79.2056902, 43.7856839]}, "type": "Feature", "id": 759213940777816064, "properties": {"loc": [-79.2056902, 43.7856839], "centroid": [-79.55960548918961, 43.61353030798165], "screen_name": "tpscalls", "time": 1469863683.0, "tid": 759213940777816064, "text": "Fail To Remain Property Damage Collision | 10 Livonia Pl &amp; 21 Livonia Pl [43 Div.] 07/29 22:21 #Morningside #Toronto", "created_at": "Sat Jul 30 02:28:03 +0000 2016", "klabel": 132}}, {"geometry": {"type": "Point", "coordinates": [-79.194766, 43.8011302]}, "type": "Feature", "id": 759227529265868800, "properties": {"loc": [-79.194766, 43.8011302], "centroid": [-79.55960548918961, 43.61353030798165], "screen_name": "tpscalls", "time": 1469866923.0, "tid": 759227529265868800, "text": "Person With A Knife | Morningside Ave &amp; Grand Marshall Dr [42 Div.] 07/29 23:17 #Malvern #Toronto", "created_at": "Sat Jul 30 03:22:03 +0000 2016", "klabel": 132}}, {"geometry": {"type": "Point", "coordinates": [-79.1960693, 43.7931305]}, "type": "Feature", "id": 759272069397876737, "properties": {"loc": [-79.1960693, 43.7931305], "centroid": [-79.55960548918961, 43.61353030798165], "screen_name": "tpscalls", "time": 1469877542.0, "tid": 759272069397876737, "text": "Disorderlies | Falaise Rd &amp; Morningside Ave [43 Div.] 07/30 02:13 #Scarborough #Toronto", "created_at": "Sat Jul 30 06:19:02 +0000 2016", "klabel": 132}}, {"geometry": {"type": "Point", "coordinates": [-79.194766, 43.8011302]}, "type": "Feature", "id": 759297737330417664, "properties": {"loc": [-79.194766, 43.8011302], "centroid": [-79.55960548918961, 43.61353030798165], "screen_name": "tpscalls", "time": 1469883662.0, "tid": 759297737330417664, "text": "Person With A Knife | Morningside Ave &amp; Grand Marshall Dr [42 Div.] 07/30 03:55 #Malvern #Toronto", "created_at": "Sat Jul 30 08:01:02 +0000 2016", "klabel": 132}}, {"geometry": {"type": "Point", "coordinates": [-79.18760809, 43.78385219]}, "type": "Feature", "id": 759378625300803584, "properties": {"loc": [-79.18760809, 43.78385219], "centroid": [-79.55960548918961, 43.61353030798165], "screen_name": "jahmoun1", "time": 1469902947.0, "tid": 759378625300803584, "text": "#morninginspiration #god #calm #trust #believe #jesus #pray #amen \ud83d\ude4f @ University of Toronto\u2026 https://t.co/J0bKjgRhv3", "created_at": "Sat Jul 30 13:22:27 +0000 2016", "klabel": 132}}, {"geometry": {"type": "Point", "coordinates": [-79.198, 43.779]}, "type": "Feature", "id": 759429476182745088, "properties": {"loc": [-79.198, 43.779], "centroid": [-79.55960548918961, 43.61353030798165], "screen_name": "cranfandy", "time": 1469915071.0, "tid": 759429476182745088, "text": "I think I'm lost... @ Morningside Park (Toronto) https://t.co/7vJfXicaT0", "created_at": "Sat Jul 30 16:44:31 +0000 2016", "klabel": 132}}, {"geometry": {"type": "Point", "coordinates": [-79.204952, 43.782606]}, "type": "Feature", "id": 759434645834432512, "properties": {"loc": [-79.204952, 43.782606], "centroid": [-79.55960548918961, 43.61353030798165], "screen_name": "tofire", "time": 1469916303.0, "tid": 759434645834432512, "text": "Medical (Other) - Neilson Road b/w 2877 Ellesmere Road / Ellesmere Road, Scarborough (2 Trucks)", "created_at": "Sat Jul 30 17:05:03 +0000 2016", "klabel": 132}}, {"geometry": {"type": "Point", "coordinates": [-79.204952, 43.782606]}, "type": "Feature", "id": 759434646824292352, "properties": {"loc": [-79.204952, 43.782606], "centroid": [-79.55960548918961, 43.61353030798165], "screen_name": "tofireE", "time": 1469916304.0, "tid": 759434646824292352, "text": "Medical (Other) - Neilson Road b/w 2877 Ellesmere Road / Ellesmere Road, Scarborough (2 Trucks)", "created_at": "Sat Jul 30 17:05:04 +0000 2016", "klabel": 132}}, {"geometry": {"type": "Point", "coordinates": [-79.1944166, 43.7893018]}, "type": "Feature", "id": 759534054450532352, "properties": {"loc": [-79.1944166, 43.7893018], "centroid": [-79.55960548918961, 43.61353030798165], "screen_name": "tpscalls", "time": 1469940004.0, "tid": 759534054450532352, "text": "Impaired Driver | Military Trl &amp; Morningside Ave [43 Div.] 07/30 19:34 #Morningside #Toronto", "created_at": "Sat Jul 30 23:40:04 +0000 2016", "klabel": 132}}, {"geometry": {"type": "Point", "coordinates": [-79.198, 43.779]}, "type": "Feature", "id": 759615005792866304, "properties": {"loc": [-79.198, 43.779], "centroid": [-79.55960548918961, 43.61353030798165], "screen_name": "adrianprakash_", "time": 1469959305.0, "tid": 759615005792866304, "text": "#tb even though it's not Thursday // \nSummer workout slowly coming\u2026 https://t.co/2ZTKmbXH2Y", "created_at": "Sun Jul 31 05:01:45 +0000 2016", "klabel": 132}}, {"geometry": {"type": "Point", "coordinates": [-79.1932632, 43.7853028]}, "type": "Feature", "id": 759813395117998080, "properties": {"loc": [-79.1932632, 43.7853028], "centroid": [-79.55960548918961, 43.61353030798165], "screen_name": "tofireE", "time": 1470006604.0, "tid": 759813395117998080, "text": "UD: Vehicle Accident (Trapped) - Morningside Avenue @ Ellesmere Road, Scarborough (5 Trucks)", "created_at": "Sun Jul 31 18:10:04 +0000 2016", "klabel": 132}}, {"geometry": {"type": "Point", "coordinates": [-79.1932632, 43.7853028]}, "type": "Feature", "id": 759832772735295488, "properties": {"loc": [-79.1932632, 43.7853028], "centroid": [-79.55960548918961, 43.61353030798165], "screen_name": "tpscalls", "time": 1470011224.0, "tid": 759832772735295488, "text": "Personal Injury Collision | Morningside Ave &amp; Ellesmere Rd [HP] 07/31 15:21 #Highland_Creek #Toronto", "created_at": "Sun Jul 31 19:27:04 +0000 2016", "klabel": 132}}, {"geometry": {"type": "Point", "coordinates": [-79.1932632, 43.7853028]}, "type": "Feature", "id": 759863220958101504, "properties": {"loc": [-79.1932632, 43.7853028], "centroid": [-79.55960548918961, 43.61353030798165], "screen_name": "tpscalls", "time": 1470018484.0, "tid": 759863220958101504, "text": "Dispute | Morningside Park Trl &amp; Ellesmere Rd [43 Div.] 07/31 17:21 #Highland_Creek #Toronto", "created_at": "Sun Jul 31 21:28:04 +0000 2016", "klabel": 132}}, {"geometry": {"type": "Point", "coordinates": [-79.18760809, 43.78385219]}, "type": "Feature", "id": 760039724765499392, "properties": {"loc": [-79.18760809, 43.78385219], "centroid": [-79.55960548918961, 43.61353030798165], "screen_name": "jahmoun1", "time": 1470060565.0, "tid": 760039724765499392, "text": "Big Ppl Party Was Great, Food at Popular Was Best...It's 5:07am no sleept in sight\u2026 https://t.co/Fmf0A6Ffuu", "created_at": "Mon Aug 01 09:09:25 +0000 2016", "klabel": 132}}, {"geometry": {"type": "Point", "coordinates": [-79.1932632, 43.7853028]}, "type": "Feature", "id": 760075365289168896, "properties": {"loc": [-79.1932632, 43.7853028], "centroid": [-79.55960548918961, 43.61353030798165], "screen_name": "tpscalls", "time": 1470069063.0, "tid": 760075365289168896, "text": "See Ambulance | Morningside Ave &amp; Ellesmere Rd [43 Div.] 08/01 07:25 #Highland_Creek #Toronto", "created_at": "Mon Aug 01 11:31:03 +0000 2016", "klabel": 132}}, {"geometry": {"type": "Point", "coordinates": [-79.206, 43.787]}, "type": "Feature", "id": 760134878394355712, "properties": {"loc": [-79.206, 43.787], "centroid": [-79.55960548918961, 43.61353030798165], "screen_name": "jahmoun1", "time": 1470083252.0, "tid": 760134878394355712, "text": "Toronto Good Morning\u270c @ Morningside, Toronto https://t.co/MAiyKUHe3n", "created_at": "Mon Aug 01 15:27:32 +0000 2016", "klabel": 132}}, {"geometry": {"type": "Point", "coordinates": [-79.184229, 43.7827065]}, "type": "Feature", "id": 760144044915773440, "properties": {"loc": [-79.184229, 43.7827065], "centroid": [-79.55960548918961, 43.61353030798165], "screen_name": "abinaaM", "time": 1470085437.0, "tid": 760144044915773440, "text": "You need somebody wavy.\n\nPhotocreds sureka 5 yrs ago \ud83d\ude02 @ Utsc Valley https://t.co/nWlblbWgAl", "created_at": "Mon Aug 01 16:03:57 +0000 2016", "klabel": 132}}, {"geometry": {"type": "Point", "coordinates": [-79.2056902, 43.7856839]}, "type": "Feature", "id": 760212017668034560, "properties": {"loc": [-79.2056902, 43.7856839], "centroid": [-79.55960548918961, 43.61353030798165], "screen_name": "tpscalls", "time": 1470101643.0, "tid": 760212017668034560, "text": "Missing Person Located | 10 Livonia Pl &amp; 21 Livonia Pl [43 Div.] 08/01 16:28 #Morningside #Toronto", "created_at": "Mon Aug 01 20:34:03 +0000 2016", "klabel": 132}}, {"geometry": {"type": "Point", "coordinates": [-79.196639, 43.794916]}, "type": "Feature", "id": 760244479546777600, "properties": {"loc": [-79.196639, 43.794916], "centroid": [-79.55960548918961, 43.61353030798165], "screen_name": "tpscalls", "time": 1470109383.0, "tid": 760244479546777600, "text": "Unknown Trouble | 401 Hwy E &amp; Morningside Ave [43 Div.] 08/01 18:38 #Morningside #Toronto", "created_at": "Mon Aug 01 22:43:03 +0000 2016", "klabel": 132}}, {"geometry": {"type": "Point", "coordinates": [-79.196639, 43.794916]}, "type": "Feature", "id": 760246745150423052, "properties": {"loc": [-79.196639, 43.794916], "centroid": [-79.55960548918961, 43.61353030798165], "screen_name": "tpscalls", "time": 1470109923.0, "tid": 760246745150423052, "text": "Unknown Trouble | 401 Hwy E &amp; Morningside Ave [42 Div.] 08/01 18:45 #Morningside #Toronto", "created_at": "Mon Aug 01 22:52:03 +0000 2016", "klabel": 132}}, {"geometry": {"type": "Point", "coordinates": [-79.188292, 43.78658]}, "type": "Feature", "id": 760369800736538625, "properties": {"loc": [-79.188292, 43.78658], "centroid": [-79.55960548918961, 43.61353030798165], "screen_name": "tpscalls", "time": 1470139262.0, "tid": 760369800736538625, "text": "Disorderlies | Mccowan Rd &amp; West Highland Creek [43 Div.] 08/02 02:56 #Scarborough #Toronto", "created_at": "Tue Aug 02 07:01:02 +0000 2016", "klabel": 132}}, {"geometry": {"type": "Point", "coordinates": [-79.18760809, 43.78385219]}, "type": "Feature", "id": 760488918353444864, "properties": {"loc": [-79.18760809, 43.78385219], "centroid": [-79.55960548918961, 43.61353030798165], "screen_name": "jahmoun1", "time": 1470167661.0, "tid": 760488918353444864, "text": "Jahmoun 1 and 2 \u2764\u2764\n\n#KingEli\ud83d\ude4e \n#PrinceEjay\ud83d\udc76 @ University of Toronto Scarborough (UTSC) https://t.co/i1FDMqWH9s", "created_at": "Tue Aug 02 14:54:21 +0000 2016", "klabel": 132}}, {"geometry": {"type": "Point", "coordinates": [-79.1818798, 43.7973291]}, "type": "Feature", "id": 760604861285199873, "properties": {"loc": [-79.1818798, 43.7973291], "centroid": [-79.55960548918961, 43.61353030798165], "screen_name": "tofire", "time": 1470195304.0, "tid": 760604861285199873, "text": "Medical (Trouble Breathing) - Ponymeadow Ter @ Pictorial St, Scarborough (2 Trucks)", "created_at": "Tue Aug 02 22:35:04 +0000 2016", "klabel": 132}}, {"geometry": {"type": "Point", "coordinates": [-79.1818798, 43.7973291]}, "type": "Feature", "id": 760604862199504898, "properties": {"loc": [-79.1818798, 43.7973291], "centroid": [-79.55960548918961, 43.61353030798165], "screen_name": "tofireE", "time": 1470195305.0, "tid": 760604862199504898, "text": "Medical (Trouble Breathing) - Ponymeadow Ter @ Pictorial St, Scarborough (2 Trucks)", "created_at": "Tue Aug 02 22:35:05 +0000 2016", "klabel": 132}}, {"geometry": {"type": "Point", "coordinates": [-79.18760809, 43.78385219]}, "type": "Feature", "id": 760841571117862913, "properties": {"loc": [-79.18760809, 43.78385219], "centroid": [-79.55960548918961, 43.61353030798165], "screen_name": "jahmoun1", "time": 1470251740.0, "tid": 760841571117862913, "text": "Happy Birthday \ud83d\ude19\u2764\n\n#Wifey\n#Boss\n#Childmother\n#FriendFromSchoolDays\n#ElijahAndEjayMummy @\u2026 https://t.co/VHWVubLz4v", "created_at": "Wed Aug 03 14:15:40 +0000 2016", "klabel": 132}}, {"geometry": {"type": "Point", "coordinates": [-79.18760809, 43.78385219]}, "type": "Feature", "id": 760842103064715265, "properties": {"loc": [-79.18760809, 43.78385219], "centroid": [-79.55960548918961, 43.61353030798165], "screen_name": "jahmoun1", "time": 1470251867.0, "tid": 760842103064715265, "text": "Happy Birthday To You \ud83d\ude19\u2764\n\n#Wifey \n#ElijahAndEjayMummy @ University of Toronto Scarborough (UTSC) https://t.co/jo6TGjHN7g", "created_at": "Wed Aug 03 14:17:47 +0000 2016", "klabel": 132}}, {"geometry": {"type": "Point", "coordinates": [-79.18760809, 43.78385219]}, "type": "Feature", "id": 760843553379495936, "properties": {"loc": [-79.18760809, 43.78385219], "centroid": [-79.55960548918961, 43.61353030798165], "screen_name": "jahmoun1", "time": 1470252213.0, "tid": 760843553379495936, "text": "Morning Face \ud83d\ude29\ud83d\ude34\n\n@gonzogtees \ud83d\udc4a @ University of Toronto Scarborough (UTSC) https://t.co/prV7N62AdI", "created_at": "Wed Aug 03 14:23:33 +0000 2016", "klabel": 132}}, {"geometry": {"type": "Point", "coordinates": [-79.204952, 43.782606]}, "type": "Feature", "id": 760883188902363136, "properties": {"loc": [-79.204952, 43.782606], "centroid": [-79.55960548918961, 43.61353030798165], "screen_name": "tofiref", "time": 1470261663.0, "tid": 760883188902363136, "text": "UD: Fire (Grass/rubbish) - Ellesmere Road b/w Neilson Road / Ellesmere Ravine, Scarborough (3 Trucks)", "created_at": "Wed Aug 03 17:01:03 +0000 2016", "klabel": 132}}, {"geometry": {"type": "Point", "coordinates": [-79.204952, 43.782606]}, "type": "Feature", "id": 760883188113739776, "properties": {"loc": [-79.204952, 43.782606], "centroid": [-79.55960548918961, 43.61353030798165], "screen_name": "tofireE", "time": 1470261663.0, "tid": 760883188113739776, "text": "UD: Fire (Grass/rubbish) - Ellesmere Road b/w Neilson Road / Ellesmere Ravine, Scarborough (3 Trucks)", "created_at": "Wed Aug 03 17:01:03 +0000 2016", "klabel": 132}}, {"geometry": {"type": "Point", "coordinates": [-79.204952, 43.782606]}, "type": "Feature", "id": 760894515343392768, "properties": {"loc": [-79.204952, 43.782606], "centroid": [-79.55960548918961, 43.61353030798165], "screen_name": "tofire", "time": 1470264363.0, "tid": 760894515343392768, "text": "UD: Fire (Grass/rubbish) - Ellesmere Road b/w Neilson Road / Ellesmere Ravine, Scarborough (4 Trucks)", "created_at": "Wed Aug 03 17:46:03 +0000 2016", "klabel": 132}}, {"geometry": {"type": "Point", "coordinates": [-79.204952, 43.782606]}, "type": "Feature", "id": 760894516186472448, "properties": {"loc": [-79.204952, 43.782606], "centroid": [-79.55960548918961, 43.61353030798165], "screen_name": "tofireE", "time": 1470264364.0, "tid": 760894516186472448, "text": "UD: Fire (Grass/rubbish) - Ellesmere Road b/w Neilson Road / Ellesmere Ravine, Scarborough (4 Trucks)", "created_at": "Wed Aug 03 17:46:04 +0000 2016", "klabel": 132}}, {"geometry": {"type": "Point", "coordinates": [-79.204952, 43.782606]}, "type": "Feature", "id": 760894517016924160, "properties": {"loc": [-79.204952, 43.782606], "centroid": [-79.55960548918961, 43.61353030798165], "screen_name": "tofiref", "time": 1470264364.0, "tid": 760894517016924160, "text": "UD: Fire (Grass/rubbish) - Ellesmere Road b/w Neilson Road / Ellesmere Ravine, Scarborough (4 Trucks)", "created_at": "Wed Aug 03 17:46:04 +0000 2016", "klabel": 132}}, {"geometry": {"type": "Point", "coordinates": [-79.18760809, 43.78385219]}, "type": "Feature", "id": 760909499926323204, "properties": {"loc": [-79.18760809, 43.78385219], "centroid": [-79.55960548918961, 43.61353030798165], "screen_name": "jahmoun1", "time": 1470267936.0, "tid": 760909499926323204, "text": "I wanna bring this back home with me yes \ud83d\udc83\ud83d\ude97 @ University of Toronto Scarborough (UTSC) https://t.co/mg36B3S8VU", "created_at": "Wed Aug 03 18:45:36 +0000 2016", "klabel": 132}}, {"geometry": {"type": "Point", "coordinates": [-79.18760809, 43.78385219]}, "type": "Feature", "id": 760972359318638592, "properties": {"loc": [-79.18760809, 43.78385219], "centroid": [-79.55960548918961, 43.61353030798165], "screen_name": "jahmoun1", "time": 1470282923.0, "tid": 760972359318638592, "text": "How to catch this MC thing \ud83d\ude29\ud83d\ude29\ud83d\ude29 @ University of Toronto Scarborough (UTSC) https://t.co/ykWkAjHSde", "created_at": "Wed Aug 03 22:55:23 +0000 2016", "klabel": 132}}, {"geometry": {"type": "Point", "coordinates": [-79.198, 43.779]}, "type": "Feature", "id": 760978768378724353, "properties": {"loc": [-79.198, 43.779], "centroid": [-79.55960548918961, 43.61353030798165], "screen_name": "jahmoun1", "time": 1470284451.0, "tid": 760978768378724353, "text": "Beard\ud83d\udc80 @ Morningside Park (Toronto) https://t.co/7R2MvN55ie", "created_at": "Wed Aug 03 23:20:51 +0000 2016", "klabel": 132}}, {"geometry": {"type": "Point", "coordinates": [-79.19428, 43.7909]}, "type": "Feature", "id": 761011432552935424, "properties": {"loc": [-79.19428, 43.7909], "centroid": [-79.55960548918961, 43.61353030798165], "screen_name": "isaprov", "time": 1470292239.0, "tid": 761011432552935424, "text": "So happy right now. \ud83d\ude0d\ud83d\ude0d\ud83d\ude0d\ud83d\ude0d\ud83d\ude0d\n\n#volleyball #truelove #missedyou #firstlove #energizerbunny #fitness\u2026 https://t.co/E0IHA1D3EX", "created_at": "Thu Aug 04 01:30:39 +0000 2016", "klabel": 132}}, {"geometry": {"type": "Point", "coordinates": [-79.1960693, 43.7931305]}, "type": "Feature", "id": 761273512833286145, "properties": {"loc": [-79.1960693, 43.7931305], "centroid": [-79.55960548918961, 43.61353030798165], "screen_name": "tpscalls", "time": 1470354723.0, "tid": 761273512833286145, "text": "Arrest | Falaise Rd &amp; Morningside Ave [43 Div.] 08/04 14:45 #Scarborough #Toronto", "created_at": "Thu Aug 04 18:52:03 +0000 2016", "klabel": 132}}, {"geometry": {"type": "Point", "coordinates": [-79.19428, 43.7909]}, "type": "Feature", "id": 761279214616272896, "properties": {"loc": [-79.19428, 43.7909], "centroid": [-79.55960548918961, 43.61353030798165], "screen_name": "KatieTsuyuki", "time": 1470356083.0, "tid": 761279214616272896, "text": "CHINS #training #chunups #CSIO #workout #athletes  #winterscoming  #olympians #keepgoing\u2026 https://t.co/V1ktdQ36CD", "created_at": "Thu Aug 04 19:14:43 +0000 2016", "klabel": 132}}, {"geometry": {"type": "Point", "coordinates": [-79.188292, 43.78658]}, "type": "Feature", "id": 761493203392626688, "properties": {"loc": [-79.188292, 43.78658], "centroid": [-79.55960548918961, 43.61353030798165], "screen_name": "tpscalls", "time": 1470407102.0, "tid": 761493203392626688, "text": "Dispute | Thicketwood Dr &amp; West Highland Creek [43 Div.] 08/05 05:19 #Scarborough #Toronto", "created_at": "Fri Aug 05 09:25:02 +0000 2016", "klabel": 132}}, {"geometry": {"type": "Point", "coordinates": [-79.188292, 43.78658]}, "type": "Feature", "id": 761520382306287616, "properties": {"loc": [-79.188292, 43.78658], "centroid": [-79.55960548918961, 43.61353030798165], "screen_name": "tpscalls", "time": 1470413582.0, "tid": 761520382306287616, "text": "Dispute | Thicketwood Dr &amp; West Highland Creek [43 Div.] 08/05 07:07 #Scarborough #Toronto", "created_at": "Fri Aug 05 11:13:02 +0000 2016", "klabel": 132}}, {"geometry": {"type": "Point", "coordinates": [-79.1960693, 43.7931305]}, "type": "Feature", "id": 761583049649905664, "properties": {"loc": [-79.1960693, 43.7931305], "centroid": [-79.55960548918961, 43.61353030798165], "screen_name": "tpscalls", "time": 1470428523.0, "tid": 761583049649905664, "text": "Missing Child | Bonspiel Dr &amp; Morningside Ave [43 Div.] 08/05 11:16 #Scarborough #Toronto", "created_at": "Fri Aug 05 15:22:03 +0000 2016", "klabel": 132}}, {"geometry": {"type": "Point", "coordinates": [-79.1954859, 43.7848172]}, "type": "Feature", "id": 761636905515646980, "properties": {"loc": [-79.1954859, 43.7848172], "centroid": [-79.55960548918961, 43.61353030798165], "screen_name": "tofireE", "time": 1470441363.0, "tid": 761636905515646980, "text": "Medical (Unconscious) - Mornelle Crt b/w Ellesmere Road / Morningside Avenue, Scarborough (2 Trucks)", "created_at": "Fri Aug 05 18:56:03 +0000 2016", "klabel": 132}}, {"geometry": {"type": "Point", "coordinates": [-79.204952, 43.782606]}, "type": "Feature", "id": 761702336775524353, "properties": {"loc": [-79.204952, 43.782606], "centroid": [-79.55960548918961, 43.61353030798165], "screen_name": "tofireE", "time": 1470456963.0, "tid": 761702336775524353, "text": "Alarm Institution - Neilson Road b/w 2877 Ellesmere Road / Ellesmere Road, Scarborough (7 Trucks)", "created_at": "Fri Aug 05 23:16:03 +0000 2016", "klabel": 132}}, {"geometry": {"type": "Point", "coordinates": [-79.188292, 43.78658]}, "type": "Feature", "id": 761704600969875456, "properties": {"loc": [-79.188292, 43.78658], "centroid": [-79.55960548918961, 43.61353030798165], "screen_name": "tpscalls", "time": 1470457503.0, "tid": 761704600969875456, "text": "Trespass | C P R &amp; East Highland Creek [42 Div.] 08/05 19:19 #Scarborough #Toronto", "created_at": "Fri Aug 05 23:25:03 +0000 2016", "klabel": 132}}, {"geometry": {"type": "Point", "coordinates": [-79.204952, 43.782606]}, "type": "Feature", "id": 761767267562643456, "properties": {"loc": [-79.204952, 43.782606], "centroid": [-79.55960548918961, 43.61353030798165], "screen_name": "tpscalls", "time": 1470472444.0, "tid": 761767267562643456, "text": "See Ambulance | 2863 Ellesmere Rd &amp; Neilson Rd [43 Div.] 08/05 23:29 #Morningside #Toronto", "created_at": "Sat Aug 06 03:34:04 +0000 2016", "klabel": 132}}, {"geometry": {"type": "Point", "coordinates": [-79.1932632, 43.7853028]}, "type": "Feature", "id": 761774813362921472, "properties": {"loc": [-79.1932632, 43.7853028], "centroid": [-79.55960548918961, 43.61353030798165], "screen_name": "tpscalls", "time": 1470474243.0, "tid": 761774813362921472, "text": "Assault Just Occurred | Morningside Ave &amp; Ellesmere Rd [43 Div.] 08/05 23:57 #Highland_Creek #Toronto", "created_at": "Sat Aug 06 04:04:03 +0000 2016", "klabel": 132}}, {"geometry": {"type": "Point", "coordinates": [-79.19413488, 43.79053232]}, "type": "Feature", "id": 761940638355062784, "properties": {"loc": [-79.19413488, 43.79053232], "centroid": [-79.55960548918961, 43.61353030798165], "screen_name": "holditdown1time", "time": 1470513779.0, "tid": 761940638355062784, "text": "#scadding court and #sandersonlibrary youth get to meet our mayor #johntory at our 2016\u2026 https://t.co/ARpyaMJR13", "created_at": "Sat Aug 06 15:02:59 +0000 2016", "klabel": 132}}, {"geometry": {"type": "Point", "coordinates": [-79.191679, 43.7995965]}, "type": "Feature", "id": 762276872604545024, "properties": {"loc": [-79.191679, 43.7995965], "centroid": [-79.55960548918961, 43.61353030798165], "screen_name": "tpscalls", "time": 1470593943.0, "tid": 762276872604545024, "text": "Assault Just Occurred | Milner Ave &amp; Auto Mall Dr [42 Div.] 08/07 09:12 #Malvern #Toronto", "created_at": "Sun Aug 07 13:19:03 +0000 2016", "klabel": 132}}, {"geometry": {"type": "Point", "coordinates": [-79.196639, 43.794916]}, "type": "Feature", "id": 762469900770160641, "properties": {"loc": [-79.196639, 43.794916], "centroid": [-79.55960548918961, 43.61353030798165], "screen_name": "tpscalls", "time": 1470639965.0, "tid": 762469900770160641, "text": "Hazard | 401 Hwy E &amp; Morningside Ave [43 Div.] 08/07 22:00 #Morningside #Toronto", "created_at": "Mon Aug 08 02:06:05 +0000 2016", "klabel": 132}}, {"geometry": {"type": "Point", "coordinates": [-79.1871246, 43.7878179]}, "type": "Feature", "id": 762631488408084480, "properties": {"loc": [-79.1871246, 43.7878179], "centroid": [-79.55960548918961, 43.61353030798165], "screen_name": "xmxxnhxi", "time": 1470678490.0, "tid": 762631488408084480, "text": "@USAudioTechnica  https://t.co/g0nb1tqlrE", "created_at": "Mon Aug 08 12:48:10 +0000 2016", "klabel": 132}}, {"geometry": {"type": "Point", "coordinates": [-79.188292, 43.78658]}, "type": "Feature", "id": 762683799733936128, "properties": {"loc": [-79.188292, 43.78658], "centroid": [-79.55960548918961, 43.61353030798165], "screen_name": "tpscalls", "time": 1470690962.0, "tid": 762683799733936128, "text": "Theft | Mccowan Rd &amp; East Highland Creek [42 Div.] 08/08 12:11 #Scarborough #Toronto", "created_at": "Mon Aug 08 16:16:02 +0000 2016", "klabel": 132}}, {"geometry": {"type": "Point", "coordinates": [-79.181604, 43.7834875]}, "type": "Feature", "id": 762839328728809472, "properties": {"loc": [-79.181604, 43.7834875], "centroid": [-79.55960548918961, 43.61353030798165], "screen_name": "tpscalls", "time": 1470728043.0, "tid": 762839328728809472, "text": "See Ambulance | 1275 Military Trl &amp; Conlins Rd [43 Div.] 08/08 22:28 #Highland_Creek #Toronto", "created_at": "Tue Aug 09 02:34:03 +0000 2016", "klabel": 132}}, {"geometry": {"type": "Point", "coordinates": [-79.20599, 43.78112]}, "type": "Feature", "id": 763085941183352832, "properties": {"loc": [-79.20599, 43.78112], "centroid": [-79.55960548918961, 43.61353030798165], "screen_name": "Melissa_Gagn0n", "time": 1470786840.0, "tid": 763085941183352832, "text": "\u043d\u0454\u2113\u2113\u03c3, \u0432\u044f\u03b9g\u043d\u0442 \u0454\u0443\u0454\u0455! \ud83d\udc40\nHave you ever considered using under eye fillers? Tear trough rejuvenation\u2026 https://t.co/cqxcb4YPH2", "created_at": "Tue Aug 09 18:54:00 +0000 2016", "klabel": 132}}, {"geometry": {"type": "Point", "coordinates": [-79.198, 43.779]}, "type": "Feature", "id": 763138301515603973, "properties": {"loc": [-79.198, 43.779], "centroid": [-79.55960548918961, 43.61353030798165], "screen_name": "tyeprincess", "time": 1470799324.0, "tid": 763138301515603973, "text": "I can't promise this will be the last one \ud83c\udf32\ud83c\udf32\ud83c\udf32 @ Morningside Park (Toronto) https://t.co/RfanDhPc5h", "created_at": "Tue Aug 09 22:22:04 +0000 2016", "klabel": 132}}, {"geometry": {"type": "Point", "coordinates": [-79.1989873, 43.8003626]}, "type": "Feature", "id": 763178314072743936, "properties": {"loc": [-79.1989873, 43.8003626], "centroid": [-79.55960548918961, 43.61353030798165], "screen_name": "tpscalls", "time": 1470808863.0, "tid": 763178314072743936, "text": "Disorderlies | Morningside Ave &amp; Milner Ave [42 Div.] 08/09 20:55 #Rouge #Toronto", "created_at": "Wed Aug 10 01:01:03 +0000 2016", "klabel": 132}}, {"geometry": {"type": "Point", "coordinates": [-79.188292, 43.78658]}, "type": "Feature", "id": 763441808080855040, "properties": {"loc": [-79.188292, 43.78658], "centroid": [-79.55960548918961, 43.61353030798165], "screen_name": "tpscalls", "time": 1470871685.0, "tid": 763441808080855040, "text": "Fail To Remain Personal Injury Collision | Thicketwood Dr &amp; West Highland Creek [HP] 08/10 14:23 #Scarborough #Toronto", "created_at": "Wed Aug 10 18:28:05 +0000 2016", "klabel": 132}}, {"geometry": {"type": "Point", "coordinates": [-79.1954859, 43.7848172]}, "type": "Feature", "id": 763487617384116225, "properties": {"loc": [-79.1954859, 43.7848172], "centroid": [-79.55960548918961, 43.61353030798165], "screen_name": "tofire", "time": 1470882607.0, "tid": 763487617384116225, "text": "Vehicle (Personal Injury) - Mornelle Crt @ Ellesmere Road, Scarborough (2 Trucks)", "created_at": "Wed Aug 10 21:30:07 +0000 2016", "klabel": 132}}, {"geometry": {"type": "Point", "coordinates": [-79.20217517, 43.7965378]}, "type": "Feature", "id": 763489413259288577, "properties": {"loc": [-79.20217517, 43.7965378], "centroid": [-79.55960548918961, 43.61353030798165], "screen_name": "andy_buck", "time": 1470883035.0, "tid": 763489413259288577, "text": "Pretty sure we are the smelliest table in the restaurant.\u2026 https://t.co/Ek5ou5eevH", "created_at": "Wed Aug 10 21:37:15 +0000 2016", "klabel": 132}}, {"geometry": {"type": "Point", "coordinates": [-79.188292, 43.78658]}, "type": "Feature", "id": 763581978058915840, "properties": {"loc": [-79.188292, 43.78658], "centroid": [-79.55960548918961, 43.61353030798165], "screen_name": "tpscalls", "time": 1470905104.0, "tid": 763581978058915840, "text": "Noisy Party | Thicketwood Dr &amp; West Highland Creek [43 Div.] 08/10 23:40 #Scarborough #Toronto", "created_at": "Thu Aug 11 03:45:04 +0000 2016", "klabel": 132}}, {"geometry": {"type": "Point", "coordinates": [-79.206, 43.787]}, "type": "Feature", "id": 763738500357353472, "properties": {"loc": [-79.206, 43.787], "centroid": [-79.55960548918961, 43.61353030798165], "screen_name": "tpscalls", "time": 1470942422.0, "tid": 763738500357353472, "text": "Break &amp; Enter | Ww 1 N Mclevin W Morningside &amp; Ww 2 N Mclevin W Morningside [42 Div.] 08/11 10:01 #Scarborough #Toronto", "created_at": "Thu Aug 11 14:07:02 +0000 2016", "klabel": 132}}, {"geometry": {"type": "Point", "coordinates": [-79.1962847, 43.7918939]}, "type": "Feature", "id": 763835140552491009, "properties": {"loc": [-79.1962847, 43.7918939], "centroid": [-79.55960548918961, 43.61353030798165], "screen_name": "tpscalls", "time": 1470965463.0, "tid": 763835140552491009, "text": "Animal Comp | Hepc &amp; Bonspiel Dr [43 Div.] 08/11 16:25 #Morningside #Toronto", "created_at": "Thu Aug 11 20:31:03 +0000 2016", "klabel": 132}}, {"geometry": {"type": "Point", "coordinates": [-79.1900593, 43.8041409]}, "type": "Feature", "id": 763848987367600129, "properties": {"loc": [-79.1900593, 43.8041409], "centroid": [-79.55960548918961, 43.61353030798165], "screen_name": "tofire", "time": 1470968764.0, "tid": 763848987367600129, "text": "Medical (Unconscious) - Sheppard Avenue b/w Conlins Road / Rouge River Dr, Scarborough (2 Trucks)", "created_at": "Thu Aug 11 21:26:04 +0000 2016", "klabel": 132}}, {"geometry": {"type": "Point", "coordinates": [-79.196639, 43.794916]}, "type": "Feature", "id": 763968780351311874, "properties": {"loc": [-79.196639, 43.794916], "centroid": [-79.55960548918961, 43.61353030798165], "screen_name": "tpscalls", "time": 1470997325.0, "tid": 763968780351311874, "text": "Impaired Driver | 401 Hwy E &amp; Morningside Ave [42 Div.] 08/12 01:16 #Morningside #Toronto", "created_at": "Fri Aug 12 05:22:05 +0000 2016", "klabel": 132}}, {"geometry": {"type": "Point", "coordinates": [-79.204952, 43.782606]}, "type": "Feature", "id": 764593892087984129, "properties": {"loc": [-79.204952, 43.782606], "centroid": [-79.55960548918961, 43.61353030798165], "screen_name": "tpscalls", "time": 1471146363.0, "tid": 764593892087984129, "text": "See Ambulance | 2863 Ellesmere Rd &amp; Neilson Rd [43 Div.] 08/13 18:41 #Morningside #Toronto", "created_at": "Sat Aug 13 22:46:03 +0000 2016", "klabel": 132}}, {"geometry": {"type": "Point", "coordinates": [-79.1990549, 43.7937472]}, "type": "Feature", "id": 764695812349759492, "properties": {"loc": [-79.1990549, 43.7937472], "centroid": [-79.55960548918961, 43.61353030798165], "screen_name": "tpscalls", "time": 1471170663.0, "tid": 764695812349759492, "text": "Unknown Trouble | Cindy Nicholas Dr &amp; Pickthall Ter [43 Div.] 08/14 01:25 #Morningside #Toronto", "created_at": "Sun Aug 14 05:31:03 +0000 2016", "klabel": 132}}, {"geometry": {"type": "Point", "coordinates": [-79.188292, 43.78658]}, "type": "Feature", "id": 765246186471186432, "properties": {"loc": [-79.188292, 43.78658], "centroid": [-79.55960548918961, 43.61353030798165], "screen_name": "tpscalls", "time": 1471301883.0, "tid": 765246186471186432, "text": "Unknown Trouble | Mccowan Rd &amp; East Highland Creek [42 Div.] 08/15 13:51 #Scarborough #Toronto", "created_at": "Mon Aug 15 17:58:03 +0000 2016", "klabel": 132}}, {"geometry": {"type": "Point", "coordinates": [-79.196639, 43.794916]}, "type": "Feature", "id": 765283434034040832, "properties": {"loc": [-79.196639, 43.794916], "centroid": [-79.55960548918961, 43.61353030798165], "screen_name": "tofireE", "time": 1471310763.0, "tid": 765283434034040832, "text": "Vehicle (Personal Injury) - Morningside Avenue @ Highway 401 X East, Scarborough (2 Trucks)", "created_at": "Mon Aug 15 20:26:03 +0000 2016", "klabel": 132}}, {"geometry": {"type": "Point", "coordinates": [-79.196639, 43.794916]}, "type": "Feature", "id": 765286203176329216, "properties": {"loc": [-79.196639, 43.794916], "centroid": [-79.55960548918961, 43.61353030798165], "screen_name": "tpscalls", "time": 1471311423.0, "tid": 765286203176329216, "text": "Personal Injury Collision | Morningside Ave &amp; 401 Hwy E [43 Div.] 08/15 16:32 #Morningside #Toronto", "created_at": "Mon Aug 15 20:37:03 +0000 2016", "klabel": 132}}, {"geometry": {"type": "Point", "coordinates": [-79.19410163, 43.79048152]}, "type": "Feature", "id": 765330670176657408, "properties": {"loc": [-79.19410163, 43.79048152], "centroid": [-79.55960548918961, 43.61353030798165], "screen_name": "CPBuchanan13", "time": 1471322025.0, "tid": 765330670176657408, "text": "If you feel left out, unappreciated or unnoticed then go out and make yourself known. Demand\u2026 https://t.co/AppDDFD4tl", "created_at": "Mon Aug 15 23:33:45 +0000 2016", "klabel": 132}}, {"geometry": {"type": "Point", "coordinates": [-79.196639, 43.794916]}, "type": "Feature", "id": 765358682855108608, "properties": {"loc": [-79.196639, 43.794916], "centroid": [-79.55960548918961, 43.61353030798165], "screen_name": "tpscalls", "time": 1471328704.0, "tid": 765358682855108608, "text": "Impaired Driver | Morningside Ave &amp; 401 Hwy W [42 Div.] 08/15 21:20 #Morningside #Toronto", "created_at": "Tue Aug 16 01:25:04 +0000 2016", "klabel": 132}}, {"geometry": {"type": "Point", "coordinates": [-79.18760809, 43.78385219]}, "type": "Feature", "id": 765361948317712384, "properties": {"loc": [-79.18760809, 43.78385219], "centroid": [-79.55960548918961, 43.61353030798165], "screen_name": "sylxvia", "time": 1471329482.0, "tid": 765361948317712384, "text": "Just posted a photo @ University of Toronto Scarborough (UTSC) https://t.co/PspFHbR4T1", "created_at": "Tue Aug 16 01:38:02 +0000 2016", "klabel": 132}}, {"geometry": {"type": "Point", "coordinates": [-79.1960693, 43.7931305]}, "type": "Feature", "id": 765372020620165121, "properties": {"loc": [-79.1960693, 43.7931305], "centroid": [-79.55960548918961, 43.61353030798165], "screen_name": "tpscalls", "time": 1471331884.0, "tid": 765372020620165121, "text": "Theft Just Occurred | Florist Lane &amp; Morningside Ave [43 Div.] 08/15 22:12 #Scarborough #Toronto", "created_at": "Tue Aug 16 02:18:04 +0000 2016", "klabel": 132}}, {"geometry": {"type": "Point", "coordinates": [-79.204952, 43.782606]}, "type": "Feature", "id": 765626948546539520, "properties": {"loc": [-79.204952, 43.782606], "centroid": [-79.55960548918961, 43.61353030798165], "screen_name": "tofire", "time": 1471392663.0, "tid": 765626948546539520, "text": "Alarm Institution - Ellesmere Road b/w Neilson Road / Ellesmere Ravine, Scarborough (6 Trucks)", "created_at": "Tue Aug 16 19:11:03 +0000 2016", "klabel": 132}}, {"geometry": {"type": "Point", "coordinates": [-79.1960693, 43.7931305]}, "type": "Feature", "id": 765660671094755328, "properties": {"loc": [-79.1960693, 43.7931305], "centroid": [-79.55960548918961, 43.61353030798165], "screen_name": "tpscalls", "time": 1471400703.0, "tid": 765660671094755328, "text": "Trespass | Falaise Rd &amp; Morningside Ave [43 Div.] 08/16 17:20 #Scarborough #Toronto", "created_at": "Tue Aug 16 21:25:03 +0000 2016", "klabel": 132}}, {"geometry": {"type": "Point", "coordinates": [-79.2047, 43.78]}, "type": "Feature", "id": 766023476234883072, "properties": {"loc": [-79.2047, 43.78], "centroid": [-79.55960548918961, 43.61353030798165], "screen_name": "laurallisonpo", "time": 1471487203.0, "tid": 766023476234883072, "text": "Only a little swollen. \ud83d\udc83\ud83c\udffb\ud83d\udc4c\ud83c\udffb\ud83d\udcaa\ud83c\udffb @ Rouge Valley Centenary https://t.co/KPmk30Tc0U", "created_at": "Wed Aug 17 21:26:43 +0000 2016", "klabel": 132}}, {"geometry": {"type": "Point", "coordinates": [-79.2056902, 43.7856839]}, "type": "Feature", "id": 766063073283235840, "properties": {"loc": [-79.2056902, 43.7856839], "centroid": [-79.55960548918961, 43.61353030798165], "screen_name": "tpscalls", "time": 1471496644.0, "tid": 766063073283235840, "text": "See Ambulance | 10 Livonia Pl &amp; 21 Livonia Pl [43 Div.] 08/17 19:57 #Morningside #Toronto", "created_at": "Thu Aug 18 00:04:04 +0000 2016", "klabel": 132}}, {"geometry": {"type": "Point", "coordinates": [-79.1873318, 43.7838686]}, "type": "Feature", "id": 766313257934131200, "properties": {"loc": [-79.1873318, 43.7838686], "centroid": [-79.55960548918961, 43.61353030798165], "screen_name": "xmxxnhxi", "time": 1471556292.0, "tid": 766313257934131200, "text": "can't lie I actually find Mob Psycho 100 funnier than One Punch Man", "created_at": "Thu Aug 18 16:38:12 +0000 2016", "klabel": 132}}, {"geometry": {"type": "Point", "coordinates": [-79.1878299, 43.7875896]}, "type": "Feature", "id": 766360390456475648, "properties": {"loc": [-79.1878299, 43.7875896], "centroid": [-79.55960548918961, 43.61353030798165], "screen_name": "xmxxnhxi", "time": 1471567530.0, "tid": 766360390456475648, "text": "THIS REMINDS ME OF THE IRON GIANT AND THAT MOVIE MAKES ME CRY - https://t.co/V2FiqlIeDH", "created_at": "Thu Aug 18 19:45:30 +0000 2016", "klabel": 132}}, {"geometry": {"type": "Point", "coordinates": [-79.18760809, 43.78385219]}, "type": "Feature", "id": 766414054969765892, "properties": {"loc": [-79.18760809, 43.78385219], "centroid": [-79.55960548918961, 43.61353030798165], "screen_name": "patrickrmedia", "time": 1471580324.0, "tid": 766414054969765892, "text": "Great connecting with old friends! Thanks for the chat Adrian! #oldschoolbuddies @ University of\u2026 https://t.co/RiE5hLIKlu", "created_at": "Thu Aug 18 23:18:44 +0000 2016", "klabel": 132}}, {"geometry": {"type": "Point", "coordinates": [-79.1887864, 43.8011571]}, "type": "Feature", "id": 766789107792089088, "properties": {"loc": [-79.1887864, 43.8011571], "centroid": [-79.55960548918961, 43.61353030798165], "screen_name": "tpscalls", "time": 1471669744.0, "tid": 766789107792089088, "text": "Personal Injury Collision | Milner Ave &amp; Conlins Rd [42 Div.] 08/19 20:03 #Malvern #Toronto", "created_at": "Sat Aug 20 00:09:04 +0000 2016", "klabel": 132}}, {"geometry": {"type": "Point", "coordinates": [-79.196639, 43.794916]}, "type": "Feature", "id": 766817041965785088, "properties": {"loc": [-79.196639, 43.794916], "centroid": [-79.55960548918961, 43.61353030798165], "screen_name": "tpscalls", "time": 1471676404.0, "tid": 766817041965785088, "text": "Impaired Driver | Morningside Ave &amp; 401 Hwy E [43 Div.] 08/19 21:54 #Morningside #Toronto", "created_at": "Sat Aug 20 02:00:04 +0000 2016", "klabel": 132}}, {"geometry": {"type": "Point", "coordinates": [-79.1960693, 43.7931305]}, "type": "Feature", "id": 767048309810794496, "properties": {"loc": [-79.1960693, 43.7931305], "centroid": [-79.55960548918961, 43.61353030798165], "screen_name": "tpscalls", "time": 1471731542.0, "tid": 767048309810794496, "text": "Trespass | Falaise Rd &amp; Morningside Ave [43 Div.] 08/20 13:12 #Scarborough #Toronto", "created_at": "Sat Aug 20 17:19:02 +0000 2016", "klabel": 132}}, {"geometry": {"type": "Point", "coordinates": [-79.1944166, 43.7893018]}, "type": "Feature", "id": 767096389599948802, "properties": {"loc": [-79.1944166, 43.7893018], "centroid": [-79.55960548918961, 43.61353030798165], "screen_name": "tofire", "time": 1471743005.0, "tid": 767096389599948802, "text": "Fire (Grass/rubbish) - Morningside Avenue @ Military Trail, Scarborough (2 Trucks)", "created_at": "Sat Aug 20 20:30:05 +0000 2016", "klabel": 132}}, {"geometry": {"type": "Point", "coordinates": [-79.1932632, 43.7853028]}, "type": "Feature", "id": 767151748947578880, "properties": {"loc": [-79.1932632, 43.7853028], "centroid": [-79.55960548918961, 43.61353030798165], "screen_name": "tofire", "time": 1471756204.0, "tid": 767151748947578880, "text": "Medical (Unconscious) - Ellesmere Road @ Morningside Avenue, Scarborough (2 Trucks)", "created_at": "Sun Aug 21 00:10:04 +0000 2016", "klabel": 132}}, {"geometry": {"type": "Point", "coordinates": [-79.1932632, 43.7853028]}, "type": "Feature", "id": 767151749786378244, "properties": {"loc": [-79.1932632, 43.7853028], "centroid": [-79.55960548918961, 43.61353030798165], "screen_name": "tofireE", "time": 1471756204.0, "tid": 767151749786378244, "text": "Medical (Unconscious) - Ellesmere Road @ Morningside Avenue, Scarborough (2 Trucks)", "created_at": "Sun Aug 21 00:10:04 +0000 2016", "klabel": 132}}, {"geometry": {"type": "Point", "coordinates": [-79.1932632, 43.7853028]}, "type": "Feature", "id": 767153253054312448, "properties": {"loc": [-79.1932632, 43.7853028], "centroid": [-79.55960548918961, 43.61353030798165], "screen_name": "tpscalls", "time": 1471756563.0, "tid": 767153253054312448, "text": "See Ambulance | Morningside Ave &amp; Ellesmere Rd [43 Div.] 08/20 20:11 #Highland_Creek #Toronto", "created_at": "Sun Aug 21 00:16:03 +0000 2016", "klabel": 132}}, {"geometry": {"type": "Point", "coordinates": [-79.1960693, 43.7931305]}, "type": "Feature", "id": 767402403364761601, "properties": {"loc": [-79.1960693, 43.7931305], "centroid": [-79.55960548918961, 43.61353030798165], "screen_name": "tpscalls", "time": 1471815965.0, "tid": 767402403364761601, "text": "Disorderlies | Falaise Rd &amp; Morningside Ave [43 Div.] 08/21 12:40 #Scarborough #Toronto", "created_at": "Sun Aug 21 16:46:05 +0000 2016", "klabel": 132}}, {"geometry": {"type": "Point", "coordinates": [-79.204952, 43.782606]}, "type": "Feature", "id": 767411250624167952, "properties": {"loc": [-79.204952, 43.782606], "centroid": [-79.55960548918961, 43.61353030798165], "screen_name": "tofire", "time": 1471818074.0, "tid": 767411250624167952, "text": "Medical (Trouble Breathing) - Neilson Road b/w 2877 Ellesmere Road / Ellesmere Road, Scarborough (2 Trucks)", "created_at": "Sun Aug 21 17:21:14 +0000 2016", "klabel": 132}}, {"geometry": {"type": "Point", "coordinates": [-79.2007001, 43.7865993]}, "type": "Feature", "id": 767465326380453888, "properties": {"loc": [-79.2007001, 43.7865993], "centroid": [-79.55960548918961, 43.61353030798165], "screen_name": "tofire", "time": 1471830967.0, "tid": 767465326380453888, "text": "Alarm Highrise Residential - Ellesmere Road b/w Ellesmere Ravine / Mornelle Crt, Scarborough (6 Trucks)", "created_at": "Sun Aug 21 20:56:07 +0000 2016", "klabel": 132}}, {"geometry": {"type": "Point", "coordinates": [-79.18760809, 43.78385219]}, "type": "Feature", "id": 767776241143386112, "properties": {"loc": [-79.18760809, 43.78385219], "centroid": [-79.55960548918961, 43.61353030798165], "screen_name": "alexbozikovic", "time": 1471905095.0, "tid": 767776241143386112, "text": "Scarborough College Sciences Wing. John Andrews w Page &amp; Steele, 1966 #torontoarch #brutalism\u2026 https://t.co/VrZWkCzQsj", "created_at": "Mon Aug 22 17:31:35 +0000 2016", "klabel": 132}}, {"geometry": {"type": "Point", "coordinates": [-79.1873464, 43.7838762]}, "type": "Feature", "id": 767803002518401025, "properties": {"loc": [-79.1873464, 43.7838762], "centroid": [-79.55960548918961, 43.61353030798165], "screen_name": "xmxxnhxi", "time": 1471911475.0, "tid": 767803002518401025, "text": "the crispiest https://t.co/lNpA85c6Pz", "created_at": "Mon Aug 22 19:17:55 +0000 2016", "klabel": 132}}, {"geometry": {"type": "Point", "coordinates": [-79.1960693, 43.7931305]}, "type": "Feature", "id": 768018453403996161, "properties": {"loc": [-79.1960693, 43.7931305], "centroid": [-79.55960548918961, 43.61353030798165], "screen_name": "tpscalls", "time": 1471962843.0, "tid": 768018453403996161, "text": "Disorderlies | Falaise Rd &amp; Morningside Ave [43 Div.] 08/23 05:29 #Scarborough #Toronto", "created_at": "Tue Aug 23 09:34:03 +0000 2016", "klabel": 132}}, {"geometry": {"type": "Point", "coordinates": [-79.204952, 43.782606]}, "type": "Feature", "id": 768073566537519104, "properties": {"loc": [-79.204952, 43.782606], "centroid": [-79.55960548918961, 43.61353030798165], "screen_name": "tpscalls", "time": 1471975983.0, "tid": 768073566537519104, "text": "Hazard | Ellesmere Rd &amp; Neilson Rd [43 Div.] 08/23 09:06 #Morningside #Toronto", "created_at": "Tue Aug 23 13:13:03 +0000 2016", "klabel": 132}}, {"geometry": {"type": "Point", "coordinates": [-79.19410227, 43.79048091]}, "type": "Feature", "id": 768271694351986688, "properties": {"loc": [-79.19410227, 43.79048091], "centroid": [-79.55960548918961, 43.61353030798165], "screen_name": "_keeponmoving", "time": 1472023220.0, "tid": 768271694351986688, "text": "#squad                          --                         #Repost tpascentre with\u2026 https://t.co/QrnIqH6v1T", "created_at": "Wed Aug 24 02:20:20 +0000 2016", "klabel": 132}}, {"geometry": {"type": "Point", "coordinates": [-79.20626, 43.785558]}, "type": "Feature", "id": 768442749615996928, "properties": {"loc": [-79.20626, 43.785558], "centroid": [-79.55960548918961, 43.61353030798165], "screen_name": "tpscalls", "time": 1472064003.0, "tid": 768442749615996928, "text": "Missing Elderly | Neilson Rd &amp; 10 Livonia Pl [43 Div.] 08/24 09:34 #Morningside #Toronto", "created_at": "Wed Aug 24 13:40:03 +0000 2016", "klabel": 132}}, {"geometry": {"type": "Point", "coordinates": [-79.198, 43.779]}, "type": "Feature", "id": 768473619785801728, "properties": {"loc": [-79.198, 43.779], "centroid": [-79.55960548918961, 43.61353030798165], "screen_name": "cllrainslie", "time": 1472071363.0, "tid": 768473619785801728, "text": "Playing ping pong on the new table in Morningside Park donated by Forest Hill Rotary Club!\u2026 https://t.co/jvnw5iJndE", "created_at": "Wed Aug 24 15:42:43 +0000 2016", "klabel": 132}}, {"geometry": {"type": "Point", "coordinates": [-79.206981, 43.792816]}, "type": "Feature", "id": 768494083509776384, "properties": {"loc": [-79.206981, 43.792816], "centroid": [-79.55960548918961, 43.61353030798165], "screen_name": "tpscalls", "time": 1472076242.0, "tid": 768494083509776384, "text": "Dispute | Keeler Blvd &amp; Keeler Blvd [43 Div.] 08/24 12:57 #Morningside #Toronto", "created_at": "Wed Aug 24 17:04:02 +0000 2016", "klabel": 132}}, {"geometry": {"type": "Point", "coordinates": [-79.206, 43.787]}, "type": "Feature", "id": 768660242355945472, "properties": {"loc": [-79.206, 43.787], "centroid": [-79.55960548918961, 43.61353030798165], "screen_name": "Clayton_Batson", "time": 1472115857.0, "tid": 768660242355945472, "text": "Journey to my Safe Haven \ud83c\udf3e\ud83c\udf43 @ Morningside, Toronto https://t.co/VsYJ3PA67W", "created_at": "Thu Aug 25 04:04:17 +0000 2016", "klabel": 132}}, {"geometry": {"type": "Point", "coordinates": [-79.204952, 43.782606]}, "type": "Feature", "id": 768769652906483712, "properties": {"loc": [-79.204952, 43.782606], "centroid": [-79.55960548918961, 43.61353030798165], "screen_name": "tpscalls", "time": 1472141942.0, "tid": 768769652906483712, "text": "Personal Injury Collision | 2863 Ellesmere Rd &amp; Neilson Rd [43 Div.] 08/25 07:14 #Morningside #Toronto", "created_at": "Thu Aug 25 11:19:02 +0000 2016", "klabel": 132}}, {"geometry": {"type": "Point", "coordinates": [-79.198, 43.779]}, "type": "Feature", "id": 768827760064208896, "properties": {"loc": [-79.198, 43.779], "centroid": [-79.55960548918961, 43.61353030798165], "screen_name": "UncleJoeDidIt", "time": 1472155796.0, "tid": 768827760064208896, "text": "#CurrentRotation\n#VitaminC by #Can\n#TheGetDown put me on \n#truestory\u2026 https://t.co/Z3dUPJX5ay", "created_at": "Thu Aug 25 15:09:56 +0000 2016", "klabel": 132}}, {"geometry": {"type": "Point", "coordinates": [-79.188292, 43.78658]}, "type": "Feature", "id": 768836844339494912, "properties": {"loc": [-79.188292, 43.78658], "centroid": [-79.55960548918961, 43.61353030798165], "screen_name": "tpscalls", "time": 1472157962.0, "tid": 768836844339494912, "text": "Personal Injury Collision | Thicketwood Dr &amp; West Highland Creek [HP] 08/25 11:41 #Scarborough #Toronto", "created_at": "Thu Aug 25 15:46:02 +0000 2016", "klabel": 132}}, {"geometry": {"type": "Point", "coordinates": [-79.19428, 43.7909]}, "type": "Feature", "id": 768843712260628480, "properties": {"loc": [-79.19428, 43.7909], "centroid": [-79.55960548918961, 43.61353030798165], "screen_name": "EricRodrigues79", "time": 1472159600.0, "tid": 768843712260628480, "text": "Recovery food! Biosteel Chocolate ARF with mixed frozen berries and\u2026 https://t.co/27La75TYLo", "created_at": "Thu Aug 25 16:13:20 +0000 2016", "klabel": 132}}, {"geometry": {"type": "Point", "coordinates": [-79.18760809, 43.78385219]},