{"type": "FeatureCollection", "features": [{"geometry": {"type": "Point", "coordinates": [-79.5231, 43.6444]}, "type": "Feature", "id": 705138825731973122, "properties": {"loc": [-79.5231, 43.6444], "centroid": [-79.22643500715259, 43.744663251634876], "screen_name": "EmmaFerguson18", "time": 1456971171.0, "tid": 705138825731973122, "text": "\ud83d\ude48 @ Etobicoke https://t.co/R0mrlvxDlo", "created_at": "Wed Mar 02 21:12:51 +0000 2016", "klabel": 26}}, {"geometry": {"type": "Point", "coordinates": [-79.52455432, 43.64485652]}, "type": "Feature", "id": 705162519757889536, "properties": {"loc": [-79.52455432, 43.64485652], "centroid": [-79.22643500715259, 43.744663251634876], "screen_name": "aetheralonso", "time": 1456976820.0, "tid": 705162519757889536, "text": "#feelgood #toronto @ Islington Subway Station https://t.co/onZYYW50di", "created_at": "Wed Mar 02 22:47:00 +0000 2016", "klabel": 26}}, {"geometry": {"type": "Point", "coordinates": [-79.5219638, 43.6455477]}, "type": "Feature", "id": 705180453838303232, "properties": {"loc": [-79.5219638, 43.6455477], "centroid": [-79.22643500715259, 43.744663251634876], "screen_name": "JoinApex", "time": 1456981096.0, "tid": 705180453838303232, "text": "We're #hiring! Click to apply: Outside Sales Representative (Account Manager) - https://t.co/RBBYcVuwWk #Sales #Toronto, Ontario #Job #Jobs", "created_at": "Wed Mar 02 23:58:16 +0000 2016", "klabel": 26}}, {"geometry": {"type": "Point", "coordinates": [-79.53068, 43.64605]}, "type": "Feature", "id": 705219506252050433, "properties": {"loc": [-79.53068, 43.64605], "centroid": [-79.22643500715259, 43.744663251634876], "screen_name": "mabellearts", "time": 1456990407.0, "tid": 705219506252050433, "text": "Park of Many Paths @ MABELLEarts https://t.co/GrNMtOiN2M", "created_at": "Thu Mar 03 02:33:27 +0000 2016", "klabel": 26}}, {"geometry": {"type": "Point", "coordinates": [-79.5379597, 43.6402786]}, "type": "Feature", "id": 705379869912227840, "properties": {"loc": [-79.5379597, 43.6402786], "centroid": [-79.22643500715259, 43.744663251634876], "screen_name": "tmj_gta_hrta", "time": 1457028640.0, "tid": 705379869912227840, "text": "Interested in a #Hospitality #job near 5230 DUNDAS ST W, #TORONTO, ON? This could be a great fit: https://t.co/JcNZhznoBj #Veterans #Hiring", "created_at": "Thu Mar 03 13:10:40 +0000 2016", "klabel": 26}}, {"geometry": {"type": "Point", "coordinates": [-79.5219638, 43.6455477]}, "type": "Feature", "id": 705461778113638401, "properties": {"loc": [-79.5219638, 43.6455477], "centroid": [-79.22643500715259, 43.744663251634876], "screen_name": "JoinApex", "time": 1457048169.0, "tid": 705461778113638401, "text": "This #Sales #job might be a great fit for you: Outside Sales Representative (Account Manager) - https://t.co/RBBYcVuwWk #Toronto, Ontario", "created_at": "Thu Mar 03 18:36:09 +0000 2016", "klabel": 26}}, {"geometry": {"type": "Point", "coordinates": [-79.5219638, 43.6455477]}, "type": "Feature", "id": 705469448216416257, "properties": {"loc": [-79.5219638, 43.6455477], "centroid": [-79.22643500715259, 43.744663251634876], "screen_name": "JoinApex", "time": 1457049998.0, "tid": 705469448216416257, "text": "Interested in a #Sales #job near #Toronto, Ontario? This could be a great fit: https://t.co/4OQqBLhgom #Hiring", "created_at": "Thu Mar 03 19:06:38 +0000 2016", "klabel": 26}}, {"geometry": {"type": "Point", "coordinates": [-79.5219638, 43.6455477]}, "type": "Feature", "id": 705750855778070532, "properties": {"loc": [-79.5219638, 43.6455477], "centroid": [-79.22643500715259, 43.744663251634876], "screen_name": "JoinApex", "time": 1457117090.0, "tid": 705750855778070532, "text": "Can you recommend anyone for this #Sales #job? https://t.co/4OQqBLhgom #Toronto, Ontario #Hiring", "created_at": "Fri Mar 04 13:44:50 +0000 2016", "klabel": 26}}, {"geometry": {"type": "Point", "coordinates": [-79.53611111, 43.63722222]}, "type": "Feature", "id": 705796407765159936, "properties": {"loc": [-79.53611111, 43.63722222], "centroid": [-79.22643500715259, 43.744663251634876], "screen_name": "ericzawo", "time": 1457127951.0, "tid": 705796407765159936, "text": "Reading about my work @giantcontainers and checking my photos in this morning's @globeandmail!\u2026 https://t.co/z0Qiz2IBid", "created_at": "Fri Mar 04 16:45:51 +0000 2016", "klabel": 26}}, {"geometry": {"type": "Point", "coordinates": [-79.52177, 43.63502]}, "type": "Feature", "id": 705801068081504256, "properties": {"loc": [-79.52177, 43.63502], "centroid": [-79.22643500715259, 43.744663251634876], "screen_name": "PIspeedshops", "time": 1457129062.0, "tid": 705801068081504256, "text": "Alright Mr. DeMille, I'm ready for my close-up #TargaTruck #ChevyPickup #LS #lsineverything\u2026 https://t.co/U0dexmWMdZ", "created_at": "Fri Mar 04 17:04:22 +0000 2016", "klabel": 26}}, {"geometry": {"type": "Point", "coordinates": [-79.52866, 43.64848]}, "type": "Feature", "id": 705809063821508609, "properties": {"loc": [-79.52866, 43.64848], "centroid": [-79.22643500715259, 43.744663251634876], "screen_name": "SixthStreetPub", "time": 1457130968.0, "tid": 705809063821508609, "text": "Today's Soup: Black Bean Chorizo #torontolife #torontoeats #torontofood #6thstreet #nomnom\u2026 https://t.co/DxIkN5m1b2", "created_at": "Fri Mar 04 17:36:08 +0000 2016", "klabel": 26}}, {"geometry": {"type": "Point", "coordinates": [-79.5250685, 43.6484007]}, "type": "Feature", "id": 705822899555405824, "properties": {"loc": [-79.5250685, 43.6484007], "centroid": [-79.22643500715259, 43.744663251634876], "screen_name": "tofireW", "time": 1457134267.0, "tid": 705822899555405824, "text": "Tems Transferred (Read Remarks) - Cordova Avenue b/w Islington Avenue / Mimico Creek Trail, Etobicoke (2 Trucks)", "created_at": "Fri Mar 04 18:31:07 +0000 2016", "klabel": 26}}, {"geometry": {"type": "Point", "coordinates": [-79.5250685, 43.6484007]}, "type": "Feature", "id": 705822898448113664, "properties": {"loc": [-79.5250685, 43.6484007], "centroid": [-79.22643500715259, 43.744663251634876], "screen_name": "tofire", "time": 1457134267.0, "tid": 705822898448113664, "text": "Tems Transferred (Read Remarks) - Cordova Avenue b/w Islington Avenue / Mimico Creek Trail, Etobicoke (2 Trucks)", "created_at": "Fri Mar 04 18:31:07 +0000 2016", "klabel": 26}}, {"geometry": {"type": "Point", "coordinates": [-79.53359, 43.64389]}, "type": "Feature", "id": 705830174537945088, "properties": {"loc": [-79.53359, 43.64389], "centroid": [-79.22643500715259, 43.744663251634876], "screen_name": "Cheoffrey", "time": 1457136001.0, "tid": 705830174537945088, "text": "#stout #braised #steak #sandwich #bluecheese #boozy #jus #stpatricksday #cheoffeats #truecooks\u2026 https://t.co/1x0VFHDZyc", "created_at": "Fri Mar 04 19:00:01 +0000 2016", "klabel": 26}}, {"geometry": {"type": "Point", "coordinates": [-79.5230279, 43.6443806]}, "type": "Feature", "id": 705862638924738560, "properties": {"loc": [-79.5230279, 43.6443806], "centroid": [-79.22643500715259, 43.744663251634876], "screen_name": "tmj_on_jobs", "time": 1457143742.0, "tid": 705862638924738560, "text": "Join the OfficeTeam team! See our latest #Clerical #job opening here: https://t.co/yJCK5TuAKo #Etobicoke, ON #Hiring #CareerArc", "created_at": "Fri Mar 04 21:09:02 +0000 2016", "klabel": 26}}, {"geometry": {"type": "Point", "coordinates": [-79.52834, 43.6342799]}, "type": "Feature", "id": 705922342677909504, "properties": {"loc": [-79.52834, 43.6342799], "centroid": [-79.22643500715259, 43.744663251634876], "screen_name": "cathleenfarrell", "time": 1457157976.0, "tid": 705922342677909504, "text": "Toast and prenuptial kiss #psiloveyou2016 @ The Musket Restaurant https://t.co/OVKiKK2wb4", "created_at": "Sat Mar 05 01:06:16 +0000 2016", "klabel": 26}}, {"geometry": {"type": "Point", "coordinates": [-79.52326082, 43.64530108]}, "type": "Feature", "id": 705923948786159616, "properties": {"loc": [-79.52326082, 43.64530108], "centroid": [-79.22643500715259, 43.744663251634876], "screen_name": "JaymesBeatty", "time": 1457158359.0, "tid": 705923948786159616, "text": "Back at it again... (at @GoodLifeFitness in Etobicoke, ON) https://t.co/ZugFPG93tm", "created_at": "Sat Mar 05 01:12:39 +0000 2016", "klabel": 26}}, {"geometry": {"type": "Point", "coordinates": [-79.5219638, 43.6455477]}, "type": "Feature", "id": 706032697303367680, "properties": {"loc": [-79.5219638, 43.6455477], "centroid": [-79.22643500715259, 43.744663251634876], "screen_name": "JoinApex", "time": 1457184287.0, "tid": 706032697303367680, "text": "We're #hiring! Click to apply: Recruiting Inside Sales Trainee (Recruiter/Sales Representative) - https://t.co/4OQqBLhgom #Sales #Job #Jobs", "created_at": "Sat Mar 05 08:24:47 +0000 2016", "klabel": 26}}, {"geometry": {"type": "Point", "coordinates": [-79.52866, 43.64848]}, "type": "Feature", "id": 706164498156007428, "properties": {"loc": [-79.52866, 43.64848], "centroid": [-79.22643500715259, 43.744663251634876], "screen_name": "SixthStreetPub", "time": 1457215710.0, "tid": 706164498156007428, "text": "Weekends at the 6th means Brunch 11am-4pm! #weekendbrunch #torontolife #torontoeats #torontofood\u2026 https://t.co/iutNzfxXFg", "created_at": "Sat Mar 05 17:08:30 +0000 2016", "klabel": 26}}, {"geometry": {"type": "Point", "coordinates": [-79.5378238, 43.6392936]}, "type": "Feature", "id": 749812273322004480, "properties": {"loc": [-79.5378238, 43.6392936], "centroid": [-79.22643500715259, 43.744663251634876], "screen_name": "Annie_yogi", "time": 1467622151.0, "tid": 749812273322004480, "text": "So hungry. (@ Apache Burger in Etobicoke, ON) https://t.co/H2RpEFOnhY", "created_at": "Mon Jul 04 03:49:11 +0000 2016", "klabel": 26}}, {"geometry": {"type": "Point", "coordinates": [-79.5255122, 43.6472125]}, "type": "Feature", "id": 749821309689929732, "properties": {"loc": [-79.5255122, 43.6472125], "centroid": [-79.22643500715259, 43.744663251634876], "screen_name": "tofireW", "time": 1467624305.0, "tid": 749821309689929732, "text": "Medical (Chest Pains) - Mabelle Avenue b/w Cordova Avenue / Dundas St West, Etobicoke (2 Trucks)", "created_at": "Mon Jul 04 04:25:05 +0000 2016", "klabel": 26}}, {"geometry": {"type": "Point", "coordinates": [-79.5378148, 43.638135]}, "type": "Feature", "id": 749981854111895553, "properties": {"loc": [-79.5378148, 43.638135], "centroid": [-79.22643500715259, 43.744663251634876], "screen_name": "tmj_gta_hrta", "time": 1467662582.0, "tid": 749981854111895553, "text": "#Hospitality #Job in Barista (CA) at Starbucks https://t.co/7bfGxtjUUO #Veterans #Jobs #Hiring #CareerArc", "created_at": "Mon Jul 04 15:03:02 +0000 2016", "klabel": 26}}, {"geometry": {"type": "Point", "coordinates": [-79.5227562, 43.6453248]}, "type": "Feature", "id": 750002438363418624, "properties": {"loc": [-79.5227562, 43.6453248], "centroid": [-79.22643500715259, 43.744663251634876], "screen_name": "JoinApex", "time": 1467667490.0, "tid": 750002438363418624, "text": "Can you recommend anyone for this #Sales #job? https://t.co/6u1DJcS83c #Toronto, Ontario #Hiring", "created_at": "Mon Jul 04 16:24:50 +0000 2016", "klabel": 26}}, {"geometry": {"type": "Point", "coordinates": [-79.52326082, 43.64530108]}, "type": "Feature", "id": 750140306583150596, "properties": {"loc": [-79.52326082, 43.64530108], "centroid": [-79.22643500715259, 43.744663251634876], "screen_name": "JaymesBeatty", "time": 1467700360.0, "tid": 750140306583150596, "text": "Still checking in at the gym on foursquareerrrrr... Swarm. (at @GoodLifeFitness in Etobicoke, ON) https://t.co/QNltosxfSg", "created_at": "Tue Jul 05 01:32:40 +0000 2016", "klabel": 26}}, {"geometry": {"type": "Point", "coordinates": [-79.5263871, 43.6514069]}, "type": "Feature", "id": 750159793281724416, "properties": {"loc": [-79.5263871, 43.6514069], "centroid": [-79.22643500715259, 43.744663251634876], "screen_name": "tofire", "time": 1467705006.0, "tid": 750159793281724416, "text": "Vehicle (Personal Injury) - Dundas St West @ Islington Avenue, Etobicoke (2 Trucks)", "created_at": "Tue Jul 05 02:50:06 +0000 2016", "klabel": 26}}, {"geometry": {"type": "Point", "coordinates": [-79.5272814, 43.6503802]}, "type": "Feature", "id": 750162304495484928, "properties": {"loc": [-79.5272814, 43.6503802], "centroid": [-79.22643500715259, 43.744663251634876], "screen_name": "tofire", "time": 1467705605.0, "tid": 750162304495484928, "text": "UD: Medical (Crime Related) - Dundas St b/w Burnhamthorpe Crescent / Cordova Avenue, Etobicoke (2 Trucks)", "created_at": "Tue Jul 05 03:00:05 +0000 2016", "klabel": 26}}, {"geometry": {"type": "Point", "coordinates": [-79.5272814, 43.6503802]}, "type": "Feature", "id": 750162305552384000, "properties": {"loc": [-79.5272814, 43.6503802], "centroid": [-79.22643500715259, 43.744663251634876], "screen_name": "tofireW", "time": 1467705605.0, "tid": 750162305552384000, "text": "UD: Medical (Crime Related) - Dundas St b/w Burnhamthorpe Crescent / Cordova Avenue, Etobicoke (2 Trucks)", "created_at": "Tue Jul 05 03:00:05 +0000 2016", "klabel": 26}}, {"geometry": {"type": "Point", "coordinates": [-79.5272814, 43.6503802]}, "type": "Feature", "id": 750164816745103363, "properties": {"loc": [-79.5272814, 43.6503802], "centroid": [-79.22643500715259, 43.744663251634876], "screen_name": "tofireW", "time": 1467706204.0, "tid": 750164816745103363, "text": "UD: Vehicle (Personal Injury) - Dundas St b/w Burnhamthorpe Crescent / Cordova Avenue, Etobicoke (2 Trucks)", "created_at": "Tue Jul 05 03:10:04 +0000 2016", "klabel": 26}}, {"geometry": {"type": "Point", "coordinates": [-79.535199, 43.642309]}, "type": "Feature", "id": 750229734693466112, "properties": {"loc": [-79.535199, 43.642309], "centroid": [-79.22643500715259, 43.744663251634876], "screen_name": "tpscalls", "time": 1467721682.0, "tid": 750229734693466112, "text": "Assault Just Occurred | Kipling Ave &amp; Dundas St W [22 Div.] 07/05 03:21 #Islington_City_Centre_West #Toronto", "created_at": "Tue Jul 05 07:28:02 +0000 2016", "klabel": 26}}, {"geometry": {"type": "Point", "coordinates": [-79.5287577, 43.6487919]}, "type": "Feature", "id": 750256159999856644, "properties": {"loc": [-79.5287577, 43.6487919], "centroid": [-79.22643500715259, 43.744663251634876], "screen_name": "tpscalls", "time": 1467727982.0, "tid": 750256159999856644, "text": "Fail To Remain Personal Injury Collision | Burnhamthorpe Cres &amp; Cordova Ave [HP] 07/05 05:06 #Islington_City_Centre_West #Toronto", "created_at": "Tue Jul 05 09:13:02 +0000 2016", "klabel": 26}}, {"geometry": {"type": "Point", "coordinates": [-79.52866, 43.64848]}, "type": "Feature", "id": 750292222868746240, "properties": {"loc": [-79.52866, 43.64848], "centroid": [-79.22643500715259, 43.744663251634876], "screen_name": "SixthStreetPub", "time": 1467736580.0, "tid": 750292222868746240, "text": "It's Wing Day!!!!! Get a Pound and a Pint of Welly for $12 #wingday #torontoeats #torontolife\u2026 https://t.co/7lVeblDfLK", "created_at": "Tue Jul 05 11:36:20 +0000 2016", "klabel": 26}}, {"geometry": {"type": "Point", "coordinates": [-79.5227562, 43.6453248]}, "type": "Feature", "id": 750307174300078080, "properties": {"loc": [-79.5227562, 43.6453248], "centroid": [-79.22643500715259, 43.744663251634876], "screen_name": "JoinApex", "time": 1467740145.0, "tid": 750307174300078080, "text": "#CustomerService #Job in #Toronto, Ontario: Administrative Assistant for a Branch Office at Apex Systems https://t.co/QQxMjwSxnt #Jobs", "created_at": "Tue Jul 05 12:35:45 +0000 2016", "klabel": 26}}, {"geometry": {"type": "Point", "coordinates": [-79.53555556, 43.63758333]}, "type": "Feature", "id": 751214430436794368, "properties": {"loc": [-79.53555556, 43.63758333], "centroid": [-79.22643500715259, 43.744663251634876], "screen_name": "weddingdecors", "time": 1467956451.0, "tid": 751214430436794368, "text": "It was so painful as a mother to watch. That 3yr old assure her mom, it's ok, I am here for\u2026 https://t.co/xchaEvLoM6", "created_at": "Fri Jul 08 00:40:51 +0000 2016", "klabel": 26}}, {"geometry": {"type": "Point", "coordinates": [-79.5328383, 43.6431711]}, "type": "Feature", "id": 751644316645326848, "properties": {"loc": [-79.5328383, 43.6431711], "centroid": [-79.22643500715259, 43.744663251634876], "screen_name": "tpscalls", "time": 1468058944.0, "tid": 751644316645326848, "text": "Assault Just Occurred | Summerland Ter &amp; Dunbloor Rd [22 Div.] 07/09 01:04 #Islington_City_Centre_West #Toronto", "created_at": "Sat Jul 09 05:09:04 +0000 2016", "klabel": 26}}, {"geometry": {"type": "Point", "coordinates": [-79.52404, 43.64542]}, "type": "Feature", "id": 751659608377143301, "properties": {"loc": [-79.52404, 43.64542], "centroid": [-79.22643500715259, 43.744663251634876], "screen_name": "Andropomorphine", "time": 1468062590.0, "tid": 751659608377143301, "text": "#1 #toronto #canada @ Islington Subway Station https://t.co/SxK7oekkbh", "created_at": "Sat Jul 09 06:09:50 +0000 2016", "klabel": 26}}, {"geometry": {"type": "Point", "coordinates": [-79.5227562, 43.6453248]}, "type": "Feature", "id": 751735133770698752, "properties": {"loc": [-79.5227562, 43.6453248], "centroid": [-79.22643500715259, 43.744663251634876], "screen_name": "JoinApex", "time": 1468080597.0, "tid": 751735133770698752, "text": "We're #hiring! Click to apply: Administrative Assistant for a Branch Office - https://t.co/QQxMjwSxnt #CustomerService #Toronto, Ontario", "created_at": "Sat Jul 09 11:09:57 +0000 2016", "klabel": 26}}, {"geometry": {"type": "Point", "coordinates": [-79.52866, 43.64848]}, "type": "Feature", "id": 751749685757358080, "properties": {"loc": [-79.52866, 43.64848], "centroid": [-79.22643500715259, 43.744663251634876], "screen_name": "SixthStreetPub", "time": 1468084066.0, "tid": 751749685757358080, "text": "What Time is it? BRUNCH TIME \ud83d\ude1c\ud83d\ude4c #the6ix #6thstreet #torontoeats #torontofoodie #torontofood\u2026 https://t.co/7lbg8Lrwa9", "created_at": "Sat Jul 09 12:07:46 +0000 2016", "klabel": 26}}, {"geometry": {"type": "Point", "coordinates": [-79.54462834, 43.65571596]}, "type": "Feature", "id": 751756492920029184, "properties": {"loc": [-79.54462834, 43.65571596], "centroid": [-79.22643500715259, 43.744663251634876], "screen_name": "GHills6", "time": 1468085689.0, "tid": 751756492920029184, "text": "Clown @Kathleen_Wynne is backing up the moron David Suzuki warming ad with child actors assuring us that climate change is real. Fuck off.", "created_at": "Sat Jul 09 12:34:49 +0000 2016", "klabel": 26}}, {"geometry": {"type": "Point", "coordinates": [-79.52866, 43.64848]}, "type": "Feature", "id": 751815628961386496, "properties": {"loc": [-79.52866, 43.64848], "centroid": [-79.22643500715259, 43.744663251634876], "screen_name": "SixthStreetPub", "time": 1468099788.0, "tid": 751815628961386496, "text": "Today's Special: Chipotle Pulled Pork Tacos with Mango Salsa \ud83d\udc83\ud83c\udf2e #torontofood #torontofoodie\u2026 https://t.co/jwbqwTGxDJ", "created_at": "Sat Jul 09 16:29:48 +0000 2016", "klabel": 26}}, {"geometry": {"type": "Point", "coordinates": [-79.53555556, 43.63758333]}, "type": "Feature", "id": 751933215254929408, "properties": {"loc": [-79.53555556, 43.63758333], "centroid": [-79.22643500715259, 43.744663251634876], "screen_name": "gauravshinde", "time": 1468127823.0, "tid": 751933215254929408, "text": "View from friends' new apartment @ Kipling (TTC) https://t.co/ELYiy3VcrD", "created_at": "Sun Jul 10 00:17:03 +0000 2016", "klabel": 26}}, {"geometry": {"type": "Point", "coordinates": [-79.52572712, 43.65173559]}, "type": "Feature", "id": 751939639926194177, "properties": {"loc": [-79.52572712, 43.65173559], "centroid": [-79.22643500715259, 43.744663251634876], "screen_name": "BonnycastleArt", "time": 1468129355.0, "tid": 751939639926194177, "text": "Excited to be demonstrating #watercolour and speaking about my works presently on exhibit\u2026 https://t.co/D4akxnGdTW", "created_at": "Sun Jul 10 00:42:35 +0000 2016", "klabel": 26}}, {"geometry": {"type": "Point", "coordinates": [-79.52422, 43.63586]}, "type": "Feature", "id": 751985020475023360, "properties": {"loc": [-79.52422, 43.63586], "centroid": [-79.22643500715259, 43.744663251634876], "screen_name": "EtobHumaneSoc", "time": 1468140174.0, "tid": 751985020475023360, "text": "Willow just chillin' in her #catcondo. I may have interrupted #naptime Contact\u2026 https://t.co/qhX0jTcg7n", "created_at": "Sun Jul 10 03:42:54 +0000 2016", "klabel": 26}}, {"geometry": {"type": "Point", "coordinates": [-79.5227562, 43.6453248]}, "type": "Feature", "id": 751993660808441856, "properties": {"loc": [-79.5227562, 43.6453248], "centroid": [-79.22643500715259, 43.744663251634876], "screen_name": "JoinApex", "time": 1468142234.0, "tid": 751993660808441856, "text": "We're #hiring! Click to apply: Administrative Assistant for a Branch Office - https://t.co/QQxMjwSxnt #CustomerService #Toronto, Ontario", "created_at": "Sun Jul 10 04:17:14 +0000 2016", "klabel": 26}}, {"geometry": {"type": "Point", "coordinates": [-79.5260192, 43.6474784]}, "type": "Feature", "id": 752116925312933889, "properties": {"loc": [-79.5260192, 43.6474784], "centroid": [-79.22643500715259, 43.744663251634876], "screen_name": "tpscalls", "time": 1468171623.0, "tid": 752116925312933889, "text": "See Ambulance | C P R &amp; Cordova Ave [22 Div.] 07/10 08:23 #Islington #Toronto", "created_at": "Sun Jul 10 12:27:03 +0000 2016", "klabel": 26}}, {"geometry": {"type": "Point", "coordinates": [-79.5378148, 43.638135]}, "type": "Feature", "id": 752176600171417600, "properties": {"loc": [-79.5378148, 43.638135], "centroid": [-79.22643500715259, 43.744663251634876], "screen_name": "tmj_gta_hrta", "time": 1468185850.0, "tid": 752176600171417600, "text": "Can you recommend anyone for this #job? https://t.co/azvVUkIN3b #Hospitality #Veterans #Hiring #CareerArc", "created_at": "Sun Jul 10 16:24:10 +0000 2016", "klabel": 26}}, {"geometry": {"type": "Point", "coordinates": [-79.5311572, 43.6437774]}, "type": "Feature", "id": 752183365227442176, "properties": {"loc": [-79.5311572, 43.6437774], "centroid": [-79.22643500715259, 43.744663251634876], "screen_name": "tpscalls", "time": 1468187463.0, "tid": 752183365227442176, "text": "Fraud | C P R &amp; Resurrection Rd [22 Div.] 07/10 12:46 #Islington_City_Centre_West #Toronto", "created_at": "Sun Jul 10 16:51:03 +0000 2016", "klabel": 26}}, {"geometry": {"type": "Point", "coordinates": [-79.5227562, 43.6453248]}, "type": "Feature", "id": 752189346778722304, "properties": {"loc": [-79.5227562, 43.6453248], "centroid": [-79.22643500715259, 43.744663251634876], "screen_name": "tmj_gta_sales", "time": 1468188889.0, "tid": 752189346778722304, "text": "Join the Apex Systems team! See our latest #job opening here: https://t.co/U9CK79XiAy #Sales #Toronto, Ontario #Hiring #CareerArc", "created_at": "Sun Jul 10 17:14:49 +0000 2016", "klabel": 26}}, {"geometry": {"type": "Point", "coordinates": [-79.53798, 43.64159]}, "type": "Feature", "id": 752284913722765312, "properties": {"loc": [-79.53798, 43.64159], "centroid": [-79.22643500715259, 43.744663251634876], "screen_name": "JoshSayz", "time": 1468211674.0, "tid": 752284913722765312, "text": "I promised my coworkers that if we raised $2500 for sick kids I would shave my head, we ended up\u2026 https://t.co/WBkHRPlSWH", "created_at": "Sun Jul 10 23:34:34 +0000 2016", "klabel": 26}}, {"geometry": {"type": "Point", "coordinates": [-79.52866, 43.64848]}, "type": "Feature", "id": 752455761435910144, "properties": {"loc": [-79.52866, 43.64848], "centroid": [-79.22643500715259, 43.744663251634876], "screen_name": "SixthStreetPub", "time": 1468252408.0, "tid": 752455761435910144, "text": "Today's App: Irish Nachos with our Dark Ale Gravy \ud83d\ude1b\ud83d\ude4f\ud83c\udffb #mondaymotivation #mondaypickmeup\u2026 https://t.co/awR3VJmJQ3", "created_at": "Mon Jul 11 10:53:28 +0000 2016", "klabel": 26}}, {"geometry": {"type": "Point", "coordinates": [-79.52866, 43.64848]}, "type": "Feature", "id": 752457021425786881, "properties": {"loc": [-79.52866, 43.64848], "centroid": [-79.22643500715259, 43.744663251634876], "screen_name": "SixthStreetPub", "time": 1468252708.0, "tid": 752457021425786881, "text": "Today's App: Irish Nachos Served up with our Dark Ale Gravy \ud83d\ude1b\ud83d\ude4f\ud83c\udffb #carbsfordays #the6ix #6thstreet\u2026 https://t.co/LXwxCWNLCp", "created_at": "Mon Jul 11 10:58:28 +0000 2016", "klabel": 26}}, {"geometry": {"type": "Point", "coordinates": [-79.5227562, 43.6453248]}, "type": "Feature", "id": 752499834561568768, "properties": {"loc": [-79.5227562, 43.6453248], "centroid": [-79.22643500715259, 43.744663251634876], "screen_name": "JoinApex", "time": 1468262915.0, "tid": 752499834561568768, "text": "Join the Apex Systems team! See our latest #job opening here: https://t.co/6u1DJcS83c #Sales #Toronto, Ontario #Hiring", "created_at": "Mon Jul 11 13:48:35 +0000 2016", "klabel": 26}}, {"geometry": {"type": "Point", "coordinates": [-79.5343, 43.64174]}, "type": "Feature", "id": 752516873112223744, "properties": {"loc": [-79.5343, 43.64174], "centroid": [-79.22643500715259, 43.744663251634876], "screen_name": "codydacosta", "time": 1468266978.0, "tid": 752516873112223744, "text": "After all the recent things in the news from our neighbours to the south, this happened while\u2026 https://t.co/d3c9zYx7cM", "created_at": "Mon Jul 11 14:56:18 +0000 2016", "klabel": 26}}, {"geometry": {"type": "Point", "coordinates": [-79.53267278, 43.6611659]}, "type": "Feature", "id": 752606794715762688, "properties": {"loc": [-79.53267278, 43.6611659], "centroid": [-79.22643500715259, 43.744663251634876], "screen_name": "squabtweets", "time": 1468288417.0, "tid": 752606794715762688, "text": "Cottage activity: target views. #bluemountain #bbgun @ Blue Mountain https://t.co/nAMP7bQvxq", "created_at": "Mon Jul 11 20:53:37 +0000 2016", "klabel": 26}}, {"geometry": {"type": "Point", "coordinates": [-79.53466415, 43.63849774]}, "type": "Feature", "id": 752681864167587844, "properties": {"loc": [-79.53466415, 43.63849774], "centroid": [-79.22643500715259, 43.744663251634876], "screen_name": "katiepaterson", "time": 1468306315.0, "tid": 752681864167587844, "text": "Why can j never remember how to get to my car... (@ Kipling GO Station in Toronto, ON) https://t.co/c8cHSinQnN", "created_at": "Tue Jul 12 01:51:55 +0000 2016", "klabel": 26}}, {"geometry": {"type": "Point", "coordinates": [-79.5227562, 43.6453248]}, "type": "Feature", "id": 752758576951595008, "properties": {"loc": [-79.5227562, 43.6453248], "centroid": [-79.22643500715259, 43.744663251634876], "screen_name": "JoinApex", "time": 1468324604.0, "tid": 752758576951595008, "text": "Can you recommend anyone for this #job? Recruiting Inside Sales Trainee (Recruiter/Sales Representative) - https://t.co/6u1DJcS83c #Sales", "created_at": "Tue Jul 12 06:56:44 +0000 2016", "klabel": 26}}, {"geometry": {"type": "Point", "coordinates": [-79.5227562, 43.6453248]}, "type": "Feature", "id": 752769970958852096, "properties": {"loc": [-79.5227562, 43.6453248], "centroid": [-79.22643500715259, 43.744663251634876], "screen_name": "JoinApex", "time": 1468327321.0, "tid": 752769970958852096, "text": "This #job might be a great fit for you: Administrative Assistant for a Branch Office - https://t.co/QQxMjwSxnt #Toronto, Ontario #Hiring", "created_at": "Tue Jul 12 07:42:01 +0000 2016", "klabel": 26}}, {"geometry": {"type": "Point", "coordinates": [-79.5333803, 43.64376908]}, "type": "Feature", "id": 752844427853438976, "properties": {"loc": [-79.5333803, 43.64376908], "centroid": [-79.22643500715259, 43.744663251634876], "screen_name": "Cheoffrey", "time": 1468345073.0, "tid": 752844427853438976, "text": "Hot &amp; sticky #coconut #shrimp #tacos #tacotuesday #cheoffeats #truecooks #gatekitchen\u2026 https://t.co/g8ZgN3qfOF", "created_at": "Tue Jul 12 12:37:53 +0000 2016", "klabel": 26}}, {"geometry": {"type": "Point", "coordinates": [-79.52835, 43.62981]}, "type": "Feature", "id": 752846514347802624, "properties": {"loc": [-79.52835, 43.62981], "centroid": [-79.22643500715259, 43.744663251634876], "screen_name": "HairReign", "time": 1468345570.0, "tid": 752846514347802624, "text": "Very busy..... @ Cinespace Studios https://t.co/ZPm2RbEMg6", "created_at": "Tue Jul 12 12:46:10 +0000 2016", "klabel": 26}}, {"geometry": {"type": "Point", "coordinates": [-79.53211487, 43.63844763]}, "type": "Feature", "id": 752851187225890816, "properties": {"loc": [-79.53211487, 43.63844763], "centroid": [-79.22643500715259, 43.744663251634876], "screen_name": "readmyeyes22", "time": 1468346684.0, "tid": 752851187225890816, "text": "Just posted a photo @ D.C. Music Toronto https://t.co/gl0QM7ZVGg", "created_at": "Tue Jul 12 13:04:44 +0000 2016", "klabel": 26}}, {"geometry": {"type": "Point", "coordinates": [-79.53211487, 43.63844763]}, "type": "Feature", "id": 752891934797029381, "properties": {"loc": [-79.53211487, 43.63844763], "centroid": [-79.22643500715259, 43.744663251634876], "screen_name": "readmyeyes22", "time": 1468356399.0, "tid": 752891934797029381, "text": "Just posted a photo @ D.C. Music Toronto https://t.co/vtpScMTURY", "created_at": "Tue Jul 12 15:46:39 +0000 2016", "klabel": 26}}, {"geometry": {"type": "Point", "coordinates": [-79.5255122, 43.6472125]}, "type": "Feature", "id": 752930539213119488, "properties": {"loc": [-79.5255122, 43.6472125], "centroid": [-79.22643500715259, 43.744663251634876], "screen_name": "tofireW", "time": 1468365603.0, "tid": 752930539213119488, "text": "Medical (Assist) - Mabelle Avenue b/w Cordova Avenue / Dundas St West, Etobicoke (2 Trucks)", "created_at": "Tue Jul 12 18:20:03 +0000 2016", "klabel": 26}}, {"geometry": {"type": "Point", "coordinates": [-79.5233878, 43.6447484]}, "type": "Feature", "id": 752968288762748929, "properties": {"loc": [-79.5233878, 43.6447484], "centroid": [-79.22643500715259, 43.744663251634876], "screen_name": "tofire", "time": 1468374604.0, "tid": 752968288762748929, "text": "Fire (Subway) - Islington Avenue b/w Bloor St West / Aberfoyle Crescent, Etobicoke (9 Trucks)", "created_at": "Tue Jul 12 20:50:04 +0000 2016", "klabel": 26}}, {"geometry": {"type": "Point", "coordinates": [-79.5233878, 43.6447484]}, "type": "Feature", "id": 752968290503458816, "properties": {"loc": [-79.5233878, 43.6447484], "centroid": [-79.22643500715259, 43.744663251634876], "screen_name": "tofiref", "time": 1468374604.0, "tid": 752968290503458816, "text": "Fire (Subway) - Islington Avenue b/w Bloor St West / Aberfoyle Crescent, Etobicoke (9 Trucks)", "created_at": "Tue Jul 12 20:50:04 +0000 2016", "klabel": 26}}, {"geometry": {"type": "Point", "coordinates": [-79.5233878, 43.6447484]}, "type": "Feature", "id": 752968289664569345, "properties": {"loc": [-79.5233878, 43.6447484], "centroid": [-79.22643500715259, 43.744663251634876], "screen_name": "tofireW", "time": 1468374604.0, "tid": 752968289664569345, "text": "Fire (Subway) - Islington Avenue b/w Bloor St West / Aberfoyle Crescent, Etobicoke (9 Trucks)", "created_at": "Tue Jul 12 20:50:04 +0000 2016", "klabel": 26}}, {"geometry": {"type": "Point", "coordinates": [-79.5233878, 43.6447484]}, "type": "Feature", "id": 752969797277712384, "properties": {"loc": [-79.5233878, 43.6447484], "centroid": [-79.22643500715259, 43.744663251634876], "screen_name": "tofire", "time": 1468374963.0, "tid": 752969797277712384, "text": "UD: Fire (Subway) - Islington Avenue b/w Bloor St West / Aberfoyle Crescent, Etobicoke (10 Trucks)", "created_at": "Tue Jul 12 20:56:03 +0000 2016", "klabel": 26}}, {"geometry": {"type": "Point", "coordinates": [-79.5233878, 43.6447484]}, "type": "Feature", "id": 752969798468923392, "properties": {"loc": [-79.5233878, 43.6447484], "centroid": [-79.22643500715259, 43.744663251634876], "screen_name": "tofireW", "time": 1468374964.0, "tid": 752969798468923392, "text": "UD: Fire (Subway) - Islington Avenue b/w Bloor St West / Aberfoyle Crescent, Etobicoke (10 Trucks)", "created_at": "Tue Jul 12 20:56:04 +0000 2016", "klabel": 26}}, {"geometry": {"type": "Point", "coordinates": [-79.528363, 43.641636]}, "type": "Feature", "id": 752997217426735104, "properties": {"loc": [-79.528363, 43.641636], "centroid": [-79.22643500715259, 43.744663251634876], "screen_name": "JonGauthier", "time": 1468381501.0, "tid": 752997217426735104, "text": "Picking Up #SculptureJon i got done @ #ideacity (@ Objex Unlimted in Toronto) https://t.co/pbKYj0uSeQ https://t.co/hB3VwMTHbj", "created_at": "Tue Jul 12 22:45:01 +0000 2016", "klabel": 26}}, {"geometry": {"type": "Point", "coordinates": [-79.5227562, 43.6453248]}, "type": "Feature", "id": 753032421604327424, "properties": {"loc": [-79.5227562, 43.6453248], "centroid": [-79.22643500715259, 43.744663251634876], "screen_name": "JoinApex", "time": 1468389894.0, "tid": 753032421604327424, "text": "Interested in a #job near #Toronto, Ontario? This could be a great fit: https://t.co/QQxMjwSxnt #CustomerService #Hiring", "created_at": "Wed Jul 13 01:04:54 +0000 2016", "klabel": 26}}, {"geometry": {"type": "Point", "coordinates": [-79.52531701, 43.63270493]}, "type": "Feature", "id": 753036502557491200, "properties": {"loc": [-79.52531701, 43.63270493], "centroid": [-79.22643500715259, 43.744663251634876], "screen_name": "Travelling_Liz", "time": 1468390867.0, "tid": 753036502557491200, "text": "Sweating it out!! I totally needed a good workout! Fun Times!! #torquebarbell #yyz #leanmachine\u2026 https://t.co/RsBcxpJUOD", "created_at": "Wed Jul 13 01:21:07 +0000 2016", "klabel": 26}}, {"geometry": {"type": "Point", "coordinates": [-79.5210089, 43.6453751]}, "type": "Feature", "id": 753251273470713856, "properties": {"loc": [-79.5210089, 43.6453751], "centroid": [-79.22643500715259, 43.744663251634876], "screen_name": "dr_mayers", "time": 1468442072.0, "tid": 753251273470713856, "text": "These just in! Burberry X Ray Bans \ud83d\udc53\ud83d\udc40\u2600\ufe0f COME check out our newest SUNGLASSES And don't forget\u2026 https://t.co/JKtT00VdDR", "created_at": "Wed Jul 13 15:34:32 +0000 2016", "klabel": 26}}, {"geometry": {"type": "Point", "coordinates": [-79.5287577, 43.6487919]}, "type": "Feature", "id": 753272039683784704, "properties": {"loc": [-79.5287577, 43.6487919], "centroid": [-79.22643500715259, 43.744663251634876], "screen_name": "tpscalls", "time": 1468447024.0, "tid": 753272039683784704, "text": "Disorderlies | Dundas St W &amp; Cordova Ave [22 Div.] 07/13 12:51 #Eatonville #Toronto", "created_at": "Wed Jul 13 16:57:04 +0000 2016", "klabel": 26}}, {"geometry": {"type": "Point", "coordinates": [-79.5227562, 43.6453248]}, "type": "Feature", "id": 753283665006690305, "properties": {"loc": [-79.5227562, 43.6453248], "centroid": [-79.22643500715259, 43.744663251634876], "screen_name": "JoinApex", "time": 1468449795.0, "tid": 753283665006690305, "text": "Want to work at Apex Systems? We're #hiring in #Toronto, Ontario! Click for details: https://t.co/6u1DJcS83c #Job #Sales #Jobs", "created_at": "Wed Jul 13 17:43:15 +0000 2016", "klabel": 26}}, {"geometry": {"type": "Point", "coordinates": [-79.5255122, 43.6472125]}, "type": "Feature", "id": 753324637929472001, "properties": {"loc": [-79.5255122, 43.6472125], "centroid": [-79.22643500715259, 43.744663251634876], "screen_name": "tofire", "time": 1468459564.0, "tid": 753324637929472001, "text": "Medical (Unconscious) - Mabelle Avenue b/w Cordova Avenue / Dundas St West, Etobicoke (3 Trucks)", "created_at": "Wed Jul 13 20:26:04 +0000 2016", "klabel": 26}}, {"geometry": {"type": "Point", "coordinates": [-79.5255122, 43.6472125]}, "type": "Feature", "id": 753324638810308608, "properties": {"loc": [-79.5255122, 43.6472125], "centroid": [-79.22643500715259, 43.744663251634876], "screen_name": "tofireW", "time": 1468459564.0, "tid": 753324638810308608, "text": "Medical (Unconscious) - Mabelle Avenue b/w Cordova Avenue / Dundas St West, Etobicoke (3 Trucks)", "created_at": "Wed Jul 13 20:26:04 +0000 2016", "klabel": 26}}, {"geometry": {"type": "Point", "coordinates": [-79.52044211, 43.63587441]}, "type": "Feature", "id": 753325720315764737, "properties": {"loc": [-79.52044211, 43.63587441], "centroid": [-79.22643500715259, 43.744663251634876], "screen_name": "frankp316", "time": 1468459822.0, "tid": 753325720315764737, "text": "I'm at TTC Bus #44 - Kipling South in Toronto, ON https://t.co/hD5uGZLIjg", "created_at": "Wed Jul 13 20:30:22 +0000 2016", "klabel": 26}}, {"geometry": {"type": "Point", "coordinates": [-79.5378238, 43.6392936]}, "type": "Feature", "id": 753344639751561216, "properties": {"loc": [-79.5378238, 43.6392936], "centroid": [-79.22643500715259, 43.744663251634876], "screen_name": "Annie_yogi", "time": 1468464333.0, "tid": 753344639751561216, "text": "Yes I'm here again. Love this place. (@ Apache Burger in Etobicoke, ON) https://t.co/iLDOIwvaIM", "created_at": "Wed Jul 13 21:45:33 +0000 2016", "klabel": 26}}, {"geometry": {"type": "Point", "coordinates": [-79.53724041, 43.63955348]}, "type": "Feature", "id": 753364830535507968, "properties": {"loc": [-79.53724041, 43.63955348], "centroid": [-79.22643500715259, 43.744663251634876], "screen_name": "MiaAdinaVida", "time": 1468469147.0, "tid": 753364830535507968, "text": "Thank God I'm doing takeout cuz this place doesn't believe in A/C!!! (@ Pho House in Etobicoke, ON) https://t.co/0g1oR6OgV4", "created_at": "Wed Jul 13 23:05:47 +0000 2016", "klabel": 26}}, {"geometry": {"type": "Point", "coordinates": [-79.53803301, 43.64036121]}, "type": "Feature", "id": 753378302786756608, "properties": {"loc": [-79.53803301, 43.64036121], "centroid": [-79.22643500715259, 43.744663251634876], "screen_name": "Annie_yogi", "time": 1468472359.0, "tid": 753378302786756608, "text": "I'm at Canadiana Restaurant &amp; Banquet Hall in Etobicoke, ON https://t.co/el2EkhmrtU", "created_at": "Wed Jul 13 23:59:19 +0000 2016", "klabel": 26}}, {"geometry": {"type": "Point", "coordinates": [-79.5256655, 43.6442379]}, "type": "Feature", "id": 753439641940942849, "properties": {"loc": [-79.5256655, 43.6442379], "centroid": [-79.22643500715259, 43.744663251634876], "screen_name": "tpscalls", "time": 1468486983.0, "tid": 753439641940942849, "text": "Property Damage Collision | Bloor St W &amp; Green Lanes [HP] 07/13 23:57 #Sunnylea #Toronto", "created_at": "Thu Jul 14 04:03:03 +0000 2016", "klabel": 26}}, {"geometry": {"type": "Point", "coordinates": [-79.5392078, 43.6562078]}, "type": "Feature", "id": 753492736683208704, "properties": {"loc": [-79.5392078, 43.6562078], "centroid": [-79.22643500715259, 43.744663251634876], "screen_name": "tpscalls", "time": 1468499642.0, "tid": 753492736683208704, "text": "Dispute | Skyway Ave &amp; Mimico Creek [23 Div.] 07/14 03:28 #Etobicoke #Toronto", "created_at": "Thu Jul 14 07:34:02 +0000 2016", "klabel": 26}}, {"geometry": {"type": "Point", "coordinates": [-79.52866, 43.64848]}, "type": "Feature", "id": 753548832244322305, "properties": {"loc": [-79.52866, 43.64848], "centroid": [-79.22643500715259, 43.744663251634876], "screen_name": "SixthStreetPub", "time": 1468513016.0, "tid": 753548832244322305, "text": "Well, it's Thursday and you know what that means....... BURRITO DAY! \ud83d\ude0f\ud83c\udf2f Get a Burrito and a\u2026 https://t.co/wTZTmE2z77", "created_at": "Thu Jul 14 11:16:56 +0000 2016", "klabel": 26}}, {"geometry": {"type": "Point", "coordinates": [-79.54146148, 43.63605937]}, "type": "Feature", "id": 753563050972700672, "properties": {"loc": [-79.54146148, 43.63605937], "centroid": [-79.22643500715259, 43.744663251634876], "screen_name": "WhatSheSaidTalk", "time": 1468516406.0, "tid": 753563050972700672, "text": "#Canada 's 1st Minister of Science #KirstyDuncan @sciencemin on her job &amp; her inspiration\u2026 https://t.co/VQ8W1oPr01", "created_at": "Thu Jul 14 12:13:26 +0000 2016", "klabel": 26}}, {"geometry": {"type": "Point", "coordinates": [-79.5311572, 43.6437774]}, "type": "Feature", "id": 753656319886917632, "properties": {"loc": [-79.5311572, 43.6437774], "centroid": [-79.22643500715259, 43.744663251634876], "screen_name": "tpscalls", "time": 1468538643.0, "tid": 753656319886917632, "text": "Fraud | C P R &amp; Resurrection Rd [22 Div.] 07/14 14:20 #Islington_City_Centre_West #Toronto", "created_at": "Thu Jul 14 18:24:03 +0000 2016", "klabel": 26}}, {"geometry": {"type": "Point", "coordinates": [-79.53031656, 43.63078217]}, "type": "Feature", "id": 753768203659120640, "properties": {"loc": [-79.53031656, 43.63078217], "centroid": [-79.22643500715259, 43.744663251634876], "screen_name": "HairReign", "time": 1468565318.0, "tid": 753768203659120640, "text": "There is a double rainbow over our makeup   trailer  #potofgold #luck #irishluck\u2026 https://t.co/9k8ETYwGTY", "created_at": "Fri Jul 15 01:48:38 +0000 2016", "klabel": 26}}, {"geometry": {"type": "Point", "coordinates": [-79.53123807, 43.64525011]}, "type": "Feature", "id": 753796006433656832, "properties": {"loc": [-79.53123807, 43.64525011], "centroid": [-79.22643500715259, 43.744663251634876], "screen_name": "dwainpablacio", "time": 1468571947.0, "tid": 753796006433656832, "text": "Let's go! Reposting this tmrw morning\n\n#PokemonGo #TeamValor @ Michael Power Park https://t.co/wXP2umWtub", "created_at": "Fri Jul 15 03:39:07 +0000 2016", "klabel": 26}}, {"geometry": {"type": "Point", "coordinates": [-79.5227562, 43.6453248]}, "type": "Feature", "id": 753842780888150017, "properties": {"loc": [-79.5227562, 43.6453248], "centroid": [-79.22643500715259, 43.744663251634876], "screen_name": "JoinApex", "time": 1468583099.0, "tid": 753842780888150017, "text": "This #job might be a great fit for you: Administrative Assistant for a Branch Office - https://t.co/QQxMjwSxnt #Toronto, Ontario #Hiring", "created_at": "Fri Jul 15 06:44:59 +0000 2016", "klabel": 26}}, {"geometry": {"type": "Point", "coordinates": [-79.521206, 43.6369783]}, "type": "Feature", "id": 754061741017985026, "properties": {"loc": [-79.521206, 43.6369783], "centroid": [-79.22643500715259, 43.744663251634876], "screen_name": "tpscalls", "time": 1468635303.0, "tid": 754061741017985026, "text": "Dispute | C P R Spur &amp; Furrow Lane [22 Div.] 07/15 17:11 #Islington_City_Centre_West #Toronto", "created_at": "Fri Jul 15 21:15:03 +0000 2016", "klabel": 26}}, {"geometry": {"type": "Point", "coordinates": [-79.53211487, 43.63844763]}, "type": "Feature", "id": 754067922683777024, "properties": {"loc": [-79.53211487, 43.63844763], "centroid": [-79.22643500715259, 43.744663251634876], "screen_name": "readmyeyes22", "time": 1468636777.0, "tid": 754067922683777024, "text": "~Lost deep within me, I can barely breathe @ D.C. Music Toronto https://t.co/qXNLqCxwqz", "created_at": "Fri Jul 15 21:39:37 +0000 2016", "klabel": 26}}, {"geometry": {"type": "Point", "coordinates": [-79.5255122, 43.6472125]}, "type": "Feature", "id": 754071813068652545, "properties": {"loc": [-79.5255122, 43.6472125], "centroid": [-79.22643500715259, 43.744663251634876], "screen_name": "tofire", "time": 1468637704.0, "tid": 754071813068652545, "text": "Medical (Check Call) - Mabelle Avenue b/w Cordova Avenue / Dundas St West, Etobicoke (2 Trucks)", "created_at": "Fri Jul 15 21:55:04 +0000 2016", "klabel": 26}}, {"geometry": {"type": "Point", "coordinates": [-79.5255122, 43.6472125]}, "type": "Feature", "id": 754071813983010816, "properties": {"loc": [-79.5255122, 43.6472125], "centroid": [-79.22643500715259, 43.744663251634876], "screen_name": "tofireW", "time": 1468637705.0, "tid": 754071813983010816, "text": "Medical (Check Call) - Mabelle Avenue b/w Cordova Avenue / Dundas St West, Etobicoke (2 Trucks)", "created_at": "Fri Jul 15 21:55:05 +0000 2016", "klabel": 26}}, {"geometry": {"type": "Point", "coordinates": [-79.52853, 43.64935]}, "type": "Feature", "id": 754075510913830912, "properties": {"loc": [-79.52853, 43.64935], "centroid": [-79.22643500715259, 43.744663251634876], "screen_name": "jeswatson", "time": 1468638586.0, "tid": 754075510913830912, "text": "Currently: cooking up a storm with canadianliving and @lovecdnbeef @cirillosacademy. \ud83d\ude0b @\u2026 https://t.co/ftFDZtXikG", "created_at": "Fri Jul 15 22:09:46 +0000 2016", "klabel": 26}}, {"geometry": {"type": "Point", "coordinates": [-79.531951, 43.6642357]}, "type": "Feature", "id": 754078604791779328, "properties": {"loc": [-79.531951, 43.6642357], "centroid": [-79.22643500715259, 43.744663251634876], "screen_name": "tpscalls", "time": 1468639324.0, "tid": 754078604791779328, "text": "Personal Injury Collision | Islington Ave &amp; Anglesey Blvd [HP] 07/15 18:17 #Edenbridge_Humber_Valley #Toronto", "created_at": "Fri Jul 15 22:22:04 +0000 2016", "klabel": 26}}, {"geometry": {"type": "Point", "coordinates": [-79.5333803, 43.64376908]}, "type": "Feature", "id": 754079423758999552, "properties": {"loc": [-79.5333803, 43.64376908], "centroid": [-79.22643500715259, 43.744663251634876], "screen_name": "StJamesGateTO", "time": 1468639519.0, "tid": 754079423758999552, "text": "#Chorizo &amp; #Feta #Quesadilla\nSpanish chorizo, crumbled feta cheese, black bean salsa and banana\u2026 https://t.co/C40ajhNhrv", "created_at": "Fri Jul 15 22:25:19 +0000 2016", "klabel": 26}}, {"geometry": {"type": "Point", "coordinates": [-79.5333803, 43.64376908]}, "type": "Feature", "id": 754079903344132096, "properties": {"loc": [-79.5333803, 43.64376908], "centroid": [-79.22643500715259, 43.744663251634876], "screen_name": "StJamesGateTO", "time": 1468639633.0, "tid": 754079903344132096, "text": "#Cubano Grilled Cheese \nSavoury ham, smoked pork, honey mustard, chopped pickles, havarti and\u2026 https://t.co/SqYlaeNLWw", "created_at": "Fri Jul 15 22:27:13 +0000 2016", "klabel": 26}}, {"geometry": {"type": "Point", "coordinates": [-79.52853, 43.64935]}, "type": "Feature", "id": 754084714751877120, "properties": {"loc": [-79.52853, 43.64935], "centroid": [-79.22643500715259, 43.744663251634876], "screen_name": "jeswatson", "time": 1468640780.0, "tid": 754084714751877120, "text": "Adelaide approves of these Lazy Cheeseburger sliders. (Four thumbs up, she says. \ud83d\udc4d\ud83d\udc4d\ud83d\udc4d\ud83d\udc4d)\u2026 https://t.co/1mLVNvyull", "created_at": "Fri Jul 15 22:46:20 +0000 2016", "klabel": 26}}, {"geometry": {"type": "Point", "coordinates": [-79.52525135, 43.6440953]}, "type": "Feature", "id": 754085685552873472, "properties": {"loc": [-79.52525135, 43.6440953], "centroid": [-79.22643500715259, 43.744663251634876], "screen_name": "Drewber66", "time": 1468641012.0, "tid": 754085685552873472, "text": "Soooo needed! (@ The Beer Store - @mybeerstore in Etobicoke, ON) https://t.co/9zJYDiD5Y9", "created_at": "Fri Jul 15 22:50:12 +0000 2016", "klabel": 26}}, {"geometry": {"type": "Point", "coordinates": [-79.5255122, 43.6472125]}, "type": "Feature", "id": 754094711053361152, "properties": {"loc": [-79.5255122, 43.6472125], "centroid": [-79.22643500715259, 43.744663251634876], "screen_name": "tofireW", "time": 1468643164.0, "tid": 754094711053361152, "text": "Medical (Seizures/convulsions) - Mabelle Avenue b/w Cordova Avenue / Dundas St West, Etobicoke (2 Trucks)", "created_at": "Fri Jul 15 23:26:04 +0000 2016", "klabel": 26}}, {"geometry": {"type": "Point", "coordinates": [-79.5255122, 43.6472125]}, "type": "Feature", "id": 754095723117944832, "properties": {"loc": [-79.5255122, 43.6472125], "centroid": [-79.22643500715259, 43.744663251634876], "screen_name": "tofireW", "time": 1468643405.0, "tid": 754095723117944832, "text": "UD: Tems Transferred (Read Remarks) - Mabelle Avenue b/w Cordova Avenue / Dundas St West, Etobicoke (2 Trucks)", "created_at": "Fri Jul 15 23:30:05 +0000 2016", "klabel": 26}}, {"geometry": {"type": "Point", "coordinates": [-79.52853, 43.64935]}, "type": "Feature", "id": 754131399137951744, "properties": {"loc": [-79.52853, 43.64935], "centroid": [-79.22643500715259, 43.744663251634876], "screen_name": "samkj27", "time": 1468651911.0, "tid": 754131399137951744, "text": "Want to learn how to make easy, kid-friendly meals that the family will live? Check out the\u2026 https://t.co/pGZ9Zrt0xf", "created_at": "Sat Jul 16 01:51:51 +0000 2016", "klabel": 26}}, {"geometry": {"type": "Point", "coordinates": [-79.52866, 43.64848]}, "type": "Feature", "id": 754294721858514945, "properties": {"loc": [-79.52866, 43.64848], "centroid": [-79.22643500715259, 43.744663251634876], "screen_name": "SixthStreetPub", "time": 1468690850.0, "tid": 754294721858514945, "text": "Happy Saturday!!! Today's App: Spinach and Blue Cheese Salad with our White Balsamic Dressing \ud83d\ude4b\u2026 https://t.co/YSzOHcHPPF", "created_at": "Sat Jul 16 12:40:50 +0000 2016", "klabel": 26}}, {"geometry": {"type": "Point", "coordinates": [-79.5380531, 43.6401871]}, "type": "Feature", "id": 754312605691285505, "properties": {"loc": [-79.5380531, 43.6401871], "centroid": [-79.22643500715259, 43.744663251634876], "screen_name": "tmj_gta_hrta", "time": 1468695114.0, "tid": 754312605691285505, "text": "Can you recommend anyone for this #job? Shift Supervisor (CA) - https://t.co/JcNZhznoBj #Hospitality 5230 DUNDAS ST W, #TORONTO, ON #Hiring", "created_at": "Sat Jul 16 13:51:54 +0000 2016", "klabel": 26}}, {"geometry": {"type": "Point", "coordinates": [-79.5230279, 43.6443806]}, "type": "Feature", "id": 754361612149022720, "properties": {"loc": [-79.5230279, 43.6443806], "centroid": [-79.22643500715259, 43.744663251634876], "screen_name": "tmj_on_jobs", "time": 1468706798.0, "tid": 754361612149022720, "text": "If you're looking for work in #Etobicoke, ON, check out this #job: https://t.co/yJCK5TuAKo #Clerical #Hiring #CareerArc", "created_at": "Sat Jul 16 17:06:38 +0000 2016", "klabel": 26}}, {"geometry": {"type": "Point", "coordinates": [-79.5378148, 43.638135]}, "type": "Feature", "id": 754361787827433472, "properties": {"loc": [-79.5378148, 43.638135], "centroid": [-79.22643500715259, 43.744663251634876], "screen_name": "tmj_gta_hrta", "time": 1468706840.0, "tid": 754361787827433472, "text": "Want to work at Starbucks? We're #hiring in ! Click for details: https://t.co/azvVUkIN3b #Job #Hospitality #Veterans #Jobs #CareerArc", "created_at": "Sat Jul 16 17:07:20 +0000 2016", "klabel": 26}}, {"geometry": {"type": "Point", "coordinates": [-79.5224953, 43.6451848]}, "type": "Feature", "id": 754387839463206912, "properties": {"loc": [-79.5224953, 43.6451848], "centroid": [-79.22643500715259, 43.744663251634876], "screen_name": "tmj_gta_hrta", "time": 1468713051.0, "tid": 754387839463206912, "text": "We're #hiring! Read about our latest #job opening here: Shift Supervisor (CA) - https://t.co/jYYIU29Xpp #Hospitality #Veterans #CareerArc", "created_at": "Sat Jul 16 18:50:51 +0000 2016", "klabel": 26}}, {"geometry": {"type": "Point", "coordinates": [-79.5224953, 43.6451848]}, "type": "Feature", "id": 754389372003168257, "properties": {"loc": [-79.5224953, 43.6451848], "centroid": [-79.22643500715259, 43.744663251634876], "screen_name": "tmj_gta_hrta", "time": 1468713416.0, "tid": 754389372003168257, "text": "Want to work at Starbucks? We're #hiring in ! Click for details: https://t.co/uJYEzC7Ivw #Job #Hospitality #Veterans #Jobs #CareerArc", "created_at": "Sat Jul 16 18:56:56 +0000 2016", "klabel": 26}}, {"geometry": {"type": "Point", "coordinates": [-79.52531701, 43.63270493]}, "type": "Feature", "id": 754402437579104256, "properties": {"loc": [-79.52531701, 43.63270493], "centroid": [-79.22643500715259, 43.744663251634876], "screen_name": "boscotung", "time": 1468716531.0, "tid": 754402437579104256, "text": "\"Be watchful, stand firm in the faith, act like men, be strong.\" - 1 Corinthians\u2026 https://t.co/Yp40YPFftR", "created_at": "Sat Jul 16 19:48:51 +0000 2016", "klabel": 26}}, {"geometry": {"type": "Point", "coordinates": [-79.5287577, 43.6487919]}, "type": "Feature", "id": 754436207061430273, "properties": {"loc": [-79.5287577, 43.6487919], "centroid": [-79.22643500715259, 43.744663251634876], "screen_name": "tpscalls", "time": 1468724583.0, "tid": 754436207061430273, "text": "Hazard | Cordova Ave &amp; Dundas St W [22 Div.] 07/16 17:57 #Eatonville #Toronto", "created_at": "Sat Jul 16 22:03:03 +0000 2016", "klabel": 26}}, {"geometry": {"type": "Point", "coordinates": [-79.52422, 43.63586]}, "type": "Feature", "id": 754495607843069952, "properties": {"loc": [-79.52422, 43.63586], "centroid": [-79.22643500715259, 43.744663251634876], "screen_name": "EtobHumaneSoc", "time": 1468738745.0, "tid": 754495607843069952, "text": "Ray is 1 and very distinguished looking. A real gentleman. He was quite accommodating in posing\u2026 https://t.co/v1NVTgbTCm", "created_at": "Sun Jul 17 01:59:05 +0000 2016", "klabel": 26}}, {"geometry": {"type": "Point", "coordinates": [-79.52572712, 43.65173559]}, "type": "Feature", "id": 754498925906661376, "properties": {"loc": [-79.52572712, 43.65173559], "centroid": [-79.22643500715259, 43.744663251634876], "screen_name": "PeterKelly82", "time": 1468739536.0, "tid": 754498925906661376, "text": "Anna putting in the hearth work at montinnto this afternoon @ Montgomery's Inn https://t.co/kSRqBYiXzd", "created_at": "Sun Jul 17 02:12:16 +0000 2016", "klabel": 26}}, {"geometry": {"type": "Point", "coordinates": [-79.538507, 43.641173]}, "type": "Feature", "id": 754638969107845120, "properties": {"loc": [-79.538507, 43.641173], "centroid": [-79.22643500715259, 43.744663251634876], "screen_name": "Lawrie26", "time": 1468772925.0, "tid": 754638969107845120, "text": "our bodies, our canvas @ Tat-a-Rama https://t.co/FGnoPsl2ZH", "created_at": "Sun Jul 17 11:28:45 +0000 2016", "klabel": 26}}, {"geometry": {"type": "Point", "coordinates": [-79.5227562, 43.6453248]}, "type": "Feature", "id": 754645162240860160, "properties": {"loc": [-79.5227562, 43.6453248], "centroid": [-79.22643500715259, 43.744663251634876], "screen_name": "JoinApex", "time": 1468774401.0, "tid": 754645162240860160, "text": "Want to work in #Toronto, Ontario? View our latest opening: https://t.co/QQxMjwSxnt #Job #CustomerService #Jobs #Hiring", "created_at": "Sun Jul 17 11:53:21 +0000 2016", "klabel": 26}}, {"geometry": {"type": "Point", "coordinates": [-79.52422, 43.63586]}, "type": "Feature", "id": 754651632298659841, "properties": {"loc": [-79.52422, 43.63586], "centroid": [-79.22643500715259, 43.744663251634876], "screen_name": "EtobHumaneSoc", "time": 1468775944.0, "tid": 754651632298659841, "text": "Mike, Sky, Atticus and Ryder are special boys who need love and forever homes #dogsofinstagram\u2026 https://t.co/mIYsSAEoZE", "created_at": "Sun Jul 17 12:19:04 +0000 2016", "klabel": 26}}, {"geometry": {"type": "Point", "coordinates": [-79.5333803, 43.64376908]}, "type": "Feature", "id": 754660333680222208, "properties": {"loc": [-79.5333803, 43.64376908], "centroid": [-79.22643500715259, 43.744663251634876], "screen_name": "StJamesGateTO", "time": 1468778019.0, "tid": 754660333680222208, "text": "#sangriasunday #fresh #mango #pineapple #lime #whitewine\n#GateKitchen #Toronto  #etobicoke\u2026 https://t.co/xOa7lFLcS8", "created_at": "Sun Jul 17 12:53:39 +0000 2016", "klabel": 26}}, {"geometry": {"type": "Point", "coordinates": [-79.5361151, 43.6586934]}, "type": "Feature", "id": 754680067284987904, "properties": {"loc": [-79.5361151, 43.6586934], "centroid": [-79.22643500715259, 43.744663251634876], "screen_name": "tpscalls", "time": 1468782723.0, "tid": 754680067284987904, "text": "Animal Comp | Drumoak Rd &amp; Great Oak Dr [22 Div.] 07/17 10:08 #Princess_Rosethorn #Toronto", "created_at": "Sun Jul 17 14:12:03 +0000 2016", "klabel": 26}}, {"geometry": {"type": "Point", "coordinates": [-79.5380531, 43.6401871]}, "type": "Feature", "id": 754716353139920896, "properties": {"loc": [-79.5380531, 43.6401871], "centroid": [-79.22643500715259, 43.744663251634876], "screen_name": "tmj_gta_hrta", "time": 1468791375.0, "tid": 754716353139920896, "text": "This #job might be a great fit for you: Barista (CA) - https://t.co/KkaeVl6rkf #Hospitality 5230 DUNDAS ST W, #TORONTO, ON #Veterans #Hiring", "created_at": "Sun Jul 17 16:36:15 +0000 2016", "klabel": 26}}, {"geometry": {"type": "Point", "coordinates": [-79.5230279, 43.6443806]}, "type": "Feature", "id": 754717327224999936, "properties": {"loc": [-79.5230279, 43.6443806], "centroid": [-79.22643500715259, 43.744663251634876], "screen_name": "OfficeTeamJobs", "time": 1468791607.0, "tid": 754717327224999936, "text": "Want to work in #Etobicoke, ON? View our latest opening: https://t.co/HlT0oW2aLM #Job #OfficeTeam #Jobs #Hiring", "created_at": "Sun Jul 17 16:40:07 +0000 2016", "klabel": 26}}, {"geometry": {"type": "Point", "coordinates": [-79.5255122, 43.6472125]}, "type": "Feature", "id": 754754063166742528, "properties": {"loc": [-79.5255122, 43.6472125], "centroid": [-79.22643500715259, 43.744663251634876], "screen_name": "tofire", "time": 1468800365.0, "tid": 754754063166742528, "text": "Medical (Trouble Breathing) - Mabelle Avenue b/w Cordova Avenue / Dundas St West, Etobicoke (2 Trucks)", "created_at": "Sun Jul 17 19:06:05 +0000 2016", "klabel": 26}}, {"geometry": {"type": "Point", "coordinates": [-79.53555556, 43.63758333]}, "type": "Feature", "id": 754783856042082305, "properties": {"loc": [-79.53555556, 43.63758333], "centroid": [-79.22643500715259, 43.744663251634876], "screen_name": "juenology", "time": 1468807469.0, "tid": 754783856042082305, "text": "On our way to Iceland \ud83c\udf8e @ Kipling (TTC) https://t.co/q5fIwLOpRm", "created_at": "Sun Jul 17 21:04:29 +0000 2016", "klabel": 26}}, {"geometry": {"type": "Point", "coordinates": [-79.53663128, 43.63945797]}, "type": "Feature", "id": 754789197454700546, "properties": {"loc": [-79.53663128, 43.63945797], "centroid": [-79.22643500715259, 43.744663251634876], "screen_name": "NidiaBeco", "time": 1468808742.0, "tid": 754789197454700546, "text": "#tbt a aquella delicia de #PanagoPizza, que cay\u00f3 como perlas una media noche en Toronto. @\u2026 https://t.co/xRWv8Bhtzw", "created_at": "Sun Jul 17 21:25:42 +0000 2016", "klabel": 26}}, {"geometry": {"type": "Point", "coordinates": [-79.52422, 43.63586]}, "type": "Feature", "id": 754807785364217857, "properties": {"loc": [-79.52422, 43.63586], "centroid": [-79.22643500715259, 43.744663251634876], "screen_name": "EtobHumaneSoc", "time": 1468813174.0, "tid": 754807785364217857, "text": "Izzy, Gerda &amp; Jeffrey are 3 month old kittens who are still a little shy but with the right\u2026 https://t.co/PKU6N4C35I", "created_at": "Sun Jul 17 22:39:34 +0000 2016", "klabel": 26}}, {"geometry": {"type": "Point", "coordinates": [-79.52866, 43.64848]}, "type": "Feature", "id": 754998701332901888, "properties": {"loc": [-79.52866, 43.64848], "centroid": [-79.22643500715259, 43.744663251634876], "screen_name": "SixthStreetPub", "time": 1468858692.0, "tid": 754998701332901888, "text": "Today's Soup: Carrot and Dark Ale \ud83c\udf7b#torontofoodie #torontofood #the6ix #6thstreet #blogto\u2026 https://t.co/PbRyIAWfW6", "created_at": "Mon Jul 18 11:18:12 +0000 2016", "klabel": 26}}, {"geometry": {"type": "Point", "coordinates": [-79.53555556, 43.63758333]}, "type": "Feature", "id": 755021021095333889, "properties": {"loc": [-79.53555556, 43.63758333], "centroid": [-79.22643500715259, 43.744663251634876], "screen_name": "michaeldharvie", "time": 1468864013.0, "tid": 755021021095333889, "text": "#overpass in #the6ix @ Kipling (TTC) https://t.co/CjNXPKrBoo", "created_at": "Mon Jul 18 12:46:53 +0000 2016", "klabel": 26}}, {"geometry": {"type": "Point", "coordinates": [-79.5255122, 43.6472125]}, "type": "Feature", "id": 755165519674826752, "properties": {"loc": [-79.5255122, 43.6472125], "centroid": [-79.22643500715259, 43.744663251634876], "screen_name": "tofireW", "time": 1468898464.0, "tid": 755165519674826752, "text": "Medical (Chest Pains) - Mabelle Avenue b/w Cordova Avenue / Dundas St West, Etobicoke (2 Trucks)", "created_at": "Mon Jul 18 22:21:04 +0000 2016", "klabel": 26}}, {"geometry": {"type": "Point", "coordinates": [-79.5255122, 43.6472125]}, "type": "Feature", "id": 755165518663970816, "properties": {"loc": [-79.5255122, 43.6472125], "centroid": [-79.22643500715259, 43.744663251634876], "screen_name": "tofire", "time": 1468898464.0, "tid": 755165518663970816, "text": "Medical (Chest Pains) - Mabelle Avenue b/w Cordova Avenue / Dundas St West, Etobicoke (2 Trucks)", "created_at": "Mon Jul 18 22:21:04 +0000 2016", "klabel": 26}}, {"geometry": {"type": "Point", "coordinates": [-79.5227562, 43.6453248]}, "type": "Feature", "id": 755185105291792384, "properties": {"loc": [-79.5227562, 43.6453248], "centroid": [-79.22643500715259, 43.744663251634876], "screen_name": "JoinApex", "time": 1468903134.0, "tid": 755185105291792384, "text": "Join the Apex Systems team! See our latest #job opening here: https://t.co/QQxMjwSxnt #CustomerService #Toronto, Ontario #Hiring", "created_at": "Mon Jul 18 23:38:54 +0000 2016", "klabel": 26}}, {"geometry": {"type": "Point", "coordinates": [-79.5287577, 43.6487919]}, "type": "Feature", "id": 755275745153482757, "properties": {"loc": [-79.5287577, 43.6487919], "centroid": [-79.22643500715259, 43.744663251634876], "screen_name": "tpscalls", "time": 1468924744.0, "tid": 755275745153482757, "text": "Disorderlies | Cordova Ave &amp; Dundas St W [22 Div.] 07/19 01:35 #Eatonville #Toronto", "created_at": "Tue Jul 19 05:39:04 +0000 2016", "klabel": 26}}, {"geometry": {"type": "Point", "coordinates": [-79.54463355, 43.65577747]}, "type": "Feature", "id": 755358709010882560, "properties": {"loc": [-79.54463355, 43.65577747], "centroid": [-79.22643500715259, 43.744663251634876], "screen_name": "GHills6", "time": 1468944524.0, "tid": 755358709010882560, "text": "Why does #Jays GM Ross Atkins even bother to talk? He should just where a sign as he follows Shapiro around, \"What He Said!\"", "created_at": "Tue Jul 19 11:08:44 +0000 2016", "klabel": 26}}, {"geometry": {"type": "Point", "coordinates": [-79.5388412, 43.6445746]}, "type": "Feature", "id": 755462975100715008, "properties": {"loc": [-79.5388412, 43.6445746], "centroid": [-79.22643500715259, 43.744663251634876], "screen_name": "tpscalls", "time": 1468969383.0, "tid": 755462975100715008, "text": "Break &amp; Enter | Mervyn Ave &amp; Tyre Ave [22 Div.] 07/19 13:59 #Eatonville #Toronto", "created_at": "Tue Jul 19 18:03:03 +0000 2016", "klabel": 26}}, {"geometry": {"type": "Point", "coordinates": [-79.52835, 43.62981]}, "type": "Feature", "id": 755553609320923136, "properties": {"loc": [-79.52835, 43.62981], "centroid": [-79.22643500715259, 43.744663251634876], "screen_name": "d_j_not", "time": 1468990992.0, "tid": 755553609320923136, "text": "On-set recreation of a historical text by noted misogynist, intolerant nutcase &amp; #Reign villain\u2026 https://t.co/ARrDPSrK8a", "created_at": "Wed Jul 20 00:03:12 +0000 2016", "klabel": 26}}, {"geometry": {"type": "Point", "coordinates": [-79.52012, 43.64539]}, "type": "Feature", "id": 755748989786546176, "properties": {"loc": [-79.52012, 43.64539], "centroid": [-79.22643500715259, 43.744663251634876], "screen_name": "edge_ucc", "time": 1469037574.0, "tid": 755748989786546176, "text": "We have some new staff here at the EDGE office. #uccan @ The United Church of Canada https://t.co/SMiJqlZ0JL", "created_at": "Wed Jul 20 12:59:34 +0000 2016", "klabel": 26}}, {"geometry": {"type": "Point", "coordinates": [-79.5409349, 43.6441026]}, "type": "Feature", "id": 755855060316332032, "properties": {"loc": [-79.5409349, 43.6441026], "centroid": [-79.22643500715259, 43.744663251634876], "screen_name": "tpscalls", "time": 1469062864.0, "tid": 755855060316332032, "text": "Missing Elderly | Botfield Ave &amp; Jopling Ave N [22 Div.] 07/20 15:54 #Islington_City_Centre_West #Toronto", "created_at": "Wed Jul 20 20:01:04 +0000 2016", "klabel": 26}}, {"geometry": {"type": "Point", "coordinates": [-79.53310151, 43.63719559]}, "type": "Feature", "id": 755866863935037440, "properties": {"loc": [-79.53310151, 43.63719559], "centroid": [-79.22643500715259, 43.744663251634876], "screen_name": "mingazutdinova2", "time": 1469065678.0, "tid": 755866863935037440, "text": "I'm at Etobicoke, Ontario in Etobicoke, ON, ON https://t.co/Ov7EPrrGsM", "created_at": "Wed Jul 20 20:47:58 +0000 2016", "klabel": 26}}, {"geometry": {"type": "Point", "coordinates": [-79.53522, 43.6475653]}, "type": "Feature", "id": 755876447361925120, "properties": {"loc": [-79.53522, 43.6475653], "centroid": [-79.22643500715259, 43.744663251634876], "screen_name": "tofire", "time": 1469067963.0, "tid": 755876447361925120, "text": "Alarm Residential - Mattice Road b/w Royalavon Crescent / Kipling Avenue, Etobicoke (6 Trucks)", "created_at": "Wed Jul 20 21:26:03 +0000 2016", "klabel": 26}}, {"geometry": {"type": "Point", "coordinates": [-79.53522, 43.6475653]}, "type": "Feature", "id": 755876448242663425, "properties": {"loc": [-79.53522, 43.6475653], "centroid": [-79.22643500715259, 43.744663251634876], "screen_name": "tofireW", "time": 1469067963.0, "tid": 755876448242663425, "text": "Alarm Residential - Mattice Road b/w Royalavon Crescent / Kipling Avenue, Etobicoke (6 Trucks)", "created_at": "Wed Jul 20 21:26:03 +0000 2016", "klabel": 26}}, {"geometry": {"type": "Point", "coordinates": [-79.52866, 43.64848]}, "type": "Feature", "id": 756084047810596864, "properties": {"loc": [-79.52866, 43.64848], "centroid": [-79.22643500715259, 43.744663251634876], "screen_name": "SixthStreetPub", "time": 1469117459.0, "tid": 756084047810596864, "text": "A Burrito a Day Keeps the Doctor Away \ud83c\udf2f\ud83d\ude4b #torontofoodie #torontofood #torontoeats #torontolife\u2026 https://t.co/q0zqzeQzSL", "created_at": "Thu Jul 21 11:10:59 +0000 2016", "klabel": 26}}, {"geometry": {"type": "Point", "coordinates": [-79.5421985, 43.64024]}, "type": "Feature", "id": 756127600729260032, "properties": {"loc": [-79.5421985, 43.64024], "centroid": [-79.22643500715259, 43.744663251634876], "screen_name": "tpscalls", "time": 1469127842.0, "tid": 756127600729260032, "text": "Fire | Bloor St W &amp; Ashbourne Dr [22 Div.] 07/21 09:58 #Eatonville #Toronto", "created_at": "Thu Jul 21 14:04:02 +0000 2016", "klabel": 26}}, {"geometry": {"type": "Point", "coordinates": [-79.5263871, 43.6514069]}, "type": "Feature", "id": 756155537067237376, "properties": {"loc": [-79.5263871, 43.6514069], "centroid": [-79.22643500715259, 43.744663251634876], "screen_name": "tpscalls", "time": 1469134503.0, "tid": 756155537067237376, "text": "Property Damage Collision | Islington Ave &amp; Dundas St W [HP] 07/21 11:50 #Princess_Rosethorn #Toronto", "created_at": "Thu Jul 21 15:55:03 +0000 2016", "klabel": 26}}, {"geometry": {"type": "Point", "coordinates": [-79.53034442, 43.6433561]}, "type": "Feature", "id": 756171369503723520, "properties": {"loc": [-79.53034442, 43.6433561], "centroid": [-79.22643500715259, 43.744663251634876], "screen_name": "ArepaRepublic", "time": 1469138278.0, "tid": 756171369503723520, "text": "@FoodTrucknFri is turning 20! Let's give them a round of applause for such a great job!!! We'll\u2026 https://t.co/c0LdQXAe7o", "created_at": "Thu Jul 21 16:57:58 +0000 2016", "klabel": 26}}, {"geometry": {"type": "Point", "coordinates": [-79.51961879, 43.63435273]}, "type": "Feature", "id": 756181921584021505, "properties": {"loc": [-79.51961879, 43.63435273], "centroid": [-79.22643500715259, 43.744663251634876], "screen_name": "antonellaDRB", "time": 1469140793.0, "tid": 756181921584021505, "text": "Reflect on that.\nIs it possible for everyone to like you?\n\n#leonardodicaprio #deepthought\u2026 https://t.co/PubPWq3DeM", "created_at": "Thu Jul 21 17:39:53 +0000 2016", "klabel": 26}}, {"geometry": {"type": "Point", "coordinates": [-79.52422, 43.63586]}, "type": "Feature", "id": 756183491323232256, "properties": {"loc": [-79.52422, 43.63586], "centroid": [-79.22643500715259, 43.744663251634876], "screen_name": "EtobHumaneSoc", "time": 1469141168.0, "tid": 756183491323232256, "text": "Maya is 9 and loves cuddles. #dogsofinstagram #rescuedogs #rescuedogsofinstagram #adoptdontshop\u2026 https://t.co/XkWgHiL2Zo", "created_at": "Thu Jul 21 17:46:08 +0000 2016", "klabel": 26}}, {"geometry": {"type": "Point", "coordinates": [-79.5185213, 43.6376327]}, "type": "Feature", "id": 756185989400391681, "properties": {"loc": [-79.5185213, 43.6376327], "centroid": [-79.22643500715259, 43.744663251634876], "screen_name": "tofire", "time": 1469141763.0, "tid": 756185989400391681, "text": "Fire (Grass/rubbish) - Cardigan Road b/w Lothian Avenue / Saybrook Avenue, Etobicoke (2 Trucks)", "created_at": "Thu Jul 21 17:56:03 +0000 2016", "klabel": 26}}, {"geometry": {"type": "Point", "coordinates": [-79.52258274, 43.64520943]}, "type": "Feature", "id": 756285923344654336, "properties": {"loc": [-79.52258274, 43.64520943], "centroid": [-79.22643500715259, 43.744663251634876], "screen_name": "AlexCarroni", "time": 1469165589.0, "tid": 756285923344654336, "text": "Haha cramming because no, I did not wake up with determination\u2026 https://t.co/p613F31nkG", "created_at": "Fri Jul 22 00:33:09 +0000 2016", "klabel": 26}}, {"geometry": {"type": "Point", "coordinates": [-79.52531701, 43.63270493]}, "type": "Feature", "id": 756313492295221250, "properties": {"loc": [-79.52531701, 43.63270493], "centroid": [-79.22643500715259, 43.744663251634876], "screen_name": "Travelling_Liz", "time": 1469172162.0, "tid": 756313492295221250, "text": "I'm definitely committed! Tonight I managed to 'pull' off another intense workout! My trainer\u2026 https://t.co/nh3ipGVxkT", "created_at": "Fri Jul 22 02:22:42 +0000 2016", "klabel": 26}}, {"geometry": {"type": "Point", "coordinates": [-79.53123807, 43.64525011]}, "type": "Feature", "id": 756329872583233536, "properties": {"loc": [-79.53123807, 43.64525011], "centroid": [-79.22643500715259, 43.744663251634876], "screen_name": "djfrasskid28", "time": 1469176068.0, "tid": 756329872583233536, "text": "Time to make it right bro!! @ Michael Power Park https://t.co/sfHPWBvJd5", "created_at": "Fri Jul 22 03:27:48 +0000 2016", "klabel": 26}}, {"geometry": {"type": "Point", "coordinates": [-79.5333939, 43.6474743]}, "type": "Feature", "id": 756408450364702720, "properties": {"loc": [-79.5333939, 43.6474743], "centroid": [-79.22643500715259, 43.744663251634876], "screen_name": "tpscalls", "time": 1469194802.0, "tid": 756408450364702720, "text": "Assault Just Occurred | Mabelle Ave &amp; Avonhurst Rd [22 Div.] 07/22 04:35 #Eatonville #Toronto", "created_at": "Fri Jul 22 08:40:02 +0000 2016", "klabel": 26}}, {"geometry": {"type": "Point", "coordinates": [-79.5380531, 43.6401871]}, "type": "Feature", "id": 756507059739168768, "properties": {"loc": [-79.5380531, 43.6401871], "centroid": [-79.22643500715259, 43.744663251634876], "screen_name": "tmj_gta_hrta", "time": 1469218312.0, "tid": 756507059739168768, "text": "Join the Starbucks team! See our latest #job opening here: https://t.co/JcNZhznoBj #Hospitality 5230 DUNDAS ST W, #TORONTO, ON #Veterans", "created_at": "Fri Jul 22 15:11:52 +0000 2016", "klabel": 26}}, {"geometry": {"type": "Point", "coordinates": [-79.5234904, 43.6445871]}, "type": "Feature", "id": 756522455863332864, "properties": {"loc": [-79.5234904, 43.6445871], "centroid": [-79.22643500715259, 43.744663251634876], "screen_name": "tpscalls", "time": 1469221983.0, "tid": 756522455863332864, "text": "Animal Comp | Islington Ave &amp; Bloor St W [22 Div.] 07/22 12:08 #Islington_City_Centre_West #Toronto", "created_at": "Fri Jul 22 16:13:03 +0000 2016", "klabel": 26}}, {"geometry": {"type": "Point", "coordinates": [-79.5333803, 43.64376908]}, "type": "Feature", "id": 756526763367432192, "properties": {"loc": [-79.5333803, 43.64376908], "centroid": [-79.22643500715259, 43.744663251634876], "screen_name": "Cheoffrey", "time": 1469223010.0, "tid": 756526763367432192, "text": "Guinness #braised #lambshank #naturaljus #irishchamp #redcabbage #cheoffeats #classic\u2026 https://t.co/y2BMwBSZjM", "created_at": "Fri Jul 22 16:30:10 +0000 2016", "klabel": 26}}, {"geometry": {"type": "Point", "coordinates": [-79.52835307, 43.62986664]}, "type": "Feature", "id": 756548732703956996, "properties": {"loc": [-79.52835307, 43.62986664], "centroid": [-79.22643500715259, 43.744663251634876], "screen_name": "TheOneTrueDave", "time": 1469228248.0, "tid": 756548732703956996, "text": "I'm at Cinespace Studios in Toronto, ON https://t.co/xsTufnQPmx", "created_at": "Fri Jul 22 17:57:28 +0000 2016", "klabel": 26}}, {"geometry": {"type": "Point", "coordinates": [-79.52365754, 43.64433129]}, "type": "Feature", "id": 756554812146249728, "properties": {"loc": [-79.52365754, 43.64433129], "centroid": [-79.22643500715259, 43.744663251634876], "screen_name": "DH_Group", "time": 1469229697.0, "tid": 756554812146249728, "text": "Great way to finish up the week! Thanks Colgate for the samples, can't wait to share them with\u2026 https://t.co/biAIIAHuMr", "created_at": "Fri Jul 22 18:21:37 +0000 2016", "klabel": 26}}, {"geometry": {"type": "Point", "coordinates": [-79.5378148, 43.638135]}, "type": "Feature", "id": 756556037809840128, "properties": {"loc": [-79.5378148, 43.638135], "centroid": [-79.22643500715259, 43.744663251634876], "screen_name": "tmj_gta_hrta", "time": 1469229990.0, "tid": 756556037809840128, "text": "Can you recommend anyone for this #job? https://t.co/azvVUkIN3b #Hospitality #Veterans #Hiring #CareerArc", "created_at": "Fri Jul 22 18:26:30 +0000 2016", "klabel": 26}}, {"geometry": {"type": "Point", "coordinates": [-79.5256655, 43.6442379]}, "type": "Feature", "id": 756563232052092932, "properties": {"loc": [-79.5256655, 43.6442379], "centroid": [-79.22643500715259, 43.744663251634876], "screen_name": "tofire", "time": 1469231705.0, "tid": 756563232052092932, "text": "Fire (Grass/rubbish) - Bloor St b/w Green Lanes / C P R, Etobicoke (2 Trucks)", "created_at": "Fri Jul 22 18:55:05 +0000 2016", "klabel": 26}}, {"geometry": {"type": "Point", "coordinates": [-79.525605, 43.6613106]}, "type": "Feature", "id": 756568520926855168, "properties": {"loc": [-79.525605, 43.6613106], "centroid": [-79.22643500715259, 43.744663251634876], "screen_name": "tofireW", "time": 1469232966.0, "tid": 756568520926855168, "text": "Carbon Monoxide (Non Medical) - Hilldowntree Road b/w Wimbleton Road / Wimbleton Crescent, Etobicoke (2 Trucks)", "created_at": "Fri Jul 22 19:16:06 +0000 2016", "klabel": 26}}, {"geometry": {"type": "Point", "coordinates": [-79.5224953, 43.6451848]}, "type": "Feature", "id": 756581992842403840, "properties": {"loc": [-79.5224953, 43.6451848], "centroid": [-79.22643500715259, 43.744663251634876], "screen_name": "tmj_gta_hrta", "time": 1469236178.0, "tid": 756581992842403840, "text": "If you're looking for work in , check out this #job: https://t.co/jYYIU29Xpp #Hospitality #Veterans #Hiring #CareerArc", "created_at": "Fri Jul 22 20:09:38 +0000 2016", "klabel": 26}}, {"geometry": {"type": "Point", "coordinates": [-79.5224953, 43.6451848]}, "type": "Feature", "id": 756583512107462656, "properties": {"loc": [-79.5224953, 43.6451848], "centroid": [-79.22643500715259, 43.744663251634876], "screen_name": "tmj_gta_hrta", "time": 1469236540.0, "tid": 756583512107462656, "text": "If you're looking for work in , check out this #job: https://t.co/uJYEzC7Ivw #Hospitality #Veterans #Hiring #CareerArc", "created_at": "Fri Jul 22 20:15:40 +0000 2016", "klabel": 26}}, {"geometry": {"type": "Point", "coordinates": [-79.5230279, 43.6443806]}, "type": "Feature", "id": 756583645087932416, "properties": {"loc": [-79.5230279, 43.6443806], "centroid": [-79.22643500715259, 43.744663251634876], "screen_name": "tmj_on_jobs", "time": 1469236572.0, "tid": 756583645087932416, "text": "If you're looking for work in #Etobicoke, ON, check out this #job: https://t.co/yJCK5TcZSQ #Clerical #Hiring #CareerArc", "created_at": "Fri Jul 22 20:16:12 +0000 2016", "klabel": 26}}, {"geometry": {"type": "Point", "coordinates": [-79.530713, 43.643707]}, "type": "Feature", "id": 756594970929291264, "properties": {"loc": [-79.530713, 43.643707], "centroid": [-79.22643500715259, 43.744663251634876], "screen_name": "ChebabyTO", "time": 1469239272.0, "tid": 756594970929291264, "text": "COME VISIT CHORIPANNNNNNN AT @FoodTrucknFri !! 430-930 #foodtrucksto @ Resurrection Church https://t.co/7pogjov45J", "created_at": "Fri Jul 22 21:01:12 +0000 2016", "klabel": 26}}, {"geometry": {"type": "Point", "coordinates": [-79.53133, 43.64375]}, "type": "Feature", "id": 756643505993289728, "properties": {"loc": [-79.53133, 43.64375], "centroid": [-79.22643500715259, 43.744663251634876], "screen_name": "Erin_Tommy", "time": 1469250844.0, "tid": 756643505993289728, "text": "Checking out some awesome Food Trucks @ Food Truck' n Fridays https://t.co/qKRg68AiHW", "created_at": "Sat Jul 23 00:14:04 +0000 2016", "klabel": 26}}, {"geometry": {"type": "Point", "coordinates": [-79.52531701, 43.63270493]}, "type": "Feature", "id": 756658712241180672, "properties": {"loc": [-79.52531701, 43.63270493], "centroid": [-79.22643500715259, 43.744663251634876], "screen_name": "Travelling_Liz", "time": 1469254469.0, "tid": 756658712241180672, "text": "You can say that right! Feeling fantastic after my 'push' it real good workout! It's sizzling\u2026 https://t.co/jbIyMupWL5", "created_at": "Sat Jul 23 01:14:29 +0000 2016", "klabel": 26}}, {"geometry": {"type": "Point", "coordinates": [-79.53133, 43.64375]}, "type": "Feature", "id": 756661417680461824, "properties": {"loc": [-79.53133, 43.64375], "centroid": [-79.22643500715259, 43.744663251634876], "screen_name": "Erin_Tommy", "time": 1469255114.0, "tid": 756661417680461824, "text": "We love Horchata's @ Food Truck' n Fridays https://t.co/BN9vhFacRk", "created_at": "Sat Jul 23 01:25:14 +0000 2016", "klabel": 26}}, {"geometry": {"type": "Point", "coordinates": [-79.54075604, 43.6358973]}, "type": "Feature", "id": 756904283849777152, "properties": {"loc": [-79.54075604, 43.6358973], "centroid": [-79.22643500715259, 43.744663251634876], "screen_name": "tastofthailand", "time": 1469313018.0, "tid": 756904283849777152, "text": "Catering order : Fresh roll #healthyfoodshare #summertime #tasteofthailandcuisine #thaifoods\u2026 https://t.co/uEVbHxXZvO", "created_at": "Sat Jul 23 17:30:18 +0000 2016", "klabel": 26}}, {"geometry": {"type": "Point", "coordinates": [-79.54075604, 43.6358973]}, "type": "Feature", "id": 756904669310582785, "properties": {"loc": [-79.54075604, 43.6358973], "centroid": [-79.22643500715259, 43.744663251634876], "screen_name": "tastofthailand", "time": 1469313110.0, "tid": 756904669310582785, "text": "Catering order : Fresh roll #healthyfoodshare #summertime #clean-food #tasteofthailandcuisine\u2026 https://t.co/N6apuE53ns", "created_at": "Sat Jul 23 17:31:50 +0000 2016", "klabel": 26}}, {"geometry": {"type": "Point", "coordinates": [-79.52422, 43.63586]}, "type": "Feature", "id": 756905412679507968, "properties": {"loc": [-79.52422, 43.63586], "centroid": [-79.22643500715259, 43.744663251634876], "screen_name": "EtobHumaneSoc", "time": 1469313287.0, "tid": 756905412679507968, "text": "Sweet Maya has such expressive eyes. #dogsofinstagram #rescuedogs #rescuedogsofinstagram\u2026 https://t.co/OVJnsvV2xF", "created_at": "Sat Jul 23 17:34:47 +0000 2016", "klabel": 26}}, {"geometry": {"type": "Point", "coordinates": [-79.5245501, 43.6443757]}, "type": "Feature", "id": 756938456102830080, "properties": {"loc": [-79.5245501, 43.6443757], "centroid": [-79.22643500715259, 43.744663251634876], "screen_name": "tofireW", "time": 1469321165.0, "tid": 756938456102830080, "text": "Fire (Grass/rubbish) - Bloor St b/w Clissold Road / Green Lanes, Etobicoke (2 Trucks)", "created_at": "Sat Jul 23 19:46:05 +0000 2016", "klabel": 26}}, {"geometry": {"type": "Point", "coordinates": [-79.5245501, 43.6443757]}, "type": "Feature", "id": 756938456933302273, "properties": {"loc": [-79.5245501, 43.6443757], "centroid": [-79.22643500715259, 43.744663251634876], "screen_name": "tofiref", "time": 1469321166.0, "tid": 756938456933302273, "text": "Fire (Grass/rubbish) - Bloor St b/w Clissold Road / Green Lanes, Etobicoke (2 Trucks)", "created_at": "Sat Jul 23 19:46:06 +0000 2016", "klabel": 26}}, {"geometry": {"type": "Point", "coordinates": [-79.52422, 43.63586]}, "type": "Feature", "id": 756971150492651520, "properties": {"loc": [-79.52422, 43.63586], "centroid": [-79.22643500715259, 43.744663251634876], "screen_name": "EtobHumaneSoc", "time": 1469328960.0, "tid": 756971150492651520, "text": "Kitten at play. Sweet kittens need homes. Come by and see the kitties we have. Contact\u2026 https://t.co/1E2eZG3wEL", "created_at": "Sat Jul 23 21:56:00 +0000 2016", "klabel": 26}}, {"geometry": {"type": "Point", "coordinates": [-79.53359, 43.64389]}, "type": "Feature", "id": 757186661679783936, "properties": {"loc": [-79.53359, 43.64389], "centroid": [-79.22643500715259, 43.744663251634876], "screen_name": "StJamesGateTO", "time": 1469380342.0, "tid": 757186661679783936, "text": "#sangriasunday \nFresh #berry and mint sangria \n@stjamesgateTO #Toronto #Etobicoke #cocktail\u2026 https://t.co/6ZDIA3AJSa", "created_at": "Sun Jul 24 12:12:22 +0000 2016", "klabel": 26}}, {"geometry": {"type": "Point", "coordinates": [-79.53834, 43.6590791]}, "type": "Feature", "id": 757347643311915008, "properties": {"loc": [-79.53834, 43.6590791], "centroid": [-79.22643500715259, 43.744663251634876], "screen_name": "tpscalls", "time": 1469418723.0, "tid": 757347643311915008, "text": "Dispute | Cedarland Dr &amp; Remington Dr [22 Div.] 07/24 18:46 #Princess_Rosethorn #Toronto", "created_at": "Sun Jul 24 22:52:03 +0000 2016", "klabel": 26}}, {"geometry": {"type": "Point", "coordinates": [-79.52422, 43.63586]}, "type": "Feature", "id": 757543463688638464, "properties": {"loc": [-79.52422, 43.63586], "centroid": [-79.22643500715259, 43.744663251634876], "screen_name": "EtobHumaneSoc", "time": 1469465410.0, "tid": 757543463688638464, "text": "Spartacus had so much to tell me when I visited him. He was quite chatty. Mostly he asked if I\u2026 https://t.co/AAP7umaORK", "created_at": "Mon Jul 25 11:50:10 +0000 2016", "klabel": 26}}, {"geometry": {"type": "Point", "coordinates": [-79.535199, 43.642309]}, "type": "Feature", "id": 757594516635447296, "properties": {"loc": [-79.535199, 43.642309], "centroid": [-79.22643500715259, 43.744663251634876], "screen_name": "tpscalls", "time": 1469477582.0, "tid": 757594516635447296, "text": "Hazard | Dundas St W &amp; Kipling Ave [22 Div.] 07/25 11:07 #Islington_City_Centre_West #Toronto", "created_at": "Mon Jul 25 15:13:02 +0000 2016", "klabel": 26}}, {"geometry": {"type": "Point", "coordinates": [-79.53359, 43.64389]}, "type": "Feature", "id": 757625069170520064, "properties": {"loc": [-79.53359, 43.64389], "centroid": [-79.22643500715259, 43.744663251634876], "screen_name": "Cheoffrey", "time": 1469484867.0, "tid": 757625069170520064, "text": "#oldschool #texmex #choppedsalad #cheoffeats #truecooks #gatekitchen #summereats #eathealthy\u2026 https://t.co/WURzqbHCIl", "created_at": "Mon Jul 25 17:14:27 +0000 2016", "klabel": 26}}, {"geometry": {"type": "Point", "coordinates": [-79.53884871, 43.63824077]}, "type": "Feature", "id": 757950762886557696, "properties": {"loc": [-79.53884871, 43.63824077], "centroid": [-79.22643500715259, 43.744663251634876], "screen_name": "anna_lytical", "time": 1469562518.0, "tid": 757950762886557696, "text": "I'm at @TimHortons / Wendy's in Toronto, ON https://t.co/KubuBVO3Xx", "created_at": "Tue Jul 26 14:48:38 +0000 2016", "klabel": 26}}, {"geometry": {"type": "Point", "coordinates": [-79.5287577, 43.6487919]}, "type": "Feature", "id": 757982576732758021, "properties": {"loc": [-79.5287577, 43.6487919], "centroid": [-79.22643500715259, 43.744663251634876], "screen_name": "tpscalls", "time": 1469570103.0, "tid": 757982576732758021, "text": "Assault Just Occurred | Burnhamthorpe Cres &amp; Cordova Ave [22 Div.] 07/26 12:48 #Islington_City_Centre_West #Toronto", "created_at": "Tue Jul 26 16:55:03 +0000 2016", "klabel": 26}}, {"geometry": {"type": "Point", "coordinates": [-79.5210089, 43.6453751]}, "type": "Feature", "id": 758040387944640512, "properties": {"loc": [-79.5210089, 43.6453751], "centroid": [-79.22643500715259, 43.744663251634876], "screen_name": "dr_mayers", "time": 1469583886.0, "tid": 758040387944640512, "text": "If YOU can't see our sign then you need to come see us! \ud83d\udc40\ud83d\udc53 @ Bloor Islington Optometry https://t.co/CnKUXS8PV9", "created_at": "Tue Jul 26 20:44:46 +0000 2016", "klabel": 26}}, {"geometry": {"type": "Point", "coordinates": [-79.5237656, 43.6426431]}, "type": "Feature", "id": 758129038527459330, "properties": {"loc": [-79.5237656, 43.6426431], "centroid": [-79.22643500715259, 43.744663251634876], "screen_name": "tpscalls", "time": 1469605022.0, "tid": 758129038527459330, "text": "See Ambulance | Islington Ave &amp; Clissold Rd [22 Div.] 07/26 22:31 #Islington_City_Centre_West #Toronto", "created_at": "Wed Jul 27 02:37:02 +0000 2016", "klabel": 26}}, {"geometry": {"type": "Point", "coordinates": [-79.5287577, 43.6487919]}, "type": "Feature", "id": 758346472643563520, "properties": {"loc": [-79.5287577, 43.6487919], "centroid": [-79.22643500715259, 43.744663251634876], "screen_name": "tpscalls", "time": 1469656863.0, "tid": 758346472643563520, "text": "Unknown Trouble | Cordova Ave &amp; Dundas St W [22 Div.] 07/27 12:54 #Eatonville #Toronto", "created_at": "Wed Jul 27 17:01:03 +0000 2016", "klabel": 26}}, {"geometry": {"type": "Point", "coordinates": [-79.545106, 43.6497325]}, "type": "Feature", "id": 758349497303007233, "properties": {"loc": [-79.545106, 43.6497325], "centroid": [-79.22643500715259, 43.744663251634876], "screen_name": "tpscalls", "time": 1469657584.0, "tid": 758349497303007233, "text": "Property Damage Collision | Burnhamthorpe Rd &amp; Lorraine Gdns [2GRP] 07/27 13:08 #Islington_City_Centre_West #Toronto", "created_at": "Wed Jul 27 17:13:04 +0000 2016", "klabel": 26}}, {"geometry": {"type": "Point", "coordinates": [-79.5264678, 43.6431073]}, "type": "Feature", "id": 758358821165293568, "properties": {"loc": [-79.5264678, 43.6431073], "centroid": [-79.22643500715259, 43.744663251634876], "screen_name": "tofire", "time": 1469659807.0, "tid": 758358821165293568, "text": "Alarm Highrise Residential - Fieldway Road b/w Kenway Road / Carysfort Road, Etobicoke (6 Trucks)", "created_at": "Wed Jul 27 17:50:07 +0000 2016", "klabel": 26}}, {"geometry": {"type": "Point", "coordinates": [-79.5264678, 43.6431073]}, "type": "Feature", "id": 758358822188703744, "properties": {"loc": [-79.5264678, 43.6431073], "centroid": [-79.22643500715259, 43.744663251634876], "screen_name": "tofireW", "time": 1469659807.0, "tid": 758358822188703744, "text": "Alarm Highrise Residential - Fieldway Road b/w Kenway Road / Carysfort Road, Etobicoke (6 Trucks)", "created_at": "Wed Jul 27 17:50:07 +0000 2016", "klabel": 26}}, {"geometry": {"type": "Point", "coordinates": [-79.51961879, 43.63435273]}, "type": "Feature", "id": 758367861496684544, "properties": {"loc": [-79.51961879, 43.63435273], "centroid": [-79.22643500715259, 43.744663251634876], "screen_name": "antonellaDRB", "time": 1469661962.0, "tid": 758367861496684544, "text": "Left side.\u2764\ufe0f\n\n#pink #ilovemylife #leftside #selflove  #antonelladrb #heart #divineradiantbeauty\u2026 https://t.co/K3xLrTXlcl", "created_at": "Wed Jul 27 18:26:02 +0000 2016", "klabel": 26}}, {"geometry": {"type": "Point", "coordinates": [-79.5323309, 43.64008188]}, "type": "Feature", "id": 758422679200333825, "properties": {"loc": [-79.5323309, 43.64008188], "centroid": [-79.22643500715259, 43.744663251634876], "screen_name": "whosjayden", "time": 1469675032.0, "tid": 758422679200333825, "text": "wyd fam\ud83c\udfad @ Kipling Subway Stn https://t.co/UGuKSMfMPO", "created_at": "Wed Jul 27 22:03:52 +0000 2016", "klabel": 26}}, {"geometry": {"type": "Point", "coordinates": [-79.5287577, 43.6487919]}, "type": "Feature", "id": 758437072629792769, "properties": {"loc": [-79.5287577, 43.6487919], "centroid": [-79.22643500715259, 43.744663251634876], "screen_name": "tpscalls", "time": 1469678463.0, "tid": 758437072629792769, "text": "Person With A Knife | Cordova Ave &amp; Dundas St W [22 Div.] 07/27 18:56 #Eatonville #Toronto", "created_at": "Wed Jul 27 23:01:03 +0000 2016", "klabel": 26}}, {"geometry": {"type": "Point", "coordinates": [-79.5287577, 43.6487919]}, "type": "Feature", "id": 758466265455456256, "properties": {"loc": [-79.5287577, 43.6487919], "centroid": [-79.22643500715259, 43.744663251634876], "screen_name": "tpscalls", "time": 1469685423.0, "tid": 758466265455456256, "text": "Unknown Trouble | Cordova Ave &amp; Dundas St W [22 Div.] 07/27 20:51 #Eatonville #Toronto", "created_at": "Thu Jul 28 00:57:03 +0000 2016", "klabel": 26}}, {"geometry": {"type": "Point", "coordinates": [-79.5248643, 43.631869]}, "type": "Feature", "id": 758631624565108743, "properties": {"loc": [-79.5248643, 43.631869], "centroid": [-79.22643500715259, 43.744663251634876], "screen_name": "tmj_GTA_adm", "time": 1469724848.0, "tid": 758631624565108743, "text": "Interested in a #job near #Etobicoke, ON? This could be a great fit: https://t.co/Xnj7BNri6x #IT #Hiring #CareerArc", "created_at": "Thu Jul 28 11:54:08 +0000 2016", "klabel": 26}}, {"geometry": {"type": "Point", "coordinates": [-79.54466365, 43.65573516]}, "type": "Feature", "id": 758637260552146944, "properties": {"loc": [-79.54466365, 43.65573516], "centroid": [-79.22643500715259, 43.744663251634876], "screen_name": "GHills6", "time": 1469726192.0, "tid": 758637260552146944, "text": "Shitbag cop Forcillo sentenced today. Now let's convict his corpse-tasering out of control sergeant", "created_at": "Thu Jul 28 12:16:32 +0000 2016", "klabel": 26}}, {"geometry": {"type": "Point", "coordinates": [-79.54463733, 43.65575611]}, "type": "Feature", "id": 758648794867200000, "properties": {"loc": [-79.54463733, 43.65575611], "centroid": [-79.22643500715259, 43.744663251634876], "screen_name": "GHills6", "time": 1469728942.0, "tid": 758648794867200000, "text": "Groundhog Day star Maddie Hills passed her G2 driving test today. Again! \nYay MaMa! @maddie_hills @LauraHills9", "created_at": "Thu Jul 28 13:02:22 +0000 2016", "klabel": 26}}, {"geometry": {"type": "Point", "coordinates": [-79.52042908, 43.63658734]}, "type": "Feature", "id": 758688434378637312, "properties": {"loc": [-79.52042908, 43.63658734], "centroid": [-79.22643500715259, 43.744663251634876], "screen_name": "kateconnor23", "time": 1469738393.0, "tid": 758688434378637312, "text": "Another stressful week, so happy to be here this morning pycetobicoke \u2600\ufe0f\ud83d\ude4f\ud83c\udffc #yoga #poweryoga\u2026 https://t.co/jaQhxAwAJT", "created_at": "Thu Jul 28 15:39:53 +0000 2016", "klabel": 26}}, {"geometry": {"type": "Point", "coordinates": [-79.5302304, 43.6361029]}, "type": "Feature", "id": 758718678129119232, "properties": {"loc": [-79.5302304, 43.6361029], "centroid": [-79.22643500715259, 43.744663251634876], "screen_name": "tofireW", "time": 1469745603.0, "tid": 758718678129119232, "text": "Wires Down (Hydro) - Olivewood Road @ Judge Road, Etobicoke (2 Trucks)", "created_at": "Thu Jul 28 17:40:03 +0000 2016", "klabel": 26}}, {"geometry": {"type": "Point", "coordinates": [-79.5222837, 43.6449989]}, "type": "Feature", "id": 758734028086185987, "properties": {"loc": [-79.5222837, 43.6449989], "centroid": [-79.22643500715259, 43.744663251634876], "screen_name": "tofire", "time": 1469749263.0, "tid": 758734028086185987, "text": "Medical (Unconscious) - Bloor St b/w Monkton Avenue / Islington Avenue, Etobicoke (2 Trucks)", "created_at": "Thu Jul 28 18:41:03 +0000 2016", "klabel": 26}}, {"geometry": {"type": "Point", "coordinates": [-79.5304735, 43.6366628]}, "type": "Feature", "id": 758741322677092355, "properties": {"loc": [-79.5304735, 43.6366628], "centroid": [-79.22643500715259, 43.744663251634876], "screen_name": "tpscalls", "time": 1469751002.0, "tid": 758741322677092355, "text": "Property Damage Collision | Shawbridge Ave &amp; Judge Rd [HP] 07/28 15:03 #Islington_City_Centre_West #Toronto", "created_at": "Thu Jul 28 19:10:02 +0000 2016", "klabel": 26}}, {"geometry": {"type": "Point", "coordinates": [-79.5328383, 43.6431711]}, "type": "Feature", "id": 758750386924552194, "properties": {"loc": [-79.5328383, 43.6431711], "centroid": [-79.22643500715259, 43.744663251634876], "screen_name": "tofire", "time": 1469753163.0, "tid": 758750386924552194, "text": "Alarm Institution - Summerland Ter b/w Dunbloor Road / Dundas St West, Etobicoke (6 Trucks)", "created_at": "Thu Jul 28 19:46:03 +0000 2016", "klabel": 26}}, {"geometry": {"type": "Point", "coordinates": [-79.5412703, 43.6578573]}, "type": "Feature", "id": 758750891256098818, "properties": {"loc": [-79.5412703, 43.6578573], "centroid": [-79.22643500715259, 43.744663251634876], "screen_name": "tpscalls", "time": 1469753284.0, "tid": 758750891256098818, "text": "Dispute | Remington Dr &amp; Greening Cres [22 Div.] 07/28 15:43 #Islington #Toronto", "created_at": "Thu Jul 28 19:48:04 +0000 2016", "klabel": 26}}, {"geometry": {"type": "Point", "coordinates": [-79.5378148, 43.638135]}, "type": "Feature", "id": 758759361976016896, "properties": {"loc": [-79.5378148, 43.638135], "centroid": [-79.22643500715259, 43.744663251634876], "screen_name": "tmj_gta_hrta", "time": 1469755303.0, "tid": 758759361976016896, "text": "Want to work at Starbucks? We're #hiring in ! Click for details: https://t.co/azvVUkIN3b #Job #Hospitality #Veterans #Jobs #CareerArc", "created_at": "Thu Jul 28 20:21:43 +0000 2016", "klabel": 26}}, {"geometry": {"type": "Point", "coordinates": [-79.5255671, 43.6533214]}, "type": "Feature", "id": 758782855757660160, "properties": {"loc": [-79.5255671, 43.6533214], "centroid": [-79.22643500715259, 43.744663251634876], "screen_name": "tofireW", "time": 1469760904.0, "tid": 758782855757660160, "text": "Alarm Highrise Residential - Chestnut Hills Crescent b/w Chestnut Lane / Chestnut Hills Pkwy, Etobicoke (6 Trucks)", "created_at": "Thu Jul 28 21:55:04 +0000 2016", "klabel": 26}}, {"geometry": {"type": "Point", "coordinates": [-79.5255671, 43.6533214]}, "type": "Feature", "id": 758783357761286145, "properties": {"loc": [-79.5255671, 43.6533214], "centroid": [-79.22643500715259, 43.744663251634876], "screen_name": "tofireW", "time": 1469761024.0, "tid": 758783357761286145, "text": "UD: Alarm Highrise Residential - Chestnut Hills Crescent b/w Chestnut Lane / Chestnut Hills Pkwy, Etobicoke (6 Trucks)", "created_at": "Thu Jul 28 21:57:04 +0000 2016", "klabel": 26}}, {"geometry": {"type": "Point", "coordinates": [-79.5255671, 43.6533214]}, "type": "Feature", "id": 758783356918194176, "properties": {"loc": [-79.5255671, 43.6533214], "centroid": [-79.22643500715259, 43.744663251634876], "screen_name": "tofire", "time": 1469761024.0, "tid": 758783356918194176, "text": "UD: Alarm Highrise Residential - Chestnut Hills Crescent b/w Chestnut Lane / Chestnut Hills Pkwy, Etobicoke (6 Trucks)", "created_at": "Thu Jul 28 21:57:04 +0000 2016", "klabel": 26}}, {"geometry": {"type": "Point", "coordinates": [-79.5255671, 43.6533214]}, "type": "Feature", "id": 758784618124414980, "properties": {"loc": [-79.5255671, 43.6533214], "centroid": [-79.22643500715259, 43.744663251634876], "screen_name": "tofire", "time": 1469761325.0, "tid": 758784618124414980, "text": "UD: Alarm Residential - Chestnut Hills Crescent b/w Chestnut Lane / Chestnut Hills Pkwy, Etobicoke (7 Trucks)", "created_at": "Thu Jul 28 22:02:05 +0000 2016", "klabel": 26}}, {"geometry": {"type": "Point", "coordinates": [-79.53194324, 43.64314347]}, "type": "Feature", "id": 758812292637044736, "properties": {"loc": [-79.53194324, 43.64314347], "centroid": [-79.22643500715259, 43.744663251634876], "screen_name": "abdone", "time": 1469767923.0, "tid": 758812292637044736, "text": "I'm at Palomar https://t.co/4dYiL2zaA9", "created_at": "Thu Jul 28 23:52:03 +0000 2016", "klabel": 26}}, {"geometry": {"type": "Point", "coordinates": [-79.5327244, 43.6603073]}, "type": "Feature", "id": 758889302021419008, "properties": {"loc": [-79.5327244, 43.6603073], "centroid": [-79.22643500715259, 43.744663251634876], "screen_name": "tpscalls", "time": 1469786283.0, "tid": 758889302021419008, "text": "Property Damage Collision | Islington Ave &amp; Birchcroft Rd [22 Div.] 07/29 00:53 #Princess_Rosethorn #Toronto", "created_at": "Fri Jul 29 04:58:03 +0000 2016", "klabel": 26}}, {"geometry": {"type": "Point", "coordinates": [-79.5327244, 43.6603073]}, "type": "Feature", "id": 758890055767236609, "properties": {"loc": [-79.5327244, 43.6603073], "centroid": [-79.22643500715259, 43.744663251634876], "screen_name": "tpscalls", "time": 1469786463.0, "tid": 758890055767236609, "text": "Property Damage Collision | Islington Ave &amp; Birchcroft Rd [HP] 07/29 00:56 #Princess_Rosethorn #Toronto", "created_at": "Fri Jul 29 05:01:03 +0000 2016", "klabel": 26}}, {"geometry": {"type": "Point", "coordinates": [-79.5321, 43.63856]}, "type": "Feature", "id": 758894691584573440, "properties": {"loc": [-79.5321, 43.63856], "centroid": [-79.22643500715259, 43.744663251634876], "screen_name": "Chef_MauricioM", "time": 1469787568.0, "tid": 758894691584573440, "text": "Practice at #dcmusic with the crew @ D.C. Music Toronto https://t.co/YT2RirOAPZ", "created_at": "Fri Jul 29 05:19:28 +0000 2016", "klabel": 26}}, {"geometry": {"type": "Point", "coordinates": [-79.5311572, 43.6437774]}, "type": "Feature", "id": 758926289298268160, "properties": {"loc": [-79.5311572, 43.6437774], "centroid": [-79.22643500715259, 43.744663251634876], "screen_name": "tpscalls", "time": 1469795102.0, "tid": 758926289298268160, "text": "Dispute | C P R &amp; Resurrection Rd [22 Div.] 07/29 03:19 #Islington_City_Centre_West #Toronto", "created_at": "Fri Jul 29 07:25:02 +0000 2016", "klabel": 26}}, {"geometry": {"type": "Point", "coordinates": [-79.5234904, 43.6445871]}, "type": "Feature", "id": 758955733392121856, "properties": {"loc": [-79.5234904, 43.6445871], "centroid": [-79.22643500715259, 43.744663251634876], "screen_name": "tpscalls", "time": 1469802122.0, "tid": 758955733392121856, "text": "Assault Just Occurred | Bloor St W &amp; Islington Ave [22 Div.] 07/29 05:18 #Islington_City_Centre_West #Toronto", "created_at": "Fri Jul 29 09:22:02 +0000 2016", "klabel": 26}}, {"geometry": {"type": "Point", "coordinates": [-79.53808573, 43.63886041]}, "type": "Feature", "id": 758997612909383682, "properties": {"loc": [-79.53808573, 43.63886041], "centroid": [-79.22643500715259, 43.744663251634876], "screen_name": "MiaAdinaVida", "time": 1469812107.0, "tid": 758997612909383682, "text": "#breakfast #Etobicoke (@ The Dundas Street Grille in Etobicoke, ON) https://t.co/g6ggrFTPL4", "created_at": "Fri Jul 29 12:08:27 +0000 2016", "klabel": 26}}, {"geometry": {"type": "Point", "coordinates": [-79.5230279, 43.6443806]}, "type": "Feature", "id": 759043771312902146, "properties": {"loc": [-79.5230279, 43.6443806], "centroid": [-79.22643500715259, 43.744663251634876], "screen_name": "tmj_on_jobs", "time": 1469823112.0, "tid": 759043771312902146, "text": "Want to work in #Etobicoke, ON? View our latest opening: https://t.co/yJCK5TuAKo #Job #Clerical #Jobs #Hiring #CareerArc", "created_at": "Fri Jul 29 15:11:52 +0000 2016", "klabel": 26}}, {"geometry": {"type": "Point", "coordinates": [-79.5378148, 43.638135]}, "type": "Feature", "id": 759060549506260992, "properties": {"loc": [-79.5378148, 43.638135], "centroid": [-79.22643500715259, 43.744663251634876], "screen_name": "tmj_gta_hrta", "time": 1469827112.0, "tid": 759060549506260992, "text": "Join the Starbucks team! See our latest #job opening here: https://t.co/7bfGxtjUUO #Hospitality #Veterans #Hiring #CareerArc", "created_at": "Fri Jul 29 16:18:32 +0000 2016", "klabel": 26}}, {"geometry": {"type": "Point", "coordinates": [-79.5380531, 43.6401871]},