{"type": "FeatureCollection", "features": [{"geometry": {"type": "Point", "coordinates": [-79.303847, 43.7770276]}, "type": "Feature", "id": 705061587468623872, "properties": {"loc": [-79.303847, 43.7770276], "centroid": [-79.444494501344, 43.782724739904], "screen_name": "TuliPbeliever", "time": 1456952756.0, "tid": 705061587468623872, "text": "#CarrotManInWowowin\nJeynee na ang magkaloveteam. Sana may special segment sila sa Eat Bulaga", "created_at": "Wed Mar 02 16:05:56 +0000 2016", "klabel": 2}}, {"geometry": {"type": "Point", "coordinates": [-79.2993442, 43.7835815]}, "type": "Feature", "id": 705137127110139904, "properties": {"loc": [-79.2993442, 43.7835815], "centroid": [-79.444494501344, 43.782724739904], "screen_name": "tofire", "time": 1456970766.0, "tid": 705137127110139904, "text": "Vehicle (Personal Injury) - Birchmount Road @ Bonis Avenue, Scarborough (2 Trucks)", "created_at": "Wed Mar 02 21:06:06 +0000 2016", "klabel": 2}}, {"geometry": {"type": "Point", "coordinates": [-79.29854605, 43.78112755]}, "type": "Feature", "id": 705455959548809216, "properties": {"loc": [-79.29854605, 43.78112755], "centroid": [-79.444494501344, 43.782724739904], "screen_name": "caiodias", "time": 1457046782.0, "tid": 705455959548809216, "text": "@sanseverini eu mandava escolher dois novos. S\u00f3 pela vergonha", "created_at": "Thu Mar 03 18:13:02 +0000 2016", "klabel": 2}}, {"geometry": {"type": "Point", "coordinates": [-79.2972178, 43.7841058]}, "type": "Feature", "id": 705550852786929664, "properties": {"loc": [-79.2972178, 43.7841058], "centroid": [-79.444494501344, 43.782724739904], "screen_name": "tofire", "time": 1457069406.0, "tid": 705550852786929664, "text": "UD: Fire (Highrise Residential) - Bonis Avenue b/w Carabob Crt / Cardwell Avenue, Scarborough (8 Trucks)", "created_at": "Fri Mar 04 00:30:06 +0000 2016", "klabel": 2}}, {"geometry": {"type": "Point", "coordinates": [-79.2972178, 43.7841058]}, "type": "Feature", "id": 705550854011678720, "properties": {"loc": [-79.2972178, 43.7841058], "centroid": [-79.444494501344, 43.782724739904], "screen_name": "tofireE", "time": 1457069406.0, "tid": 705550854011678720, "text": "UD: Fire (Highrise Residential) - Bonis Avenue b/w Carabob Crt / Cardwell Avenue, Scarborough (8 Trucks)", "created_at": "Fri Mar 04 00:30:06 +0000 2016", "klabel": 2}}, {"geometry": {"type": "Point", "coordinates": [-79.2817779, 43.7730401]}, "type": "Feature", "id": 705758182753218560, "properties": {"loc": [-79.2817779, 43.7730401], "centroid": [-79.444494501344, 43.782724739904], "screen_name": "tmj_on_jobs", "time": 1457118837.0, "tid": 705758182753218560, "text": "Shift Supervisor (CA) - Starbucks: https://t.co/eN1H0Ih3tc #Hospitality #Veterans #Job #Jobs #Hiring #CareerArc", "created_at": "Fri Mar 04 14:13:57 +0000 2016", "klabel": 2}}, {"geometry": {"type": "Point", "coordinates": [-79.29847922, 43.78125921]}, "type": "Feature", "id": 705818665422163969, "properties": {"loc": [-79.29847922, 43.78125921], "centroid": [-79.444494501344, 43.782724739904], "screen_name": "caiodias", "time": 1457133257.0, "tid": 705818665422163969, "text": "#eitcha https://t.co/uFKHdcvGip", "created_at": "Fri Mar 04 18:14:17 +0000 2016", "klabel": 2}}, {"geometry": {"type": "Point", "coordinates": [-79.29847713, 43.78127308]}, "type": "Feature", "id": 705818795047313408, "properties": {"loc": [-79.29847713, 43.78127308], "centroid": [-79.444494501344, 43.782724739904], "screen_name": "caiodias", "time": 1457133288.0, "tid": 705818795047313408, "text": "#TrueStory https://t.co/VNSpdeUTEc", "created_at": "Fri Mar 04 18:14:48 +0000 2016", "klabel": 2}}, {"geometry": {"type": "Point", "coordinates": [-79.29784089, 43.78035328]}, "type": "Feature", "id": 705821102992392193, "properties": {"loc": [-79.29784089, 43.78035328], "centroid": [-79.444494501344, 43.782724739904], "screen_name": "caiodias", "time": 1457133839.0, "tid": 705821102992392193, "text": "Voc\u00ea acha isso certo ou bonito? https://t.co/dyy7wgxgsj", "created_at": "Fri Mar 04 18:23:59 +0000 2016", "klabel": 2}}, {"geometry": {"type": "Point", "coordinates": [-79.2950476, 43.77445503]}, "type": "Feature", "id": 705822680914722816, "properties": {"loc": [-79.2950476, 43.77445503], "centroid": [-79.444494501344, 43.782724739904], "screen_name": "caiodias", "time": 1457134215.0, "tid": 705822680914722816, "text": "Tenham cuidado https://t.co/axZW1Of8O5", "created_at": "Fri Mar 04 18:30:15 +0000 2016", "klabel": 2}}, {"geometry": {"type": "Point", "coordinates": [-79.29630433, 43.77754633]}, "type": "Feature", "id": 705845200510459904, "properties": {"loc": [-79.29630433, 43.77754633], "centroid": [-79.444494501344, 43.782724739904], "screen_name": "caiodias", "time": 1457139584.0, "tid": 705845200510459904, "text": "@bqeg podes ajudar dando RT nesse tu\u00edte: https://t.co/tDc8cntGB2 de pesquisa para Pos gradua\u00e7\u00e3o de uma conhecida?", "created_at": "Fri Mar 04 19:59:44 +0000 2016", "klabel": 2}}, {"geometry": {"type": "Point", "coordinates": [-79.3004227, 43.7677383]}, "type": "Feature", "id": 705853606679994368, "properties": {"loc": [-79.3004227, 43.7677383], "centroid": [-79.444494501344, 43.782724739904], "screen_name": "JoeManfredi", "time": 1457141588.0, "tid": 705853606679994368, "text": "Here's the fantastic @azzyland looking amazing as a Blood Elf Rogue from WoW, you can find her\u2026 https://t.co/OfneQTlO1t", "created_at": "Fri Mar 04 20:33:08 +0000 2016", "klabel": 2}}, {"geometry": {"type": "Point", "coordinates": [-79.2995522, 43.780679]}, "type": "Feature", "id": 707597872577978369, "properties": {"loc": [-79.2995522, 43.780679], "centroid": [-79.444494501344, 43.782724739904], "screen_name": "tmj_gta_hrta", "time": 1457557454.0, "tid": 707597872577978369, "text": "We're #hiring! Read about our latest #job opening here: Shift Supervisor (CA) - https://t.co/dsXOcmoJPN #Hospitality #Veterans #CareerArc", "created_at": "Wed Mar 09 16:04:14 +0000 2016", "klabel": 2}}, {"geometry": {"type": "Point", "coordinates": [-79.3065044, 43.7760041]}, "type": "Feature", "id": 749799911726735360, "properties": {"loc": [-79.3065044, 43.7760041], "centroid": [-79.444494501344, 43.782724739904], "screen_name": "tpscalls", "time": 1467619204.0, "tid": 749799911726735360, "text": "Noise Complaint | Warden Ave &amp; 70 Cass Ave [42 Div.] 07/03 22:56 #Tam_O'Shanter_Sullivan #Toronto", "created_at": "Mon Jul 04 03:00:04 +0000 2016", "klabel": 2}}, {"geometry": {"type": "Point", "coordinates": [-79.2883, 43.78328]}, "type": "Feature", "id": 749959605833199617, "properties": {"loc": [-79.2883, 43.78328], "centroid": [-79.444494501344, 43.782724739904], "screen_name": "VDHMakeupHairs", "time": 1467657278.0, "tid": 749959605833199617, "text": "Happy #4thofjuly 2 all my good peoples :-) B-) :-D #unitedstates #canada #independenceday\u2026 https://t.co/i5bAwyuRAN", "created_at": "Mon Jul 04 13:34:38 +0000 2016", "klabel": 2}}, {"geometry": {"type": "Point", "coordinates": [-79.2883, 43.78328]}, "type": "Feature", "id": 749965453833809920, "properties": {"loc": [-79.2883, 43.78328], "centroid": [-79.444494501344, 43.782724739904], "screen_name": "VDHMakeupHairs", "time": 1467658672.0, "tid": 749965453833809920, "text": "#pride #pridemonth #canada #primeminister #torontopride #pridetoronto #proudtobe\u2026 https://t.co/QLMf6oRmSG", "created_at": "Mon Jul 04 13:57:52 +0000 2016", "klabel": 2}}, {"geometry": {"type": "Point", "coordinates": [-79.28266, 43.77708]}, "type": "Feature", "id": 750118540540272640, "properties": {"loc": [-79.28266, 43.77708], "centroid": [-79.444494501344, 43.782724739904], "screen_name": "Ernesha_Paulino", "time": 1467695171.0, "tid": 750118540540272640, "text": "Happy 4th of July \ud83c\uddfa\ud83c\uddf8 @ Delta Toronto East https://t.co/i02she8M22", "created_at": "Tue Jul 05 00:06:11 +0000 2016", "klabel": 2}}, {"geometry": {"type": "Point", "coordinates": [-79.30229, 43.79043]}, "type": "Feature", "id": 750120021456740353, "properties": {"loc": [-79.30229, 43.79043], "centroid": [-79.444494501344, 43.782724739904], "screen_name": "tpscalls", "time": 1467695524.0, "tid": 750120021456740353, "text": "Personal Injury Collision | Huntingwood Dr &amp; Birchmount Rd [42 Div.] 07/04 20:08 #Tam_O'Shanter #Toronto", "created_at": "Tue Jul 05 00:12:04 +0000 2016", "klabel": 2}}, {"geometry": {"type": "Point", "coordinates": [-79.2831239, 43.7717368]}, "type": "Feature", "id": 750147455333851136, "properties": {"loc": [-79.2831239, 43.7717368], "centroid": [-79.444494501344, 43.782724739904], "screen_name": "tofire", "time": 1467702065.0, "tid": 750147455333851136, "text": "Medical (Seizures/convulsions) - Antrim Crescent @ Kennedy Road, Scarborough (2 Trucks)", "created_at": "Tue Jul 05 02:01:05 +0000 2016", "klabel": 2}}, {"geometry": {"type": "Point", "coordinates": [-79.2831239, 43.7717368]}, "type": "Feature", "id": 750147456285995008, "properties": {"loc": [-79.2831239, 43.7717368], "centroid": [-79.444494501344, 43.782724739904], "screen_name": "tofireE", "time": 1467702065.0, "tid": 750147456285995008, "text": "Medical (Seizures/convulsions) - Antrim Crescent @ Kennedy Road, Scarborough (2 Trucks)", "created_at": "Tue Jul 05 02:01:05 +0000 2016", "klabel": 2}}, {"geometry": {"type": "Point", "coordinates": [-79.28122546, 43.77797419]}, "type": "Feature", "id": 750200137012637696, "properties": {"loc": [-79.28122546, 43.77797419], "centroid": [-79.444494501344, 43.782724739904], "screen_name": "primiyaa", "time": 1467714625.0, "tid": 750200137012637696, "text": "the world is ours.\ud83d\ude80 #thekirus #weddingSZN @ 135 Village Green Square https://t.co/cgtNV18JYj", "created_at": "Tue Jul 05 05:30:25 +0000 2016", "klabel": 2}}, {"geometry": {"type": "Point", "coordinates": [-79.2830011, 43.7785456]}, "type": "Feature", "id": 750286358053257216, "properties": {"loc": [-79.2830011, 43.7785456], "centroid": [-79.444494501344, 43.782724739904], "screen_name": "tpscalls", "time": 1467735182.0, "tid": 750286358053257216, "text": "Theft Just Occurred | 401 C W Kennedy Rd S Ramp &amp; Village Green Sq [42 Div.] 07/05 07:09 #Scarborough #Toronto", "created_at": "Tue Jul 05 11:13:02 +0000 2016", "klabel": 2}}, {"geometry": {"type": "Point", "coordinates": [-79.2853311, 43.7685319]}, "type": "Feature", "id": 750362361752653824, "properties": {"loc": [-79.2853311, 43.7685319], "centroid": [-79.444494501344, 43.782724739904], "screen_name": "tpscalls", "time": 1467753302.0, "tid": 750362361752653824, "text": "Natural Gas Leak | Glamorgan Ave &amp; 50 Dundalk Dr [41 Div.] 07/05 12:10 #Dorset_Park #Toronto", "created_at": "Tue Jul 05 16:15:02 +0000 2016", "klabel": 2}}, {"geometry": {"type": "Point", "coordinates": [-79.2882901, 43.7832918]}, "type": "Feature", "id": 751728111922843648, "properties": {"loc": [-79.2882901, 43.7832918], "centroid": [-79.444494501344, 43.782724739904], "screen_name": "tpscalls", "time": 1468078922.0, "tid": 751728111922843648, "text": "Personal Injury Collision | Sheppard Ave E &amp; Kennedy Rd [HP] 07/09 06:36 #Tam_O'Shanter_Sullivan #Toronto", "created_at": "Sat Jul 09 10:42:02 +0000 2016", "klabel": 2}}, {"geometry": {"type": "Point", "coordinates": [-79.28266, 43.77708]}, "type": "Feature", "id": 751891955186077696, "properties": {"loc": [-79.28266, 43.77708], "centroid": [-79.444494501344, 43.782724739904], "screen_name": "EwanTerrell", "time": 1468117986.0, "tid": 751891955186077696, "text": "12 disciples @ Delta Toronto East https://t.co/h2VZp0whiF", "created_at": "Sat Jul 09 21:33:06 +0000 2016", "klabel": 2}}, {"geometry": {"type": "Point", "coordinates": [-79.2908907, 43.765956]}, "type": "Feature", "id": 752021049785606144, "properties": {"loc": [-79.2908907, 43.765956], "centroid": [-79.444494501344, 43.782724739904], "screen_name": "tpscalls", "time": 1468148764.0, "tid": 752021049785606144, "text": "Impaired Driver | Ellesmere Rd &amp; Carrera Blvd [41 Div.] 07/10 02:02 #Dorset_Park #Toronto", "created_at": "Sun Jul 10 06:06:04 +0000 2016", "klabel": 2}}, {"geometry": {"type": "Point", "coordinates": [-79.2995541, 43.7806786]}, "type": "Feature", "id": 752144505713799168, "properties": {"loc": [-79.2995541, 43.7806786], "centroid": [-79.444494501344, 43.782724739904], "screen_name": "tmj_gta_hrta", "time": 1468178198.0, "tid": 752144505713799168, "text": "This #job might be a great fit for you: Shift Supervisor (CA) - https://t.co/dsXOcmoJPN #Hospitality #Veterans #Hiring #CareerArc", "created_at": "Sun Jul 10 14:16:38 +0000 2016", "klabel": 2}}, {"geometry": {"type": "Point", "coordinates": [-79.28266, 43.77708]}, "type": "Feature", "id": 752153597987741696, "properties": {"loc": [-79.28266, 43.77708], "centroid": [-79.444494501344, 43.782724739904], "screen_name": "crazedyarnlover", "time": 1468180366.0, "tid": 752153597987741696, "text": "Amazing what people can create with Lego. #brickfete2016 @ Delta\u2026 https://t.co/D7IqHGloR7", "created_at": "Sun Jul 10 14:52:46 +0000 2016", "klabel": 2}}, {"geometry": {"type": "Point", "coordinates": [-79.2882901, 43.7832918]}, "type": "Feature", "id": 752187137810960385, "properties": {"loc": [-79.2882901, 43.7832918], "centroid": [-79.444494501344, 43.782724739904], "screen_name": "tpscalls", "time": 1468188363.0, "tid": 752187137810960385, "text": "Property Damage Collision | Kennedy Rd &amp; Sheppard Ave E [42 Div.] 07/10 13:00 #Tam_O'Shanter_Sullivan #Toronto", "created_at": "Sun Jul 10 17:06:03 +0000 2016", "klabel": 2}}, {"geometry": {"type": "Point", "coordinates": [-79.2831239, 43.7717368]}, "type": "Feature", "id": 752229677356486656, "properties": {"loc": [-79.2831239, 43.7717368], "centroid": [-79.444494501344, 43.782724739904], "screen_name": "tofireE", "time": 1468198505.0, "tid": 752229677356486656, "text": "Medical (Seizures/convulsions) - Antrim Crescent b/w Kennedy Road / Dundalk Dr, Scarborough (2 Trucks)", "created_at": "Sun Jul 10 19:55:05 +0000 2016", "klabel": 2}}, {"geometry": {"type": "Point", "coordinates": [-79.2831239, 43.7717368]}, "type": "Feature", "id": 752229675016093696, "properties": {"loc": [-79.2831239, 43.7717368], "centroid": [-79.444494501344, 43.782724739904], "screen_name": "tofire", "time": 1468198504.0, "tid": 752229675016093696, "text": "Medical (Seizures/convulsions) - Antrim Crescent b/w Kennedy Road / Dundalk Dr, Scarborough (2 Trucks)", "created_at": "Sun Jul 10 19:55:04 +0000 2016", "klabel": 2}}, {"geometry": {"type": "Point", "coordinates": [-79.2971561, 43.7841244]}, "type": "Feature", "id": 752238730044403713, "properties": {"loc": [-79.2971561, 43.7841244], "centroid": [-79.444494501344, 43.782724739904], "screen_name": "tofireE", "time": 1468200663.0, "tid": 752238730044403713, "text": "Medical (Seizures/convulsions) - Carabob Crt @ Bonis Avenue, Scarborough (2 Trucks)", "created_at": "Sun Jul 10 20:31:03 +0000 2016", "klabel": 2}}, {"geometry": {"type": "Point", "coordinates": [-79.2831239, 43.7717368]}, "type": "Feature", "id": 752254835349680128, "properties": {"loc": [-79.2831239, 43.7717368], "centroid": [-79.444494501344, 43.782724739904], "screen_name": "tofire", "time": 1468204503.0, "tid": 752254835349680128, "text": "Medical (Unconscious) - Antrim Crescent b/w Kennedy Road / Dundalk Dr, Scarborough (2 Trucks)", "created_at": "Sun Jul 10 21:35:03 +0000 2016", "klabel": 2}}, {"geometry": {"type": "Point", "coordinates": [-79.28266, 43.77708]}, "type": "Feature", "id": 752334064833617921, "properties": {"loc": [-79.28266, 43.77708], "centroid": [-79.444494501344, 43.782724739904], "screen_name": "dejibu", "time": 1468223393.0, "tid": 752334064833617921, "text": "That face #brickfete #brickfete2016 #afol #lego #toronto @ Delta Toronto East https://t.co/nS31uByA59", "created_at": "Mon Jul 11 02:49:53 +0000 2016", "klabel": 2}}, {"geometry": {"type": "Point", "coordinates": [-79.28266, 43.77708]}, "type": "Feature", "id": 752334522159501312, "properties": {"loc": [-79.28266, 43.77708], "centroid": [-79.444494501344, 43.782724739904], "screen_name": "dejibu", "time": 1468223502.0, "tid": 752334522159501312, "text": "Lego version of the beautiful police station on Parliament St #brickfete #brickfete2016 #toronto\u2026 https://t.co/UzbSf1X8Yp", "created_at": "Mon Jul 11 02:51:42 +0000 2016", "klabel": 2}}, {"geometry": {"type": "Point", "coordinates": [-79.30761566, 43.77897367]}, "type": "Feature", "id": 752515672333283328, "properties": {"loc": [-79.30761566, 43.77897367], "centroid": [-79.444494501344, 43.782724739904], "screen_name": "caiodias", "time": 1468266692.0, "tid": 752515672333283328, "text": "@GaladrielWolf @bonelam hahaha \ud83d\ude05", "created_at": "Mon Jul 11 14:51:32 +0000 2016", "klabel": 2}}, {"geometry": {"type": "Point", "coordinates": [-79.2921, 43.76368]}, "type": "Feature", "id": 752542100126769152, "properties": {"loc": [-79.2921, 43.76368], "centroid": [-79.444494501344, 43.782724739904], "screen_name": "iricsi", "time": 1468272992.0, "tid": 752542100126769152, "text": "Lunch @ Pizza Hut https://t.co/NnbTL5S0tO", "created_at": "Mon Jul 11 16:36:32 +0000 2016", "klabel": 2}}, {"geometry": {"type": "Point", "coordinates": [-79.3064737, 43.7646062]}, "type": "Feature", "id": 752613703636361217, "properties": {"loc": [-79.3064737, 43.7646062], "centroid": [-79.444494501344, 43.782724739904], "screen_name": "tofireE", "time": 1468290064.0, "tid": 752613703636361217, "text": "Medical (Vsa) - Lupin Dr b/w Crocus Dr / Budea Crescent, Scarborough (2 Trucks)", "created_at": "Mon Jul 11 21:21:04 +0000 2016", "klabel": 2}}, {"geometry": {"type": "Point", "coordinates": [-79.28199186, 43.77736413]}, "type": "Feature", "id": 752732163133562880, "properties": {"loc": [-79.28199186, 43.77736413], "centroid": [-79.444494501344, 43.782724739904], "screen_name": "mWare", "time": 1468318307.0, "tid": 752732163133562880, "text": "@gnomon @syncros and Kittys", "created_at": "Tue Jul 12 05:11:47 +0000 2016", "klabel": 2}}, {"geometry": {"type": "Point", "coordinates": [-79.2882901, 43.7832918]}, "type": "Feature", "id": 752938100897316864, "properties": {"loc": [-79.2882901, 43.7832918], "centroid": [-79.444494501344, 43.782724739904], "screen_name": "tofireE", "time": 1468367406.0, "tid": 752938100897316864, "text": "Water Problem - Kennedy Road b/w Sheppard Avenue East / Bonis Avenue, Scarborough (3 Trucks)", "created_at": "Tue Jul 12 18:50:06 +0000 2016", "klabel": 2}}, {"geometry": {"type": "Point", "coordinates": [-79.2940318, 43.7849866]}, "type": "Feature", "id": 752938338445889536, "properties": {"loc": [-79.2940318, 43.7849866], "centroid": [-79.444494501344, 43.782724739904], "screen_name": "tpscalls", "time": 1468367463.0, "tid": 752938338445889536, "text": "Assault Just Occurred | Sheppard Ave E &amp; Bonis Ave [42 Div.] 07/12 14:48 #Tam_O'Shanter #Toronto", "created_at": "Tue Jul 12 18:51:03 +0000 2016", "klabel": 2}}, {"geometry": {"type": "Point", "coordinates": [-79.2827664, 43.7722139]}, "type": "Feature", "id": 752967390791475200, "properties": {"loc": [-79.2827664, 43.7722139], "centroid": [-79.444494501344, 43.782724739904], "screen_name": "tmj_gta_hrta", "time": 1468374390.0, "tid": 752967390791475200, "text": "Want to work at Starbucks? We're #hiring in ! Click for details: https://t.co/VFEuCODVW0 #Job #Hospitality #Veterans #Jobs #CareerArc", "created_at": "Tue Jul 12 20:46:30 +0000 2016", "klabel": 2}}, {"geometry": {"type": "Point", "coordinates": [-79.2852861, 43.7683992]}, "type": "Feature", "id": 753009305113223168, "properties": {"loc": [-79.2852861, 43.7683992], "centroid": [-79.444494501344, 43.782724739904], "screen_name": "tpscalls", "time": 1468384383.0, "tid": 753009305113223168, "text": "Assault Just Occurred | Kennedy Rd &amp; Dundalk Dr [41 Div.] 07/12 19:27 #Dorset_Park #Toronto", "created_at": "Tue Jul 12 23:33:03 +0000 2016", "klabel": 2}}, {"geometry": {"type": "Point", "coordinates": [-79.2883, 43.78328]}, "type": "Feature", "id": 753087993729191940, "properties": {"loc": [-79.2883, 43.78328], "centroid": [-79.444494501344, 43.782724739904], "screen_name": "VDHMakeupHairs", "time": 1468403144.0, "tid": 753087993729191940, "text": "#positivity #life #livelife #behumble #bekind #begrateful #bestrong #keepmovingforward\u2026 https://t.co/Q6XiICGRhw", "created_at": "Wed Jul 13 04:45:44 +0000 2016", "klabel": 2}}, {"geometry": {"type": "Point", "coordinates": [-79.2827664, 43.7722139]}, "type": "Feature", "id": 753213204763848704, "properties": {"loc": [-79.2827664, 43.7722139], "centroid": [-79.444494501344, 43.782724739904], "screen_name": "tmj_gta_hrta", "time": 1468432996.0, "tid": 753213204763848704, "text": "Join the Starbucks team! See our latest #job opening here: https://t.co/ycelrXItBm #Hospitality #Veterans #Hiring #CareerArc", "created_at": "Wed Jul 13 13:03:16 +0000 2016", "klabel": 2}}, {"geometry": {"type": "Point", "coordinates": [-79.30993, 43.77761]}, "type": "Feature", "id": 753251027491500032, "properties": {"loc": [-79.30993, 43.77761], "centroid": [-79.444494501344, 43.782724739904], "screen_name": "noeldhiraj", "time": 1468442014.0, "tid": 753251027491500032, "text": "Woke up to this splendid view! \n\n#canadadiaries #torontolife #hdr #bnw @ Warden and Sheppard https://t.co/gOr7g1fZVF", "created_at": "Wed Jul 13 15:33:34 +0000 2016", "klabel": 2}}, {"geometry": {"type": "Point", "coordinates": [-79.3003925, 43.7775945]}, "type": "Feature", "id": 753427561921871872, "properties": {"loc": [-79.3003925, 43.7775945], "centroid": [-79.444494501344, 43.782724739904], "screen_name": "tpscalls", "time": 1468484103.0, "tid": 753427561921871872, "text": "Unknown Trouble | Earlton Rd &amp; Cass Ave [42 Div.] 07/13 23:11 #Tam_O'Shanter #Toronto", "created_at": "Thu Jul 14 03:15:03 +0000 2016", "klabel": 2}}, {"geometry": {"type": "Point", "coordinates": [-79.2959053, 43.7832225]}, "type": "Feature", "id": 753455632347492352, "properties": {"loc": [-79.2959053, 43.7832225], "centroid": [-79.444494501344, 43.782724739904], "screen_name": "416PRINCEBEATZ", "time": 1468490795.0, "tid": 753455632347492352, "text": "\"@WavyNick: *** Exclusive Wave *** Tre Da Kidd x Keep It Real - Visual By: @416PrinceBeatz https://t.co/lBJY1h7HNn @Tredakiddrde", "created_at": "Thu Jul 14 05:06:35 +0000 2016", "klabel": 2}}, {"geometry": {"type": "Point", "coordinates": [-79.301389, 43.788056]}, "type": "Feature", "id": 753496511342927872, "properties": {"loc": [-79.301389, 43.788056], "centroid": [-79.444494501344, 43.782724739904], "screen_name": "tpscalls", "time": 1468500542.0, "tid": 753496511342927872, "text": "See Ambulance | Larch St &amp; Ln E Spadina N Sullivan [52 Div.] 07/14 03:42 #Scarborough #Toronto", "created_at": "Thu Jul 14 07:49:02 +0000 2016", "klabel": 2}}, {"geometry": {"type": "Point", "coordinates": [-79.2995541, 43.7806786]}, "type": "Feature", "id": 753613690054684673, "properties": {"loc": [-79.2995541, 43.7806786], "centroid": [-79.444494501344, 43.782724739904], "screen_name": "tmj_gta_hrta", "time": 1468528479.0, "tid": 753613690054684673, "text": "Can you recommend anyone for this #job? https://t.co/C0lUu17QcF #Hospitality #Veterans #Hiring #CareerArc", "created_at": "Thu Jul 14 15:34:39 +0000 2016", "klabel": 2}}, {"geometry": {"type": "Point", "coordinates": [-79.29196593, 43.77301804]}, "type": "Feature", "id": 753675195374764032, "properties": {"loc": [-79.29196593, 43.77301804], "centroid": [-79.444494501344, 43.782724739904], "screen_name": "any_speak", "time": 1468543143.0, "tid": 753675195374764032, "text": "Ainda tens d\u00favidas de onde eu estou monicacapemba ? #troll #clapback #answer. #hattersgonnahate\u2026 https://t.co/c9K4JVbePr", "created_at": "Thu Jul 14 19:39:03 +0000 2016", "klabel": 2}}, {"geometry": {"type": "Point", "coordinates": [-79.297844, 43.7917429]}, "type": "Feature", "id": 753704888790638592, "properties": {"loc": [-79.297844, 43.7917429], "centroid": [-79.444494501344, 43.782724739904], "screen_name": "tpscalls", "time": 1468550223.0, "tid": 753704888790638592, "text": "Robbery | North Wind Pl &amp; Huntingwood Dr [42 Div.] 07/14 17:30 #Toronto", "created_at": "Thu Jul 14 21:37:03 +0000 2016", "klabel": 2}}, {"geometry": {"type": "Point", "coordinates": [-79.29944, 43.78277]}, "type": "Feature", "id": 753713328552235008, "properties": {"loc": [-79.29944, 43.78277], "centroid": [-79.444494501344, 43.782724739904], "screen_name": "EthanMorneau", "time": 1468552235.0, "tid": 753713328552235008, "text": "Laundry Day \ud83d\udc55\ud83d\udcf7 // Miss doing photo shoots with stephaniedinsdale @ Laundry Mat https://t.co/1KqOcLwrtY", "created_at": "Thu Jul 14 22:10:35 +0000 2016", "klabel": 2}}, {"geometry": {"type": "Point", "coordinates": [-79.3004227, 43.7677383]}, "type": "Feature", "id": 753937561299681280, "properties": {"loc": [-79.3004227, 43.7677383], "centroid": [-79.444494501344, 43.782724739904], "screen_name": "JoeManfredi", "time": 1468605696.0, "tid": 753937561299681280, "text": "Just looking spectacular as Poison Ivy, the beautiful olympianbeauty \ud83d\ude03\ud83d\ude0d\ud83d\ude18\ud83d\udd25\ud83d\udc97\ud83d\udcaf #ff #followfriday\u2026 https://t.co/e5uiLSVLIs", "created_at": "Fri Jul 15 13:01:36 +0000 2016", "klabel": 2}}, {"geometry": {"type": "Point", "coordinates": [-79.2887976, 43.7862468]}, "type": "Feature", "id": 754183295622053888, "properties": {"loc": [-79.2887976, 43.7862468], "centroid": [-79.444494501344, 43.782724739904], "screen_name": "tpscalls", "time": 1468664284.0, "tid": 754183295622053888, "text": "Noise Complaint | 10 Cardwell Ave &amp; 10 Cardwell Ave [42 Div.] 07/16 01:12 #Cardwell_Avenue #Toronto", "created_at": "Sat Jul 16 05:18:04 +0000 2016", "klabel": 2}}, {"geometry": {"type": "Point", "coordinates": [-79.2894815, 43.7805486]}, "type": "Feature", "id": 754196372123942912, "properties": {"loc": [-79.2894815, 43.7805486], "centroid": [-79.444494501344, 43.782724739904], "screen_name": "tpscalls", "time": 1468667402.0, "tid": 754196372123942912, "text": "Noise Complaint | Dempster St &amp; Lejune Rd [42 Div.] 07/16 02:03 #Tam_O'Shanter_Sullivan #Toronto", "created_at": "Sat Jul 16 06:10:02 +0000 2016", "klabel": 2}}, {"geometry": {"type": "Point", "coordinates": [-79.28347883, 43.78341799]}, "type": "Feature", "id": 754207700523872256, "properties": {"loc": [-79.28347883, 43.78341799], "centroid": [-79.444494501344, 43.782724739904], "screen_name": "_jasonbelly", "time": 1468670102.0, "tid": 754207700523872256, "text": "Dart is life \ud83c\udfaf @ Soft Bed https://t.co/j8JrA7rkbM", "created_at": "Sat Jul 16 06:55:02 +0000 2016", "klabel": 2}}, {"geometry": {"type": "Point", "coordinates": [-79.29464, 43.7629499]}, "type": "Feature", "id": 754414165964550145, "properties": {"loc": [-79.29464, 43.7629499], "centroid": [-79.444494501344, 43.782724739904], "screen_name": "iAseron", "time": 1468719328.0, "tid": 754414165964550145, "text": "Open mic! We're here tonight till 7pm! \ud83d\ude0a @FreshChoiceCafe @ Fresh Choice Cafe https://t.co/YxvaQLkjfY", "created_at": "Sat Jul 16 20:35:28 +0000 2016", "klabel": 2}}, {"geometry": {"type": "Point", "coordinates": [-79.3035306, 43.7820973]}, "type": "Feature", "id": 754428165280399360, "properties": {"loc": [-79.3035306, 43.7820973], "centroid": [-79.444494501344, 43.782724739904], "screen_name": "tofire", "time": 1468722665.0, "tid": 754428165280399360, "text": "Rescue (Elevator) - Bay Mills Boulevard b/w Eaglestone Road / Birchmount Road, Scarborough (3 Trucks)", "created_at": "Sat Jul 16 21:31:05 +0000 2016", "klabel": 2}}, {"geometry": {"type": "Point", "coordinates": [-79.3035306, 43.7820973]}, "type": "Feature", "id": 754428166140289024, "properties": {"loc": [-79.3035306, 43.7820973], "centroid": [-79.444494501344, 43.782724739904], "screen_name": "tofireE", "time": 1468722666.0, "tid": 754428166140289024, "text": "Rescue (Elevator) - Bay Mills Boulevard b/w Eaglestone Road / Birchmount Road, Scarborough (3 Trucks)", "created_at": "Sat Jul 16 21:31:06 +0000 2016", "klabel": 2}}, {"geometry": {"type": "Point", "coordinates": [-79.3065044, 43.7760041]}, "type": "Feature", "id": 754544926231261184, "properties": {"loc": [-79.3065044, 43.7760041], "centroid": [-79.444494501344, 43.782724739904], "screen_name": "tpscalls", "time": 1468750503.0, "tid": 754544926231261184, "text": "See Ambulance | Warden Ave &amp; 70 Cass Ave [42 Div.] 07/17 01:09 #Tam_O'Shanter_Sullivan #Toronto", "created_at": "Sun Jul 17 05:15:03 +0000 2016", "klabel": 2}}, {"geometry": {"type": "Point", "coordinates": [-79.3065044, 43.7760041]}, "type": "Feature", "id": 754634263291633664, "properties": {"loc": [-79.3065044, 43.7760041], "centroid": [-79.444494501344, 43.782724739904], "screen_name": "tpscalls", "time": 1468771803.0, "tid": 754634263291633664, "text": "Dispute | Warden Ave &amp; 70 Cass Ave [42 Div.] 07/17 07:05 #Tam_O'Shanter_Sullivan #Toronto", "created_at": "Sun Jul 17 11:10:03 +0000 2016", "klabel": 2}}, {"geometry": {"type": "Point", "coordinates": [-79.28182232, 43.77287632]}, "type": "Feature", "id": 754750434305253376, "properties": {"loc": [-79.28182232, 43.77287632], "centroid": [-79.444494501344, 43.782724739904], "screen_name": "missrogue", "time": 1468799500.0, "tid": 754750434305253376, "text": "Catching up with the brilliant and lovely @dannykellman (@ Cafe @MirageTo in Toronto, ON) https://t.co/1zdBR4jUMX https://t.co/f8Z6yCbjMF", "created_at": "Sun Jul 17 18:51:40 +0000 2016", "klabel": 2}}, {"geometry": {"type": "Point", "coordinates": [-79.305741, 43.76289]}, "type": "Feature", "id": 754752554957930496, "properties": {"loc": [-79.305741, 43.76289], "centroid": [-79.444494501344, 43.782724739904], "screen_name": "tofireE", "time": 1468800006.0, "tid": 754752554957930496, "text": "Medical (Chest Pains) - Crocus Dr b/w Sylla Avenue / Mayflower Avenue, Scarborough (2 Trucks)", "created_at": "Sun Jul 17 19:00:06 +0000 2016", "klabel": 2}}, {"geometry": {"type": "Point", "coordinates": [-79.2882901, 43.7832918]}, "type": "Feature", "id": 754754065825947648, "properties": {"loc": [-79.2882901, 43.7832918], "centroid": [-79.444494501344, 43.782724739904], "screen_name": "tofireE", "time": 1468800366.0, "tid": 754754065825947648, "text": "Fire (Grass/rubbish) - Kennedy Road @ Sheppard Avenue East, Scarborough (2 Trucks)", "created_at": "Sun Jul 17 19:06:06 +0000 2016", "klabel": 2}}, {"geometry": {"type": "Point", "coordinates": [-79.2882901, 43.7832918]}, "type": "Feature", "id": 754754066685788160, "properties": {"loc": [-79.2882901, 43.7832918], "centroid": [-79.444494501344, 43.782724739904], "screen_name": "tofiref", "time": 1468800366.0, "tid": 754754066685788160, "text": "Fire (Grass/rubbish) - Kennedy Road @ Sheppard Avenue East, Scarborough (2 Trucks)", "created_at": "Sun Jul 17 19:06:06 +0000 2016", "klabel": 2}}, {"geometry": {"type": "Point", "coordinates": [-79.2934411, 43.7820762]}, "type": "Feature", "id": 754755062472253440, "properties": {"loc": [-79.2934411, 43.7820762], "centroid": [-79.444494501344, 43.782724739904], "screen_name": "tofire", "time": 1468800604.0, "tid": 754755062472253440, "text": "UD: Fire (Grass/rubbish) - Sheppard Avenue b/w Allanford Road / Kennedy Road, Scarborough (2 Trucks)", "created_at": "Sun Jul 17 19:10:04 +0000 2016", "klabel": 2}}, {"geometry": {"type": "Point", "coordinates": [-79.2934411, 43.7820762]}, "type": "Feature", "id": 754755063801909248, "properties": {"loc": [-79.2934411, 43.7820762], "centroid": [-79.444494501344, 43.782724739904], "screen_name": "tofireE", "time": 1468800604.0, "tid": 754755063801909248, "text": "UD: Fire (Grass/rubbish) - Sheppard Avenue b/w Allanford Road / Kennedy Road, Scarborough (2 Trucks)", "created_at": "Sun Jul 17 19:10:04 +0000 2016", "klabel": 2}}, {"geometry": {"type": "Point", "coordinates": [-79.2934411, 43.7820762]}, "type": "Feature", "id": 754756320595734528, "properties": {"loc": [-79.2934411, 43.7820762], "centroid": [-79.444494501344, 43.782724739904], "screen_name": "tpscalls", "time": 1468800904.0, "tid": 754756320595734528, "text": "Fire | Allanford Rd &amp; Sheppard Ave E [42 Div.] 07/17 15:10 #Tam_O'Shanter #Toronto", "created_at": "Sun Jul 17 19:15:04 +0000 2016", "klabel": 2}}, {"geometry": {"type": "Point", "coordinates": [-79.305741, 43.76289]}, "type": "Feature", "id": 754757578677166084, "properties": {"loc": [-79.305741, 43.76289], "centroid": [-79.444494501344, 43.782724739904], "screen_name": "tofireE", "time": 1468801204.0, "tid": 754757578677166084, "text": "UD: Medical (Chest Pains) - Crocus Dr b/w Sylla Avenue / Mayflower Avenue, Scarborough (3 Trucks)", "created_at": "Sun Jul 17 19:20:04 +0000 2016", "klabel": 2}}, {"geometry": {"type": "Point", "coordinates": [-79.28137552, 43.77407475]}, "type": "Feature", "id": 754777639622103040, "properties": {"loc": [-79.28137552, 43.77407475], "centroid": [-79.444494501344, 43.782724739904], "screen_name": "kaylamarieTO", "time": 1468805987.0, "tid": 754777639622103040, "text": "Nothin beats a GOOD sweat\ud83d\udca6\ud83d\udcaa\ud83c\udffd #SundayGrind #Sprints #Core #GetItIn @ LA Fitness Scarborough -\u2026 https://t.co/vw4sTomqLV", "created_at": "Sun Jul 17 20:39:47 +0000 2016", "klabel": 2}}, {"geometry": {"type": "Point", "coordinates": [-79.2882901, 43.7832918]}, "type": "Feature", "id": 754881647108034560, "properties": {"loc": [-79.2882901, 43.7832918], "centroid": [-79.444494501344, 43.782724739904], "screen_name": "tpscalls", "time": 1468830784.0, "tid": 754881647108034560, "text": "Impaired Driver | Kennedy Rd &amp; Sheppard Ave E [42 Div.] 07/17 23:28 #Tam_O'Shanter_Sullivan #Toronto", "created_at": "Mon Jul 18 03:33:04 +0000 2016", "klabel": 2}}, {"geometry": {"type": "Point", "coordinates": [-79.2959794, 43.7832149]}, "type": "Feature", "id": 755053456243748864, "properties": {"loc": [-79.2959794, 43.7832149], "centroid": [-79.444494501344, 43.782724739904], "screen_name": "416PRINCEBEATZ", "time": 1468871746.0, "tid": 755053456243748864, "text": "https://t.co/M4jGptRaC4 @ShizzyDot  @WavyNick @DaWaveLIfe @ChiRaqBiz @ChiraqHomicide @donaldglover @Drake @torylanez @TeamHWG @CanadianHype", "created_at": "Mon Jul 18 14:55:46 +0000 2016", "klabel": 2}}, {"geometry": {"type": "Point", "coordinates": [-79.30232048, 43.78959173]}, "type": "Feature", "id": 755057564421947396, "properties": {"loc": [-79.30232048, 43.78959173], "centroid": [-79.444494501344, 43.782724739904], "screen_name": "foodie411", "time": 1468872726.0, "tid": 755057564421947396, "text": "I'm at Chris Jerk Caribbean Bistro in Toronto, ON https://t.co/5mNghLR4ql", "created_at": "Mon Jul 18 15:12:06 +0000 2016", "klabel": 2}}, {"geometry": {"type": "Point", "coordinates": [-79.2827664, 43.7722139]}, "type": "Feature", "id": 755152334884179968, "properties": {"loc": [-79.2827664, 43.7722139], "centroid": [-79.444494501344, 43.782724739904], "screen_name": "tmj_gta_hrta", "time": 1468895321.0, "tid": 755152334884179968, "text": "Can you recommend anyone for this #job? https://t.co/VFEuCODVW0 #Hospitality #Veterans #Hiring #CareerArc", "created_at": "Mon Jul 18 21:28:41 +0000 2016", "klabel": 2}}, {"geometry": {"type": "Point", "coordinates": [-79.2940318, 43.7849866]}, "type": "Feature", "id": 755177599085797377, "properties": {"loc": [-79.2940318, 43.7849866], "centroid": [-79.444494501344, 43.782724739904], "screen_name": "tpscalls", "time": 1468901344.0, "tid": 755177599085797377, "text": "Theft Just Occurred | Sheppard Ave E &amp; Bonis Ave [42 Div.] 07/18 19:03 #Tam_O'Shanter #Toronto", "created_at": "Mon Jul 18 23:09:04 +0000 2016", "klabel": 2}}, {"geometry": {"type": "Point", "coordinates": [-79.2827664, 43.7722139]}, "type": "Feature", "id": 755398292444319745, "properties": {"loc": [-79.2827664, 43.7722139], "centroid": [-79.444494501344, 43.782724739904], "screen_name": "tmj_gta_hrta", "time": 1468953962.0, "tid": 755398292444319745, "text": "We're #hiring! Read about our latest #job opening here: Shift Supervisor (CA) - https://t.co/ycelrXItBm #Hospitality #Veterans #CareerArc", "created_at": "Tue Jul 19 13:46:02 +0000 2016", "klabel": 2}}, {"geometry": {"type": "Point", "coordinates": [-79.29816492, 43.78114585]}, "type": "Feature", "id": 755448023325429760, "properties": {"loc": [-79.29816492, 43.78114585], "centroid": [-79.444494501344, 43.782724739904], "screen_name": "caiodias", "time": 1468965818.0, "tid": 755448023325429760, "text": "Essa \u00e9 diferen\u00e7a de quem quer ajudar e quem quer aparecer https://t.co/8fCRvspcvC", "created_at": "Tue Jul 19 17:03:38 +0000 2016", "klabel": 2}}, {"geometry": {"type": "Point", "coordinates": [-79.2882901, 43.7832918]}, "type": "Feature", "id": 755472288640802818, "properties": {"loc": [-79.2882901, 43.7832918], "centroid": [-79.444494501344, 43.782724739904], "screen_name": "tofire", "time": 1468971604.0, "tid": 755472288640802818, "text": "Medical (Trouble Breathing) - Sheppard Avenue East @ Kennedy Road, Scarborough (2 Trucks)", "created_at": "Tue Jul 19 18:40:04 +0000 2016", "klabel": 2}}, {"geometry": {"type": "Point", "coordinates": [-79.29816765, 43.78123094]}, "type": "Feature", "id": 755800258915897344, "properties": {"loc": [-79.29816765, 43.78123094], "centroid": [-79.444494501344, 43.782724739904], "screen_name": "caiodias", "time": 1469049798.0, "tid": 755800258915897344, "text": "@fsp4ever @bqeg se os pontos n\u00e3o expirarem. Se liga nisso.", "created_at": "Wed Jul 20 16:23:18 +0000 2016", "klabel": 2}}, {"geometry": {"type": "Point", "coordinates": [-79.30009861, 43.78064448]}, "type": "Feature", "id": 755800283465166848, "properties": {"loc": [-79.30009861, 43.78064448], "centroid": [-79.444494501344, 43.782724739904], "screen_name": "caiodias", "time": 1469049804.0, "tid": 755800283465166848, "text": "Brilho eterno de uma mente sem lembran\u00e7as https://t.co/r2Ezj12Ua2", "created_at": "Wed Jul 20 16:23:24 +0000 2016", "klabel": 2}}, {"geometry": {"type": "Point", "coordinates": [-79.2995541, 43.7806786]}, "type": "Feature", "id": 755802036256387072, "properties": {"loc": [-79.2995541, 43.7806786], "centroid": [-79.444494501344, 43.782724739904], "screen_name": "tmj_gta_hrta", "time": 1469050222.0, "tid": 755802036256387072, "text": "This #job might be a great fit for you: Barista (CA) - https://t.co/C0lUu17QcF #Hospitality #Veterans #Hiring #CareerArc", "created_at": "Wed Jul 20 16:30:22 +0000 2016", "klabel": 2}}, {"geometry": {"type": "Point", "coordinates": [-79.2839766, 43.78807]}, "type": "Feature", "id": 755892819299037184, "properties": {"loc": [-79.2839766, 43.78807], "centroid": [-79.444494501344, 43.782724739904], "screen_name": "tofireE", "time": 1469071866.0, "tid": 755892819299037184, "text": "Medical (Seizures/convulsions) - Agincourt Dr b/w Lockie Avenue / Havendale Road, Scarborough (2 Trucks)", "created_at": "Wed Jul 20 22:31:06 +0000 2016", "klabel": 2}}, {"geometry": {"type": "Point", "coordinates": [-79.2942919, 43.7689445]}, "type": "Feature", "id": 755936595434405888, "properties": {"loc": [-79.2942919, 43.7689445], "centroid": [-79.444494501344, 43.782724739904], "screen_name": "tpscalls", "time": 1469082303.0, "tid": 755936595434405888, "text": "Disorderlies | Ellesmere Rd &amp; Ridgetop Rd [41 Div.] 07/20 21:19 #Scarborough #Toronto", "created_at": "Thu Jul 21 01:25:03 +0000 2016", "klabel": 2}}, {"geometry": {"type": "Point", "coordinates": [-79.28111, 43.7732]}, "type": "Feature", "id": 756169714976624640, "properties": {"loc": [-79.28111, 43.7732], "centroid": [-79.444494501344, 43.782724739904], "screen_name": "stardchiu", "time": 1469137883.0, "tid": 756169714976624640, "text": "Greek food anyone? Pork #souvlaki #potato #vegetables #scarbto #scarborough #foodshot\u2026 https://t.co/9paHqR7fFM", "created_at": "Thu Jul 21 16:51:23 +0000 2016", "klabel": 2}}, {"geometry": {"type": "Point", "coordinates": [-79.2883, 43.78328]}, "type": "Feature", "id": 756271894853144576, "properties": {"loc": [-79.2883, 43.78328], "centroid": [-79.444494501344, 43.782724739904], "screen_name": "VDHMakeupHairs", "time": 1469162245.0, "tid": 756271894853144576, "text": "Short version of my mega #makeup &amp; #hair portfolio \u263a\ud83d\ude0e I have so far enjoyed working w/alot of\u2026 https://t.co/aYEVZO4dz5", "created_at": "Thu Jul 21 23:37:25 +0000 2016", "klabel": 2}}, {"geometry": {"type": "Point", "coordinates": [-79.29812874, 43.78121364]}, "type": "Feature", "id": 756532765441396736, "properties": {"loc": [-79.29812874, 43.78121364], "centroid": [-79.444494501344, 43.782724739904], "screen_name": "caiodias", "time": 1469224441.0, "tid": 756532765441396736, "text": "#dica https://t.co/HRJKZSxHm4", "created_at": "Fri Jul 22 16:54:01 +0000 2016", "klabel": 2}}, {"geometry": {"type": "Point", "coordinates": [-79.29792535, 43.78135812]}, "type": "Feature", "id": 756546145438932993, "properties": {"loc": [-79.29792535, 43.78135812], "centroid": [-79.444494501344, 43.782724739904], "screen_name": "caiodias", "time": 1469227631.0, "tid": 756546145438932993, "text": "Hahahahahaha #Pok\u00e9monGO https://t.co/8awNbCvwAX", "created_at": "Fri Jul 22 17:47:11 +0000 2016", "klabel": 2}}, {"geometry": {"type": "Point", "coordinates": [-79.31189, 43.77849]}, "type": "Feature", "id": 756618053476057088, "properties": {"loc": [-79.31189, 43.77849], "centroid": [-79.444494501344, 43.782724739904], "screen_name": "Worl_Orda", "time": 1469244775.0, "tid": 756618053476057088, "text": "Mi n mi chargie dem a guh consume ya now \ud83d\ude00 @ Red Lobster https://t.co/JWjnmhbuxn", "created_at": "Fri Jul 22 22:32:55 +0000 2016", "klabel": 2}}, {"geometry": {"type": "Point", "coordinates": [-79.28854361, 43.78284924]}, "type": "Feature", "id": 756658262699831296, "properties": {"loc": [-79.28854361, 43.78284924], "centroid": [-79.444494501344, 43.782724739904], "screen_name": "Worl_Orda", "time": 1469254362.0, "tid": 756658262699831296, "text": "Worry dem a worry Tru u a elevate....badmind nuh si nuttin yet @\u2026 https://t.co/9500ibGdb9", "created_at": "Sat Jul 23 01:12:42 +0000 2016", "klabel": 2}}, {"geometry": {"type": "Point", "coordinates": [-79.2980278, 43.7810453]}, "type": "Feature", "id": 756801544125833216, "properties": {"loc": [-79.2980278, 43.7810453], "centroid": [-79.444494501344, 43.782724739904], "screen_name": "tpscalls", "time": 1469288523.0, "tid": 756801544125833216, "text": "Personal Injury Collision | Birchmount Rd &amp; Sheppard Ave E [HP] 07/23 06:38 #Tam_O'Shanter #Toronto", "created_at": "Sat Jul 23 10:42:03 +0000 2016", "klabel": 2}}, {"geometry": {"type": "Point", "coordinates": [-79.29029, 43.794043]}, "type": "Feature", "id": 756806075047940096, "properties": {"loc": [-79.29029, 43.794043], "centroid": [-79.444494501344, 43.782724739904], "screen_name": "tpscalls", "time": 1469289603.0, "tid": 756806075047940096, "text": "Break &amp; Enter | Havendale Rd &amp; Linwood Ave [42 Div.] 07/23 06:55 #Agincourt #Toronto", "created_at": "Sat Jul 23 11:00:03 +0000 2016", "klabel": 2}}, {"geometry": {"type": "Point", "coordinates": [-79.2882901, 43.7832918]}, "type": "Feature", "id": 756887107742859264, "properties": {"loc": [-79.2882901, 43.7832918], "centroid": [-79.444494501344, 43.782724739904], "screen_name": "tpscalls", "time": 1469308923.0, "tid": 756887107742859264, "text": "Theft Just Occurred | Kennedy Rd &amp; Sheppard Ave E [42 Div.] 07/23 12:16 #Tam_O'Shanter_Sullivan #Toronto", "created_at": "Sat Jul 23 16:22:03 +0000 2016", "klabel": 2}}, {"geometry": {"type": "Point", "coordinates": [-79.2810314, 43.7726541]}, "type": "Feature", "id": 756888204289069056, "properties": {"loc": [-79.2810314, 43.7726541], "centroid": [-79.444494501344, 43.782724739904], "screen_name": "CeejMaderazo", "time": 1469309184.0, "tid": 756888204289069056, "text": "Chapters \ud83d\udcda @ Chapters Scarborough https://t.co/ohWMitmuuM", "created_at": "Sat Jul 23 16:26:24 +0000 2016", "klabel": 2}}, {"geometry": {"type": "Point", "coordinates": [-79.2980278, 43.7810453]}, "type": "Feature", "id": 756945746193178624, "properties": {"loc": [-79.2980278, 43.7810453], "centroid": [-79.444494501344, 43.782724739904], "screen_name": "tpscalls", "time": 1469322903.0, "tid": 756945746193178624, "text": "Personal Injury Collision | Birchmount Rd &amp; Sheppard Ave E [HP] 07/23 16:10 #Tam_O'Shanter #Toronto", "created_at": "Sat Jul 23 20:15:03 +0000 2016", "klabel": 2}}, {"geometry": {"type": "Point", "coordinates": [-79.3007888, 43.7611216]}, "type": "Feature", "id": 757267615249301504, "properties": {"loc": [-79.3007888, 43.7611216], "centroid": [-79.444494501344, 43.782724739904], "screen_name": "tpscalls", "time": 1469399643.0, "tid": 757267615249301504, "text": "Hazard | Warden Ave &amp; Ellesmere Rd [41 Div.] 07/24 13:27 #Wexford_Maryvale #Toronto", "created_at": "Sun Jul 24 17:34:03 +0000 2016", "klabel": 2}}, {"geometry": {"type": "Point", "coordinates": [-79.2980278, 43.7810453]}, "type": "Feature", "id": 757535630150819840, "properties": {"loc": [-79.2980278, 43.7810453], "centroid": [-79.444494501344, 43.782724739904], "screen_name": "tpscalls", "time": 1469463543.0, "tid": 757535630150819840, "text": "Person With A Gun | Birchmount Rd &amp; Sheppard Ave E [42 Div.] 07/25 07:12 #Tam_O'Shanter #Toronto", "created_at": "Mon Jul 25 11:19:03 +0000 2016", "klabel": 2}}, {"geometry": {"type": "Point", "coordinates": [-79.2827664, 43.7722139]}, "type": "Feature", "id": 757552686824775682, "properties": {"loc": [-79.2827664, 43.7722139], "centroid": [-79.444494501344, 43.782724739904], "screen_name": "tmj_gta_hrta", "time": 1469467609.0, "tid": 757552686824775682, "text": "If you're looking for work in , check out this #job: https://t.co/VFEuCODVW0 #Hospitality #Veterans #Hiring #CareerArc", "created_at": "Mon Jul 25 12:26:49 +0000 2016", "klabel": 2}}, {"geometry": {"type": "Point", "coordinates": [-79.2827664, 43.7722139]}, "type": "Feature", "id": 757590989208891392, "properties": {"loc": [-79.2827664, 43.7722139], "centroid": [-79.444494501344, 43.782724739904], "screen_name": "tmj_gta_hrta", "time": 1469476741.0, "tid": 757590989208891392, "text": "Can you recommend anyone for this #job? Shift Supervisor (CA) - https://t.co/ycelrXItBm #Hospitality #Veterans #Hiring #CareerArc", "created_at": "Mon Jul 25 14:59:01 +0000 2016", "klabel": 2}}, {"geometry": {"type": "Point", "coordinates": [-79.2994912, 43.7734271]}, "type": "Feature", "id": 757784777894297600, "properties": {"loc": [-79.2994912, 43.7734271], "centroid": [-79.444494501344, 43.782724739904], "screen_name": "tpscalls", "time": 1469522944.0, "tid": 757784777894297600, "text": "Missing Elderly | Scarden Ave &amp; Scarden Ave [42 Div.] 07/25 23:44 #Tam_O'Shanter #Toronto", "created_at": "Tue Jul 26 03:49:04 +0000 2016", "klabel": 2}}, {"geometry": {"type": "Point", "coordinates": [-79.2830011, 43.7785456]}, "type": "Feature", "id": 757786790937755648, "properties": {"loc": [-79.2830011, 43.7785456], "centroid": [-79.444494501344, 43.782724739904], "screen_name": "tpscalls", "time": 1469523424.0, "tid": 757786790937755648, "text": "Unknown Trouble | 401 C W Kennedy Rd S Ramp &amp; Village Green Sq [42 Div.] 07/25 23:51 #Scarborough #Toronto", "created_at": "Tue Jul 26 03:57:04 +0000 2016", "klabel": 2}}, {"geometry": {"type": "Point", "coordinates": [-79.28014651, 43.77388407]}, "type": "Feature", "id": 757983963898077184, "properties": {"loc": [-79.28014651, 43.77388407], "centroid": [-79.444494501344, 43.782724739904], "screen_name": "Triplebogey", "time": 1469570434.0, "tid": 757983963898077184, "text": "#betterhitanother @triplebogey &amp; @hurryhardbeer are now available on-line lcbo Who would have\u2026 https://t.co/tLYyh3jOgI", "created_at": "Tue Jul 26 17:00:34 +0000 2016", "klabel": 2}}, {"geometry": {"type": "Point", "coordinates": [-79.3065044, 43.7760041]}, "type": "Feature", "id": 758217367239483392, "properties": {"loc": [-79.3065044, 43.7760041], "centroid": [-79.444494501344, 43.782724739904], "screen_name": "tpscalls", "time": 1469626082.0, "tid": 758217367239483392, "text": "Disorderlies | Warden Ave &amp; 70 Cass Ave [42 Div.] 07/27 04:23 #Tam_O'Shanter_Sullivan #Toronto", "created_at": "Wed Jul 27 08:28:02 +0000 2016", "klabel": 2}}, {"geometry": {"type": "Point", "coordinates": [-79.2934411, 43.7820762]}, "type": "Feature", "id": 758424496088940545, "properties": {"loc": [-79.2934411, 43.7820762], "centroid": [-79.444494501344, 43.782724739904], "screen_name": "tofire", "time": 1469675465.0, "tid": 758424496088940545, "text": "Medical (Vsa) - Sheppard Avenue b/w Allanford Road / Kennedy Road, Scarborough (2 Trucks)", "created_at": "Wed Jul 27 22:11:05 +0000 2016", "klabel": 2}}, {"geometry": {"type": "Point", "coordinates": [-79.2934411, 43.7820762]}, "type": "Feature", "id": 758424497045245952, "properties": {"loc": [-79.2934411, 43.7820762], "centroid": [-79.444494501344, 43.782724739904], "screen_name": "tofireE", "time": 1469675465.0, "tid": 758424497045245952, "text": "Medical (Vsa) - Sheppard Avenue b/w Allanford Road / Kennedy Road, Scarborough (2 Trucks)", "created_at": "Wed Jul 27 22:11:05 +0000 2016", "klabel": 2}}, {"geometry": {"type": "Point", "coordinates": [-79.29755467, 43.78136882]}, "type": "Feature", "id": 758672887129657344, "properties": {"loc": [-79.29755467, 43.78136882], "centroid": [-79.444494501344, 43.782724739904], "screen_name": "caiodias", "time": 1469734686.0, "tid": 758672887129657344, "text": "Pois \u00e9, n\u00e3o faz sentido. https://t.co/s5IG9fwShv", "created_at": "Thu Jul 28 14:38:06 +0000 2016", "klabel": 2}}, {"geometry": {"type": "Point", "coordinates": [-79.2995541, 43.7806786]}, "type": "Feature", "id": 758727910182100992, "properties": {"loc": [-79.2995541, 43.7806786], "centroid": [-79.444494501344, 43.782724739904], "screen_name": "tmj_gta_hrta", "time": 1469747804.0, "tid": 758727910182100992, "text": "Can you recommend anyone for this #job? Shift Supervisor (CA) - https://t.co/dsXOcmoJPN #Hospitality #Veterans #Hiring #CareerArc", "created_at": "Thu Jul 28 18:16:44 +0000 2016", "klabel": 2}}, {"geometry": {"type": "Point", "coordinates": [-79.3006656, 43.7611348]}, "type": "Feature", "id": 758819087275266048, "properties": {"loc": [-79.3006656, 43.7611348], "centroid": [-79.444494501344, 43.782724739904], "screen_name": "tpscalls", "time": 1469769543.0, "tid": 758819087275266048, "text": "Hazard | Ellesmere Rd &amp; Warden Ave [41 Div.] 07/28 20:12 #Wexford_Maryvale #Toronto", "created_at": "Fri Jul 29 00:19:03 +0000 2016", "klabel": 2}}, {"geometry": {"type": "Point", "coordinates": [-79.2778105, 43.778434]}, "type": "Feature", "id": 759050616350007296, "properties": {"loc": [-79.2778105, 43.778434], "centroid": [-79.444494501344, 43.782724739904], "screen_name": "tpscalls", "time": 1469824744.0, "tid": 759050616350007296, "text": "Dispute | Progress Ave &amp; Emblem Crt [41 Div.] 07/29 11:33 #Agincourt #Toronto", "created_at": "Fri Jul 29 15:39:04 +0000 2016", "klabel": 2}}, {"geometry": {"type": "Point", "coordinates": [-79.3034128, 43.765284]}, "type": "Feature", "id": 759171662898143232, "properties": {"loc": [-79.3034128, 43.765284], "centroid": [-79.444494501344, 43.782724739904], "screen_name": "tpscalls", "time": 1469853603.0, "tid": 759171662898143232, "text": "Break &amp; Enter | Sylla Ave &amp; Lupin Dr [41 Div.] 07/29 19:35 #Wexford_Maryvale #Toronto", "created_at": "Fri Jul 29 23:40:03 +0000 2016", "klabel": 2}}, {"geometry": {"type": "Point", "coordinates": [-79.2860971, 43.7820147]}, "type": "Feature", "id": 759447986015535104, "properties": {"loc": [-79.2860971, 43.7820147], "centroid": [-79.444494501344, 43.782724739904], "screen_name": "tpscalls", "time": 1469919484.0, "tid": 759447986015535104, "text": "Dispute | Kennedy Rd &amp; Gordon Ave [42 Div.] 07/30 13:52 #Agincourt #Toronto", "created_at": "Sat Jul 30 17:58:04 +0000 2016", "klabel": 2}}, {"geometry": {"type": "Point", "coordinates": [-79.2980278, 43.7810453]}, "type": "Feature", "id": 759523985650507776, "properties": {"loc": [-79.2980278, 43.7810453], "centroid": [-79.444494501344, 43.782724739904], "screen_name": "tpscalls", "time": 1469937604.0, "tid": 759523985650507776, "text": "See Ambulance | Birchmount Rd &amp; Sheppard Ave E [42 Div.] 07/30 18:56 #Tam_O'Shanter #Toronto", "created_at": "Sat Jul 30 23:00:04 +0000 2016", "klabel": 2}}, {"geometry": {"type": "Point", "coordinates": [-79.30061099, 43.76944586]}, "type": "Feature", "id": 759606852594372608, "properties": {"loc": [-79.30061099, 43.76944586], "centroid": [-79.444494501344, 43.782724739904], "screen_name": "CAMChasingAMill", "time": 1469957361.0, "tid": 759606852594372608, "text": "After some technical difficulties he finally poped the #Bottle of\u2026 https://t.co/ifTHQ7VKnG", "created_at": "Sun Jul 31 04:29:21 +0000 2016", "klabel": 2}}, {"geometry": {"type": "Point", "coordinates": [-79.30247782, 43.78987745]}, "type": "Feature", "id": 759803301575663617, "properties": {"loc": [-79.30247782, 43.78987745], "centroid": [-79.444494501344, 43.782724739904], "screen_name": "mquach", "time": 1470004198.0, "tid": 759803301575663617, "text": "I'm at Mexico Lindo in Scarborough, ON https://t.co/hL361HaHnX", "created_at": "Sun Jul 31 17:29:58 +0000 2016", "klabel": 2}}, {"geometry": {"type": "Point", "coordinates": [-79.28260543, 43.77691878]}, "type": "Feature", "id": 759861144093880320, "properties": {"loc": [-79.28260543, 43.77691878], "centroid": [-79.444494501344, 43.782724739904], "screen_name": "RichHomieDre", "time": 1470017988.0, "tid": 759861144093880320, "text": "It's foreva wit my twin bros in the 6.. weareagame \ud83d\udcaf\u274c\ud83d\udcaf @ Delta Toronto East https://t.co/0zw0948LZw", "created_at": "Sun Jul 31 21:19:48 +0000 2016", "klabel": 2}}, {"geometry": {"type": "Point", "coordinates": [-79.29210663, 43.78373623]}, "type": "Feature", "id": 759872221749846016, "properties": {"loc": [-79.29210663, 43.78373623], "centroid": [-79.444494501344, 43.782724739904], "screen_name": "Andruchovici", "time": 1470020630.0, "tid": 759872221749846016, "text": "I'm at Agincourt Mall in Scarborough, Ontario https://t.co/pwibxlj0Vy", "created_at": "Sun Jul 31 22:03:50 +0000 2016", "klabel": 2}}, {"geometry": {"type": "Point", "coordinates": [-79.2995541, 43.7806786]}, "type": "Feature", "id": 760184926029303808, "properties": {"loc": [-79.2995541, 43.7806786], "centroid": [-79.444494501344, 43.782724739904], "screen_name": "tmj_gta_hrta", "time": 1470095184.0, "tid": 760184926029303808, "text": "Want to work at Starbucks? We're #hiring in ! Click for details: https://t.co/C0lUu17QcF #Job #Hospitality #Veterans #Jobs #CareerArc", "created_at": "Mon Aug 01 18:46:24 +0000 2016", "klabel": 2}}, {"geometry": {"type": "Point", "coordinates": [-79.2882901, 43.7832918]}, "type": "Feature", "id": 760523075003748352, "properties": {"loc": [-79.2882901, 43.7832918], "centroid": [-79.444494501344, 43.782724739904], "screen_name": "tofireE", "time": 1470175805.0, "tid": 760523075003748352, "text": "Tems Transferred (Read Remarks) - Sheppard Avenue East @ Kennedy Road, Scarborough (2 Trucks)", "created_at": "Tue Aug 02 17:10:05 +0000 2016", "klabel": 2}}, {"geometry": {"type": "Point", "coordinates": [-79.3035306, 43.7820973]}, "type": "Feature", "id": 760535657227911168, "properties": {"loc": [-79.3035306, 43.7820973], "centroid": [-79.444494501344, 43.782724739904], "screen_name": "tofire", "time": 1470178805.0, "tid": 760535657227911168, "text": "Carbon Monoxide (Non Medical) - Bay Mills Boulevard b/w Eaglestone Road / Birchmount Road, Scarborough (2 Trucks)", "created_at": "Tue Aug 02 18:00:05 +0000 2016", "klabel": 2}}, {"geometry": {"type": "Point", "coordinates": [-79.3035306, 43.7820973]}, "type": "Feature", "id": 760535657995505664, "properties": {"loc": [-79.3035306, 43.7820973], "centroid": [-79.444494501344, 43.782724739904], "screen_name": "tofireE", "time": 1470178805.0, "tid": 760535657995505664, "text": "Carbon Monoxide (Non Medical) - Bay Mills Boulevard b/w Eaglestone Road / Birchmount Road, Scarborough (2 Trucks)", "created_at": "Tue Aug 02 18:00:05 +0000 2016", "klabel": 2}}, {"geometry": {"type": "Point", "coordinates": [-79.2980278, 43.7810453]}, "type": "Feature", "id": 760545978739003396, "properties": {"loc": [-79.2980278, 43.7810453], "centroid": [-79.444494501344, 43.782724739904], "screen_name": "tofire", "time": 1470181266.0, "tid": 760545978739003396, "text": "Medical (Chest Pains) - Sheppard Avenue b/w Birchmount Road / Allanford Road, Scarborough (2 Trucks)", "created_at": "Tue Aug 02 18:41:06 +0000 2016", "klabel": 2}}, {"geometry": {"type": "Point", "coordinates": [-79.2980278, 43.7810453]}, "type": "Feature", "id": 760545979565309952, "properties": {"loc": [-79.2980278, 43.7810453], "centroid": [-79.444494501344, 43.782724739904], "screen_name": "tofireE", "time": 1470181266.0, "tid": 760545979565309952, "text": "Medical (Chest Pains) - Sheppard Avenue b/w Birchmount Road / Allanford Road, Scarborough (2 Trucks)", "created_at": "Tue Aug 02 18:41:06 +0000 2016", "klabel": 2}}, {"geometry": {"type": "Point", "coordinates": [-79.2935797, 43.7782856]}, "type": "Feature", "id": 760729923837452288, "properties": {"loc": [-79.2935797, 43.7782856], "centroid": [-79.444494501344, 43.782724739904], "screen_name": "tpscalls", "time": 1470225122.0, "tid": 760729923837452288, "text": "Unknown Trouble | Allanford Rd &amp; Allanford Rd [42 Div.] 08/03 02:47 #Tam_O'Shanter #Toronto", "created_at": "Wed Aug 03 06:52:02 +0000 2016", "klabel": 2}}, {"geometry": {"type": "Point", "coordinates": [-79.29772148, 43.78079328]}, "type": "Feature", "id": 760867693696282624, "properties": {"loc": [-79.29772148, 43.78079328], "centroid": [-79.444494501344, 43.782724739904], "screen_name": "Ashrex4life", "time": 1470257969.0, "tid": 760867693696282624, "text": "At the dentist @ Sheppard Ave E And Birchmount https://t.co/v1uowQooPk", "created_at": "Wed Aug 03 15:59:29 +0000 2016", "klabel": 2}}, {"geometry": {"type": "Point", "coordinates": [-79.2940318, 43.7849866]}, "type": "Feature", "id": 760940566557388801, "properties": {"loc": [-79.2940318, 43.7849866], "centroid": [-79.444494501344, 43.782724739904], "screen_name": "tpscalls", "time": 1470275343.0, "tid": 760940566557388801, "text": "Disorderlies | Sheppard Ave E &amp; Bonis Ave [42 Div.] 08/03 16:43 #Tam_O'Shanter #Toronto", "created_at": "Wed Aug 03 20:49:03 +0000 2016", "klabel": 2}}, {"geometry": {"type": "Point", "coordinates": [-79.3065044, 43.7760041]}, "type": "Feature", "id": 760948114903662592, "properties": {"loc": [-79.3065044, 43.7760041], "centroid": [-79.444494501344, 43.782724739904], "screen_name": "tpscalls", "time": 1470277142.0, "tid": 760948114903662592, "text": "Hazard | Warden Ave &amp; Palmdale Dr [42 Div.] 08/03 17:14 #Tam_O'Shanter_Sullivan #Toronto", "created_at": "Wed Aug 03 21:19:02 +0000 2016", "klabel": 2}}, {"geometry": {"type": "Point", "coordinates": [-79.29728274, 43.76299204]}, "type": "Feature", "id": 760960515099295744, "properties": {"loc": [-79.29728274, 43.76299204], "centroid": [-79.444494501344, 43.782724739904], "screen_name": "YouStayClassy_", "time": 1470280099.0, "tid": 760960515099295744, "text": "Quiet time at work. @ The Home Depot https://t.co/wqh8YVRp2Y", "created_at": "Wed Aug 03 22:08:19 +0000 2016", "klabel": 2}}, {"geometry": {"type": "Point", "coordinates": [-79.2882901, 43.7832918]}, "type": "Feature", "id": 760964726994206720, "properties": {"loc": [-79.2882901, 43.7832918], "centroid": [-79.444494501344, 43.782724739904], "screen_name": "tpscalls", "time": 1470281103.0, "tid": 760964726994206720, "text": "Assault Just Occurred | Kennedy Rd &amp; Sheppard Ave E [42 Div.] 08/03 18:19 #Tam_O'Shanter_Sullivan #Toronto", "created_at": "Wed Aug 03 22:25:03 +0000 2016", "klabel": 2}}, {"geometry": {"type": "Point", "coordinates": [-79.30586699, 43.76979458]}, "type": "Feature", "id": 761036334341382145, "properties": {"loc": [-79.30586699, 43.76979458], "centroid": [-79.444494501344, 43.782724739904], "screen_name": "Blsdwoman", "time": 1470298176.0, "tid": 761036334341382145, "text": "So one day I'd love to drive or own one of these \"bad boys\" but in red though........with a\u2026 https://t.co/cpbsvEWVav", "created_at": "Thu Aug 04 03:09:36 +0000 2016", "klabel": 2}}, {"geometry": {"type": "Point", "coordinates": [-79.3035306, 43.7820973]}, "type": "Feature", "id": 761055327529820160, "properties": {"loc": [-79.3035306, 43.7820973], "centroid": [-79.444494501344, 43.782724739904], "screen_name": "tpscalls", "time": 1470302704.0, "tid": 761055327529820160, "text": "Stabbing | Bay Mills Blvd &amp; Eaglestone Rd [42 Div.] 08/04 00:20 #Tam_O'Shanter #Toronto", "created_at": "Thu Aug 04 04:25:04 +0000 2016", "klabel": 2}}, {"geometry": {"type": "Point", "coordinates": [-79.3035306, 43.7820973]}, "type": "Feature", "id": 761089293783748608, "properties": {"loc": [-79.3035306, 43.7820973], "centroid": [-79.444494501344, 43.782724739904], "screen_name": "tpscalls", "time": 1470310802.0, "tid": 761089293783748608, "text": "Robbery | Bay Mills Blvd &amp; Eaglestone Rd [42 Div.] 08/04 02:33 #Tam_O'Shanter #Toronto", "created_at": "Thu Aug 04 06:40:02 +0000 2016", "klabel": 2}}, {"geometry": {"type": "Point", "coordinates": [-79.3014235, 43.7638638]}, "type": "Feature", "id": 761201789312139267, "properties": {"loc": [-79.3014235, 43.7638638], "centroid": [-79.444494501344, 43.782724739904], "screen_name": "tpscalls", "time": 1470337623.0, "tid": 761201789312139267, "text": "Property Damage Collision | Warden Ave &amp; Sylla Ave [41 Div.] 08/04 10:02 #Wexford_Maryvale #Toronto", "created_at": "Thu Aug 04 14:07:03 +0000 2016", "klabel": 2}}, {"geometry": {"type": "Point", "coordinates": [-79.3035306, 43.7820973]}, "type": "Feature", "id": 761302199624429569, "properties": {"loc": [-79.3035306, 43.7820973], "centroid": [-79.444494501344, 43.782724739904], "screen_name": "tofire", "time": 1470361563.0, "tid": 761302199624429569, "text": "Alarm Highrise Residential - Bay Mills Boulevard b/w Eaglestone Road / Birchmount Road, Scarborough (6 Trucks)", "created_at": "Thu Aug 04 20:46:03 +0000 2016", "klabel": 2}}, {"geometry": {"type": "Point", "coordinates": [-79.3035306, 43.7820973]}, "type": "Feature", "id": 761302200614260737, "properties": {"loc": [-79.3035306, 43.7820973], "centroid": [-79.444494501344, 43.782724739904], "screen_name": "tofireE", "time": 1470361563.0, "tid": 761302200614260737, "text": "Alarm Highrise Residential - Bay Mills Boulevard b/w Eaglestone Road / Birchmount Road, Scarborough (6 Trucks)", "created_at": "Thu Aug 04 20:46:03 +0000 2016", "klabel": 2}}, {"geometry": {"type": "Point", "coordinates": [-79.28260543, 43.77691878]}, "type": "Feature", "id": 761619334682861569, "properties": {"loc": [-79.28260543, 43.77691878], "centroid": [-79.444494501344, 43.782724739904], "screen_name": "Staangette", "time": 1470437174.0, "tid": 761619334682861569, "text": "WOW! One of our players father's had these put in all our rooms! 7th floor is gonna be a\u2026 https://t.co/Bh7gNEhnGM", "created_at": "Fri Aug 05 17:46:14 +0000 2016", "klabel": 2}}, {"geometry": {"type": "Point", "coordinates": [-79.30233789, 43.78988495]}, "type": "Feature", "id": 761623147829456896, "properties": {"loc": [-79.30233789, 43.78988495], "centroid": [-79.444494501344, 43.782724739904], "screen_name": "MartiSison", "time": 1470438083.0, "tid": 761623147829456896, "text": "A dope carribean joint!!  Waiting on my oxtail. #oxtail #jamaicanfood #scarborough #garyvee\u2026 https://t.co/6ZIaw9VwgG", "created_at": "Fri Aug 05 18:01:23 +0000 2016", "klabel": 2}}, {"geometry": {"type": "Point", "coordinates": [-79.2856649, 43.7772083]}, "type": "Feature", "id": 761647976607539200, "properties": {"loc": [-79.2856649, 43.7772083], "centroid": [-79.444494501344, 43.782724739904], "screen_name": "tpscalls", "time": 1470444003.0, "tid": 761647976607539200, "text": "Property Damage Collision | Kennedy Rd &amp; Village Green Sq [42 Div.] 08/05 15:33 #Tam_O'Shanter #Toronto", "created_at": "Fri Aug 05 19:40:03 +0000 2016", "klabel": 2}}, {"geometry": {"type": "Point", "coordinates": [-79.2831239, 43.7717368]}, "type": "Feature", "id": 761687993992224768, "properties": {"loc": [-79.2831239, 43.7717368], "centroid": [-79.444494501344, 43.782724739904], "screen_name": "tpscalls", "time": 1470453543.0, "tid": 761687993992224768, "text": "Personal Injury Collision | Kennedy Rd &amp; Antrim Cres [HP] 08/05 18:12 #Dorset_Park #Toronto", "created_at": "Fri Aug 05 22:19:03 +0000 2016", "klabel": 2}}, {"geometry": {"type": "Point", "coordinates": [-79.2778105, 43.778434]}, "type": "Feature", "id": 761687992541085696, "properties": {"loc": [-79.2778105, 43.778434], "centroid": [-79.444494501344, 43.782724739904], "screen_name": "tpscalls", "time": 1470453543.0, "tid": 761687992541085696, "text": "Assault Just Occurred | Progress Ave &amp; Emblem Crt [41 Div.] 08/05 18:13 #Agincourt #Toronto", "created_at": "Fri Aug 05 22:19:03 +0000 2016", "klabel": 2}}, {"geometry": {"type": "Point", "coordinates": [-79.2997365, 43.7791629]}, "type": "Feature", "id": 761702334607024128, "properties": {"loc": [-79.2997365, 43.7791629], "centroid": [-79.444494501344, 43.782724739904], "screen_name": "tpscalls", "time": 1470456962.0, "tid": 761702334607024128, "text": "See Ambulance | Amulet St &amp; Amethyst Rd [42 Div.] 08/05 19:09 #Tam_O'Shanter #Toronto", "created_at": "Fri Aug 05 23:16:02 +0000 2016", "klabel": 2}}, {"geometry": {"type": "Point", "coordinates": [-79.2999081, 43.7787082]}, "type": "Feature", "id": 761718847627988992, "properties": {"loc": [-79.2999081, 43.7787082], "centroid": [-79.444494501344, 43.782724739904], "screen_name": "MarvinDookharan", "time": 1470460899.0, "tid": 761718847627988992, "text": "@FreeWILLisFalse Research shows that massage therapy reduces aggression...we could prevent so much crime with massages...so why don't we?", "created_at": "Sat Aug 06 00:21:39 +0000 2016", "klabel": 2}}, {"geometry": {"type": "Point", "coordinates": [-79.2998158, 43.7785356]}, "type": "Feature", "id": 761907162532700161, "properties": {"loc": [-79.2998158, 43.7785356], "centroid": [-79.444494501344, 43.782724739904], "screen_name": "MarvinDookharan", "time": 1470505797.0, "tid": 761907162532700161, "text": "@FreeWILLisFalse Massage therapy has a big effect https://t.co/OhdQX0pR5a", "created_at": "Sat Aug 06 12:49:57 +0000 2016", "klabel": 2}}, {"geometry": {"type": "Point", "coordinates": [-79.2998158, 43.7785356]}, "type": "Feature", "id": 761909547845902336, "properties": {"loc": [-79.2998158, 43.7785356], "centroid": [-79.444494501344, 43.782724739904], "screen_name": "MarvinDookharan", "time": 1470506366.0, "tid": 761909547845902336, "text": "@FreeWILLisFalse Also nutrition influences the developing brain https://t.co/Tk85bt2XyK", "created_at": "Sat Aug 06 12:59:26 +0000 2016", "klabel": 2}}, {"geometry": {"type": "Point", "coordinates": [-79.2998132, 43.7785516]}, "type": "Feature", "id": 761913627032952834, "properties": {"loc": [-79.2998132, 43.7785516], "centroid": [-79.444494501344, 43.782724739904], "screen_name": "MarvinDookharan", "time": 1470507339.0, "tid": 761913627032952834, "text": "@FreeWILLisFalse I wonder if things like the Batman movie theater or VA tech shooting wouldn't have happened if they got daily massages", "created_at": "Sat Aug 06 13:15:39 +0000 2016", "klabel": 2}}, {"geometry": {"type": "Point", "coordinates": [-79.2827664, 43.7722139]}, "type": "Feature", "id": 761947819586428932, "properties": {"loc": [-79.2827664, 43.7722139], "centroid": [-79.444494501344, 43.782724739904], "screen_name": "tmj_gta_hrta", "time": 1470515491.0, "tid": 761947819586428932, "text": "This #job might be a great fit for you: Barista (CA) - https://t.co/VFEuCODVW0 #Hospitality #Veterans #Hiring #CareerArc", "created_at": "Sat Aug 06 15:31:31 +0000 2016", "klabel": 2}}, {"geometry": {"type": "Point", "coordinates": [-79.2827664, 43.7722139]}, "type": "Feature", "id": 761985445072822272, "properties": {"loc": [-79.2827664, 43.7722139], "centroid": [-79.444494501344, 43.782724739904], "screen_name": "tmj_gta_hrta", "time": 1470524461.0, "tid": 761985445072822272, "text": "We're #hiring! Click to apply: Shift Supervisor (CA) - https://t.co/ycelrXItBm #Job #Hospitality #Veterans #Jobs #CareerArc", "created_at": "Sat Aug 06 18:01:01 +0000 2016", "klabel": 2}}, {"geometry": {"type": "Point", "coordinates": [-79.2908907, 43.765956]}, "type": "Feature", "id": 762116570353205249, "properties": {"loc": [-79.2908907, 43.765956], "centroid": [-79.444494501344, 43.782724739904], "screen_name": "tpscalls", "time": 1470555724.0, "tid": 762116570353205249, "text": "Noise Complaint | Ellesmere Rd &amp; Carrera Blvd [41 Div.] 08/06 22:36 #Dorset_Park #Toronto", "created_at": "Sun Aug 07 02:42:04 +0000 2016", "klabel": 2}}, {"geometry": {"type": "Point", "coordinates": [-79.302887, 43.767164]}, "type": "Feature", "id": 762363951988506624, "properties": {"loc": [-79.302887, 43.767164], "centroid": [-79.444494501344, 43.782724739904], "screen_name": "tofireE", "time": 1470614704.0, "tid": 762363951988506624, "text": "Check Call - Metropolitan Road @ Warden Avenue, Scarborough (2 Trucks)", "created_at": "Sun Aug 07 19:05:04 +0000 2016", "klabel": 2}}, {"geometry": {"type": "Point", "coordinates": [-79.302887, 43.767164]}, "type": "Feature", "id": 762365211718381568, "properties": {"loc": [-79.302887, 43.767164], "centroid": [-79.444494501344, 43.782724739904], "screen_name": "tofireE", "time": 1470615005.0, "tid": 762365211718381568, "text": "UD: Fire (Grass/rubbish) - Metropolitan Road @ Warden Avenue, Scarborough (2 Trucks)", "created_at": "Sun Aug 07 19:10:05 +0000 2016", "klabel": 2}}, {"geometry": {"type": "Point", "coordinates": [-79.302887, 43.767164]}, "type": "Feature", "id": 762365212741734400, "properties": {"loc": [-79.302887, 43.767164], "centroid": [-79.444494501344, 43.782724739904], "screen_name": "tofiref", "time": 1470615005.0, "tid": 762365212741734400, "text": "UD: Fire (Grass/rubbish) - Metropolitan Road @ Warden Avenue, Scarborough (2 Trucks)", "created_at": "Sun Aug 07 19:10:05 +0000 2016", "klabel": 2}}, {"geometry": {"type": "Point", "coordinates": [-79.286438, 43.7880425]}, "type": "Feature", "id": 762653355814559744, "properties": {"loc": [-79.286438, 43.7880425], "centroid": [-79.444494501344, 43.782724739904], "screen_name": "tofire", "time": 1470683704.0, "tid": 762653355814559744, "text": "Medical (Unconscious) - Reidmount Avenue b/w Marilyn Avenue / Kennedy Road, Scarborough (2 Trucks)", "created_at": "Mon Aug 08 14:15:04 +0000 2016", "klabel": 2}}, {"geometry": {"type": "Point", "coordinates": [-79.286438, 43.7880425]}, "type": "Feature", "id": 762653356745785344, "properties": {"loc": [-79.286438, 43.7880425], "centroid": [-79.444494501344, 43.782724739904], "screen_name": "tofireE", "time": 1470683704.0, "tid": 762653356745785344, "text": "Medical (Unconscious) - Reidmount Avenue b/w Marilyn Avenue / Kennedy Road, Scarborough (2 Trucks)", "created_at": "Mon Aug 08 14:15:04 +0000 2016", "klabel": 2}}, {"geometry": {"type": "Point", "coordinates": [-79.2778105, 43.778434]}, "type": "Feature", "id": 762730607873028097, "properties": {"loc": [-79.2778105, 43.778434], "centroid": [-79.444494501344, 43.782724739904], "screen_name": "tpscalls", "time": 1470702122.0, "tid": 762730607873028097, "text": "Pc Holding One | Progress Ave &amp; Emblem Crt [41 Div.] 08/08 15:15 #Agincourt #Toronto", "created_at": "Mon Aug 08 19:22:02 +0000 2016", "klabel": 2}}, {"geometry": {"type": "Point", "coordinates": [-79.28974273, 43.78386488]}, "type": "Feature", "id": 762786031238311936, "properties": {"loc": [-79.28974273, 43.78386488], "centroid": [-79.444494501344, 43.782724739904], "screen_name": "Trustme233", "time": 1470715336.0, "tid": 762786031238311936, "text": "I'm at Shoppers Drug Mart in Scarborough, ON https://t.co/52I2iFZgue", "created_at": "Mon Aug 08 23:02:16 +0000 2016", "klabel": 2}}, {"geometry": {"type": "Point", "coordinates": [-79.29116249, 43.78443334]}, "type": "Feature", "id": 762794065368875008, "properties": {"loc": [-79.29116249, 43.78443334], "centroid": [-79.444494501344, 43.782724739904], "screen_name": "Trustme233", "time": 1470717251.0, "tid": 762794065368875008, "text": "\u5934\u56de\u6765\u591a\u4f26\u591a\u7684\u6c83\u5c14\u739b (at @WalmartCanada in Agincourt, ON) https://t.co/naeXDVqfBG", "created_at": "Mon Aug 08 23:34:11 +0000 2016", "klabel": 2}}, {"geometry": {"type": "Point", "coordinates": [-79.28260543, 43.77691878]}, "type": "Feature", "id": 762794409318420482, "properties": {"loc": [-79.28260543, 43.77691878], "centroid": [-79.444494501344, 43.782724739904], "screen_name": "Drummer0992", "time": 1470717333.0, "tid": 762794409318420482, "text": "Not a bad steak, I'll try the lobster tomorrow haha @ Delta Toronto\u2026 https://t.co/Ptps7BkKMV", "created_at": "Mon Aug 08 23:35:33 +0000 2016", "klabel": 2}}, {"geometry": {"type": "Point", "coordinates": [-79.3003925, 43.7775945]}, "type": "Feature", "id": 762807618893148162, "properties": {"loc": [-79.3003925, 43.7775945], "centroid": [-79.444494501344, 43.782724739904], "screen_name": "tpscalls", "time": 1470720483.0, "tid": 762807618893148162, "text": "Disorderlies | Lowcrest Blvd &amp; Cass Ave [42 Div.] 08/08 20:21 #Tam_O'Shanter #Toronto", "created_at": "Tue Aug 09 00:28:03 +0000 2016", "klabel": 2}}, {"geometry": {"type": "Point", "coordinates": [-79.30719238, 43.77989044]}, "type": "Feature", "id": 762995653156958208, "properties": {"loc": [-79.30719238, 43.77989044], "centroid": [-79.444494501344, 43.782724739904], "screen_name": "Karabouzoukli", "time": 1470765314.0, "tid": 762995653156958208, "text": "Old pals. https://t.co/foEdKx6a50", "created_at": "Tue Aug 09 12:55:14 +0000 2016", "klabel": 2}}, {"geometry": {"type": "Point", "coordinates": [-79.2995541, 43.7806786]}, "type": "Feature", "id": 763119674934464512, "properties": {"loc": [-79.2995541, 43.7806786], "centroid": [-79.444494501344, 43.782724739904], "screen_name": "tmj_gta_hrta", "time": 1470794883.0, "tid": 763119674934464512, "text": "Want to work at Starbucks? We're #hiring in ! Click for details: https://t.co/dsXOcmoJPN #Job #Hospitality #Veterans #Jobs #CareerArc", "created_at": "Tue Aug 09 21:08:03 +0000 2016", "klabel": 2}}, {"geometry": {"type": "Point", "coordinates": [-79.2980278, 43.7810453]}, "type": "Feature", "id": 763385931269337088, "properties": {"loc": [-79.2980278, 43.7810453], "centroid": [-79.444494501344, 43.782724739904], "screen_name": "tpscalls", "time": 1470858363.0, "tid": 763385931269337088, "text": "Hazard | Sheppard Ave E &amp; Birchmount Rd [42 Div.] 08/10 10:40 #Tam_O'Shanter #Toronto", "created_at": "Wed Aug 10 14:46:03 +0000 2016", "klabel": 2}}, {"geometry": {"type": "Point", "coordinates": [-79.3030325, 43.76444]}, "type": "Feature", "id": 763594059931877376, "properties": {"loc": [-79.3030325, 43.76444], "centroid": [-79.444494501344, 43.782724739904], "screen_name": "tpscalls", "time": 1470907985.0, "tid": 763594059931877376, "text": "Missing Vulnerable Person | Sylla Ave &amp; Mayflower Ave [41 Div.] 08/11 00:27 #Wexford_Maryvale #Toronto", "created_at": "Thu Aug 11 04:33:05 +0000 2016", "klabel": 2}}, {"geometry": {"type": "Point", "coordinates": [-79.28111, 43.7732]}, "type": "Feature", "id": 763783880780419072, "properties": {"loc": [-79.28111, 43.7732], "centroid": [-79.444494501344, 43.782724739904], "screen_name": "NickPrasad34", "time": 1470953242.0, "tid": 763783880780419072, "text": "\ud83d\ude0d\ud83d\ude0d @ Mr. Greek Mediterranean Bar + Grill - Kennedy https://t.co/XitF3AHmkL", "created_at": "Thu Aug 11 17:07:22 +0000 2016", "klabel": 2}}, {"geometry": {"type": "Point", "coordinates": [-79.3006656, 43.7611348]}, "type": "Feature", "id": 763800411815997441, "properties": {"loc": [-79.3006656, 43.7611348], "centroid": [-79.444494501344, 43.782724739904], "screen_name": "tpscalls", "time": 1470957183.0, "tid": 763800411815997441, "text": "Impaired Driver | Warden Ave &amp; Ellesmere Rd [41 Div.] 08/11 14:08 #Wexford_Maryvale #Toronto", "created_at": "Thu Aug 11 18:13:03 +0000 2016", "klabel": 2}}, {"geometry": {"type": "Point", "coordinates": [-79.2993442, 43.7835815]}, "type": "Feature", "id": 763834389268688896, "properties": {"loc": [-79.2993442, 43.7835815], "centroid": [-79.444494501344, 43.782724739904], "screen_name": "tpscalls", "time": 1470965284.0, "tid": 763834389268688896, "text": "Unknown Trouble | 2359 Birchmount Rd &amp; Bay Mills Blvd [42 Div.] 08/11 16:23 #Tam_O'Shanter_Sullivan #Toronto", "created_at": "Thu Aug 11 20:28:04 +0000 2016", "klabel": 2}}, {"geometry": {"type": "Point", "coordinates": [-79.29109573, 43.78418799]}, "type": "Feature", "id": 763904898257788928, "properties": {"loc": [-79.29109573, 43.78418799], "centroid": [-79.444494501344, 43.782724739904], "screen_name": "ApriltheLee", "time": 1470982095.0, "tid": 763904898257788928, "text": "When one @walmart is out of the one thing you need. Such is the life of a #microbudget #indie\u2026 https://t.co/SmuurcvJfm", "created_at": "Fri Aug 12 01:08:15 +0000 2016", "klabel": 2}}, {"geometry": {"type": "Point", "coordinates": [-79.2827664, 43.7722139]}, "type": "Feature", "id": 764186542495502337, "properties": {"loc": [-79.2827664, 43.7722139], "centroid": [-79.444494501344, 43.782724739904], "screen_name": "tmj_gta_hrta", "time": 1471049244.0, "tid": 764186542495502337, "text": "Want to work at Starbucks? We're #hiring in ! Click for details: https://t.co/ycelrXItBm #Job #Hospitality #Veterans #Jobs #CareerArc", "created_at": "Fri Aug 12 19:47:24 +0000 2016", "klabel": 2}}, {"geometry": {"type": "Point", "coordinates": [-79.3095848, 43.7788824]}, "type": "Feature", "id": 764194519017324544, "properties": {"loc": [-79.3095848, 43.7788824], "centroid": [-79.444494501344, 43.782724739904], "screen_name": "OfficeTeamJobs", "time": 1471051146.0, "tid": 764194519017324544, "text": "Can you recommend anyone for this #job? Executive Assistant - https://t.co/JAr4AcBWT8 #OfficeTeam #Clerical #Scarborough, ON #Hiring", "created_at": "Fri Aug 12 20:19:06 +0000 2016", "klabel": 2}}, {"geometry": {"type": "Point", "coordinates": [-79.3095848, 43.7788824]}, "type": "Feature", "id": 764219529387872256, "properties": {"loc": [-79.3095848, 43.7788824], "centroid": [-79.444494501344, 43.782724739904], "screen_name": "tmj_gta_cler", "time": 1471057108.0, "tid": 764219529387872256, "text": "Want to work in #Scarborough, ON? View our latest opening: https://t.co/02pt3unRqN #Job #Clerical #Jobs #Hiring #CareerArc", "created_at": "Fri Aug 12 21:58:28 +0000 2016", "klabel": 2}}, {"geometry": {"type": "Point", "coordinates": [-79.2882901, 43.7832918]}, "type": "Feature", "id": 764509585659006980, "properties": {"loc": [-79.2882901, 43.7832918], "centroid": [-79.444494501344, 43.782724739904], "screen_name": "tofireE", "time": 1471126263.0, "tid": 764509585659006980, "text": "Tems Transferred (Read Remarks) - Kennedy Road b/w Sheppard Avenue East / Bonis Avenue, Scarborough (3 Trucks)", "created_at": "Sat Aug 13 17:11:03 +0000 2016", "klabel": 2}}, {"geometry": {"type": "Point", "coordinates": [-79.31177599, 43.77830876]}, "type": "Feature", "id": 764514615929692160, "properties": {"loc": [-79.31177599, 43.77830876], "centroid": [-79.444494501344, 43.782724739904], "screen_name": "foodpages", "time": 1471127463.0, "tid": 764514615929692160, "text": "@redlobster Red Lobster #Wishing Well Acres #Scarborough https://t.co/CM7eAFaV2m Food https://t.co/P7qdEGonSj", "created_at": "Sat Aug 13 17:31:03 +0000 2016", "klabel": 2}}, {"geometry": {"type": "Point", "coordinates": [-79.2995541, 43.7806786]}, "type": "Feature", "id": 764794213519110145, "properties": {"loc": [-79.2995541, 43.7806786], "centroid": [-79.444494501344, 43.782724739904], "screen_name": "tmj_gta_hrta", "time": 1471194124.0, "tid": 764794213519110145, "text": "This #job might be a great fit for you: Barista (CA) - https://t.co/C0lUu17QcF #Hospitality #Veterans #Hiring #CareerArc", "created_at": "Sun Aug 14 12:02:04 +0000 2016", "klabel": 2}}, {"geometry": {"type": "Point", "coordinates": [-79.2993442, 43.7835815]}, "type": "Feature", "id": 764892859749240832, "properties": {"loc": [-79.2993442, 43.7835815], "centroid": [-79.444494501344, 43.782724739904], "screen_name": "tpscalls", "time": 1471217643.0, "tid": 764892859749240832, "text": "Dispute | 2359 Birchmount Rd &amp; Bay Mills Blvd [42 Div.] 08/14 14:28 #Tam_O'Shanter_Sullivan #Toronto", "created_at": "Sun Aug 14 18:34:03 +0000 2016", "klabel": 2}}, {"geometry": {"type": "Point", "coordinates": [-79.30846936, 43.77816139]}, "type": "Feature", "id": 764974615055724544, "properties": {"loc": [-79.30846936, 43.77816139], "centroid": [-79.444494501344, 43.782724739904], "screen_name": "itsmechrisjoy", "time": 1471237135.0, "tid": 764974615055724544, "text": "Dinner is served \ud83d\ude0d\ud83d\ude0d\ud83d\ude0d @ Warden and Sheppard https://t.co/yGKLftl3HR", "created_at": "Sun Aug 14 23:58:55 +0000 2016", "klabel": 2}}, {"geometry": {"type": "Point", "coordinates": [-79.3060106, 43.7825649]}, "type": "Feature", "id": 765022466569797632, "properties": {"loc": [-79.3060106, 43.7825649], "centroid": [-79.444494501344, 43.782724739904], "screen_name": "tpscalls", "time": 1471248544.0, "tid": 765022466569797632, "text": "Assault Just Occurred | Davisbrook Blvd &amp; Kellen St [42 Div.] 08/14 23:03 #Tam_O'Shanter #Toronto", "created_at": "Mon Aug 15 03:09:04 +0000 2016", "klabel": 2}}, {"geometry": {"type": "Point", "coordinates": [-79.2882901, 43.7832918]}, "type": "Feature", "id": 765245690922536960, "properties": {"loc": [-79.2882901, 43.7832918], "centroid": [-79.444494501344, 43.782724739904], "screen_name": "tofire", "time": 1471301764.0, "tid": 765245690922536960, "text": "Medical (Chest Pains) - Kennedy Road b/w Sheppard Avenue East / Bonis Avenue, Scarborough (2 Trucks)", "created_at": "Mon Aug 15 17:56:04 +0000 2016", "klabel": 2}}, {"geometry": {"type": "Point", "coordinates": [-79.2980278, 43.7810453]}, "type": "Feature", "id": 765268083032326144, "properties": {"loc": [-79.2980278, 43.7810453], "centroid": [-79.444494501344, 43.782724739904], "screen_name": "tofire", "time": 1471307103.0, "tid": 765268083032326144, "text": "Medical (Vsa) - Sheppard Avenue b/w Birchmount Road / Allanford Road, Scarborough (2 Trucks)", "created_at": "Mon Aug 15 19:25:03 +0000 2016", "klabel": 2}}, {"geometry": {"type": "Point", "coordinates": [-79.2883352, 43.790287]}, "type": "Feature", "id": 765402468909977600, "properties": {"loc": [-79.2883352, 43.790287], "centroid": [-79.444494501344, 43.782724739904], "screen_name": "tpscalls", "time": 1471339143.0, "tid": 765402468909977600, "text": "Disorderlies | Fulbert Cres &amp; C N R [42 Div.] 08/16 00:12 #Agincourt #Toronto", "created_at": "Tue Aug 16 04:19:03 +0000 2016", "klabel": 2}}, {"geometry": {"type": "Point", "coordinates": [-79.2995541, 43.7806786]}, "type": "Feature", "id": 765523443202691072, "properties": {"loc": [-79.2995541, 43.7806786], "centroid": [-79.444494501344, 43.782724739904], "screen_name": "tmj_gta_hrta", "time": 1471367986.0, "tid": 765523443202691072, "text": "Want to work in ? View our latest opening: https://t.co/dsXOcmoJPN #Job #Hospitality #Veterans #Jobs #Hiring #CareerArc", "created_at": "Tue Aug 16 12:19:46 +0000 2016", "klabel": 2}}, {"geometry": {"type": "Point", "coordinates": [-79.2858664, 43.7866657]}, "type": "Feature", "id": 765562522929864704, "properties": {"loc": [-79.2858664, 43.7866657], "centroid": [-79.444494501344, 43.782724739904], "screen_name": "tpscalls", "time": 1471377303.0, "tid": 765562522929864704, "text": "Personal Injury Collision | West Highland Creek &amp; Reidmount Ave [42 Div.] 08/16 10:50 #Scarborough #Toronto", "created_at": "Tue Aug 16 14:55:03 +0000 2016", "klabel": 2}}, {"geometry": {"type": "Point", "coordinates": [-79.2971561, 43.7841244]}, "type": "Feature", "id": 765652113896697857, "properties": {"loc": [-79.2971561, 43.7841244], "centroid": [-79.444494501344, 43.782724739904], "screen_name": "tofire", "time": 1471398663.0, "tid": 765652113896697857, "text": "Medical (Chest Pains) - Carabob Crt @ Bonis Avenue, Scarborough (2 Trucks)", "created_at": "Tue Aug 16 20:51:03 +0000 2016", "klabel": 2}}, {"geometry": {"type": "Point", "coordinates": [-79.2852861, 43.7683992]}, "type": "Feature", "id": 765875833592512512, "properties": {"loc": [-79.2852861, 43.7683992], "centroid": [-79.444494501344, 43.782724739904], "screen_name": "tpscalls", "time": 1471452002.0, "tid": 765875833592512512, "text": "Unknown Trouble | Kennedy Rd &amp; Dundalk Dr [41 Div.] 08/17 07:34 #Dorset_Park #Toronto", "created_at": "Wed Aug 17 11:40:02 +0000 2016", "klabel": 2}}, {"geometry": {"type": "Point", "coordinates": [-79.29793507, 43.78125401]}, "type": "Feature", "id": 765912495668199424, "properties": {"loc": [-79.29793507, 43.78125401], "centroid": [-79.444494501344, 43.782724739904], "screen_name": "caiodias", "time": 1471460743.0, "tid": 765912495668199424, "text": "\u00af\\_(\u30c4)_/\u00af https://t.co/Q4k7lE6B4h", "created_at": "Wed Aug 17 14:05:43 +0000 2016", "klabel": 2}}, {"geometry": {"type": "Point", "coordinates": [-79.29793507, 43.78125401]}, "type": "Feature", "id": 765913453961867264, "properties": {"loc": [-79.29793507, 43.78125401], "centroid": [-79.444494501344, 43.782724739904], "screen_name": "caiodias", "time": 1471460972.0, "tid": 765913453961867264, "text": "@taleane ele deve ter autorizado a constru\u00e7\u00e3o das duas torres (ilegais) para facilitar a visualiza\u00e7\u00e3o dessa met\u00e1fora", "created_at": "Wed Aug 17 14:09:32 +0000 2016", "klabel": 2}}, {"geometry": {"type": "Point", "coordinates": [-79.29487, 43.76232]}, "type": "Feature", "id": 765922844421357568, "properties": {"loc": [-79.29487, 43.76232], "centroid": [-79.444494501344, 43.782724739904], "screen_name": "Signs_Graphics", "time": 1471463210.0, "tid": 765922844421357568, "text": "#SignsLand.ca Reaching another level with this pylon sign that we've been working on for the\u2026 https://t.co/4SfK1kyMIU", "created_at": "Wed Aug 17 14:46:50 +0000 2016", "klabel": 2}}, {"geometry": {"type": "Point", "coordinates": [-79.2945652, 43.7622943]}, "type": "Feature", "id": 765947559986724864, "properties": {"loc": [-79.2945652, 43.7622943], "centroid": [-79.444494501344, 43.782724739904], "screen_name": "tpscalls", "time": 1471469103.0, "tid": 765947559986724864, "text": "Assault Just Occurred | C P R &amp; Principal Rd [41 Div.] 08/17 12:19 #Wexford_Maryvale #Toronto", "created_at": "Wed Aug 17 16:25:03 +0000 2016", "klabel": 2}}, {"geometry": {"type": "Point", "coordinates": [-79.2852861, 43.7683992]}, "type": "Feature", "id": 765980776869527552, "properties": {"loc": [-79.2852861, 43.7683992], "centroid": [-79.444494501344, 43.782724739904], "screen_name": "tpscalls", "time": 1471477023.0, "tid": 765980776869527552, "text": "Unknown Trouble | Kennedy Rd &amp; Dundalk Dr [41 Div.] 08/17 14:30 #Dorset_Park #Toronto", "created_at": "Wed Aug 17 18:37:03 +0000 2016", "klabel": 2}}, {"geometry": {"type": "Point", "coordinates": [-79.2921681, 43.7799491]}, "type": "Feature", "id": 766047215295008771, "properties": {"loc": [-79.2921681, 43.7799491], "centroid": [-79.444494501344, 43.782724739904], "screen_name": "tpscalls", "time": 1471492863.0, "tid": 766047215295008771, "text": "Missing Elderly | Cass Ave &amp; Dempster St [42 Div.] 08/17 18:55 #Tam_O'Shanter_Sullivan #Toronto", "created_at": "Wed Aug 17 23:01:03 +0000 2016", "klabel": 2}}, {"geometry": {"type": "Point", "coordinates": [-79.301629, 43.7674407]}, "type": "Feature", "id": 766087986052210688, "properties": {"loc": [-79.301629, 43.7674407], "centroid": [-79.444494501344, 43.782724739904], "screen_name": "tpscalls", "time": 1471502583.0, "tid": 766087986052210688, "text": "Assault Just Occurred | Lupin Dr &amp; Metropolitan Rd [41 Div.] 08/17 21:36 #Wexford_Maryvale #Toronto", "created_at": "Thu Aug 18 01:43:03 +0000 2016", "klabel": 2}}, {"geometry": {"type": "Point", "coordinates": [-79.2921681, 43.7799491]}, "type": "Feature", "id": 766100063256977409, "properties": {"loc": [-79.2921681, 43.7799491], "centroid": [-79.444494501344, 43.782724739904], "screen_name": "tpscalls", "time": 1471505463.0, "tid": 766100063256977409, "text": "Missing Elderly | Cass Ave &amp; Dempster St [42 Div.] 08/17 22:25 #Tam_O'Shanter_Sullivan #Toronto", "created_at": "Thu Aug 18 02:31:03 +0000 2016", "klabel": 2}}, {"geometry": {"type": "Point", "coordinates": [-79.2971561, 43.7841244]}, "type": "Feature", "id": 766340399602495488, "properties": {"loc": [-79.2971561, 43.7841244], "centroid": [-79.444494501344, 43.782724739904], "screen_name": "tofireE", "time": 1471562763.0, "tid": 766340399602495488, "text": "Medical (Exposure) - Bonis Avenue b/w Carabob Crt / Kennedy Road, Scarborough (2 Trucks)", "created_at": "Thu Aug 18 18:26:03 +0000 2016", "klabel": 2}}, {"geometry": {"type": "Point", "coordinates": [-79.2827664, 43.7722139]}, "type": "Feature", "id": 766340891149676544, "properties": {"loc": [-79.2827664, 43.7722139], "centroid": [-79.444494501344, 43.782724739904], "screen_name": "tmj_gta_hrta", "time": 1471562881.0, "tid": 766340891149676544, "text": "Join the Starbucks team! See our latest #job opening here: https://t.co/VFEuCODVW0 #Hospitality #Veterans #Hiring #CareerArc", "created_at": "Thu Aug 18 18:28:01 +0000 2016", "klabel": 2}}, {"geometry": {"type": "Point", "coordinates": [-79.2979649, 43.7762163]}, "type": "Feature", "id": 766385704830107648, "properties": {"loc": [-79.2979649, 43.7762163], "centroid": [-79.444494501344, 43.782724739904], "screen_name": "tofire", "time": 1471573565.0, "tid": 766385704830107648, "text": "Medical (Unconscious) - Moraine Hill Dr b/w Corundum Crescent / Carncastle Gt, Scarborough (2 Trucks)", "created_at": "Thu Aug 18 21:26:05 +0000 2016", "klabel": 2}}, {"geometry": {"type": "Point", "coordinates": [-79.2980278, 43.7810453]}, "type": "Feature", "id": 766391986156888067, "properties": {"loc": [-79.2980278, 43.7810453], "centroid": [-79.444494501344, 43.782724739904], "screen_name": "tofire", "time": 1471575063.0, "tid": 766391986156888067, "text": "Medical (Trouble Breathing) - Sheppard Avenue b/w Birchmount Road / Allanford Road, Scarborough (2 Trucks)", "created_at": "Thu Aug 18 21:51:03 +0000 2016", "klabel": 2}}, {"geometry": {"type": "Point", "coordinates": [-79.2940318, 43.7849866]}, "type": "Feature", "id": 766649689450086400, "properties": {"loc": [-79.2940318, 43.7849866], "centroid": [-79.444494501344, 43.782724739904], "screen_name": "tpscalls", "time": 1471636504.0, "tid": 766649689450086400, "text": "Theft Just Occurred | Sheppard Ave E &amp; Bonis Ave [42 Div.] 08/19 10:50 #Tam_O'Shanter #Toronto", "created_at": "Fri Aug 19 14:55:04 +0000 2016", "klabel": 2}}, {"geometry": {"type": "Point", "coordinates": [-79.2852861, 43.7683992]}, "type": "Feature", "id": 766657236307443712, "properties": {"loc": [-79.2852861, 43.7683992], "centroid": [-79.444494501344, 43.782724739904], "screen_name": "tpscalls", "time": 1471638303.0, "tid": 766657236307443712, "text": "See Ambulance | Kennedy Rd &amp; Dundalk Dr [41 Div.] 08/19 11:19 #Dorset_Park #Toronto", "created_at": "Fri Aug 19 15:25:03 +0000 2016", "klabel": 2}}, {"geometry": {"type": "Point", "coordinates": [-79.29116249, 43.78443334]}, "type": "Feature", "id": 766703806667190272, "properties": {"loc": [-79.29116249, 43.78443334], "centroid": [-79.444494501344, 43.782724739904], "screen_name": "Andruchovici", "time": 1471649406.0, "tid": 766703806667190272, "text": "I'm at @WalmartCanada in Agincourt, ON https://t.co/axFaBFOWRz", "created_at": "Fri Aug 19 18:30:06 +0000 2016", "klabel": 2}}, {"geometry": {"type": "Point", "coordinates": [-79.2778105, 43.778434]}, "type": "Feature", "id": 766720656054579201, "properties": {"loc": [-79.2778105, 43.778434], "centroid": [-79.444494501344, 43.782724739904], "screen_name": "tpscalls", "time": 1471653424.0, "tid": 766720656054579201, "text": "Missing Vulnerable Person | Progress Ave &amp; Emblem Crt [41 Div.] 08/19 15:31 #Agincourt #Toronto", "created_at": "Fri Aug 19 19:37:04 +0000 2016", "klabel": 2}}, {"geometry": {"type": "Point", "coordinates": [-79.2882901, 43.7832918]}, "type": "Feature", "id": 766905616443006976, "properties": {"loc": [-79.2882901, 43.7832918], "centroid": [-79.444494501344, 43.782724739904], "screen_name": "tpscalls", "time": 1471697522.0, "tid": 766905616443006976, "text": "Hazard | Sheppard Ave E &amp; Kennedy Rd [42 Div.] 08/20 03:45 #Tam_O'Shanter_Sullivan #Toronto", "created_at": "Sat Aug 20 07:52:02 +0000 2016", "klabel": 2}}, {"geometry": {"type": "Point", "coordinates": [-79.2995541, 43.7806786]}, "type": "Feature", "id": 766989472378466304, "properties": {"loc": [-79.2995541, 43.7806786], "centroid": [-79.444494501344, 43.782724739904], "screen_name": "tmj_gta_hrta", "time": 1471717514.0, "tid": 766989472378466304, "text": "Want to work in ? View our latest opening: https://t.co/C0lUu17QcF #Job #Hospitality #Veterans #Jobs #Hiring #CareerArc", "created_at": "Sat Aug 20 13:25:14 +0000 2016", "klabel": 2}}, {"geometry": {"type": "Point", "coordinates": [-79.28854361, 43.78284924]}, "type": "Feature", "id": 767041349661097985, "properties": {"loc": [-79.28854361, 43.78284924], "centroid": [-79.444494501344, 43.782724739904], "screen_name": "fabigeez", "time": 1471729883.0, "tid": 767041349661097985, "text": "@usainbolt Another gold again #tripple #tripple Song Title: Fast\u2026 https://t.co/TBb5QBwI7v", "created_at": "Sat Aug 20 16:51:23 +0000 2016", "klabel": 2}}, {"geometry": {"type": "Point", "coordinates": [-79.2837251, 43.7731537]}, "type": "Feature", "id": 767366150741188608, "properties": {"loc": [-79.2837251, 43.7731537], "centroid": [-79.444494501344, 43.782724739904], "screen_name": "tpscalls", "time": 1471807321.0, "tid": 767366150741188608, "text": "Property Damage Collision | William Kitchen Rd &amp; Kennedy Rd [41 Div.] 08/21 10:17 #Dorset_Park #Toronto", "created_at": "Sun Aug 21 14:22:01 +0000 2016", "klabel": 2}}, {"geometry": {"type": "Point", "coordinates": [-79.3006656, 43.7611348]}, "type": "Feature", "id": 767456000932732928, "properties": {"loc": [-79.3006656, 43.7611348], "centroid": [-79.444494501344, 43.782724739904], "screen_name": "tpscalls", "time": 1471828743.0, "tid": 767456000932732928, "text": "Disorderlies | Warden Ave &amp; Ellesmere Rd [41 Div.] 08/21 16:14 #Wexford_Maryvale #Toronto", "created_at": "Sun Aug 21 20:19:03 +0000 2016", "klabel": 2}}, {"geometry": {"type": "Point", "coordinates": [-79.3035306, 43.7820973]}, "type": "Feature", "id": 767485192227393540, "properties": {"loc": [-79.3035306, 43.7820973], "centroid": [-79.444494501344, 43.782724739904], "screen_name": "tofire", "time": 1471835703.0, "tid": 767485192227393540, "text": "Carbon Monoxide (Non Medical) - Bay Mills Boulevard b/w Eaglestone Road / Birchmount Road, Scarborough (2 Trucks)", "created_at": "Sun Aug 21 22:15:03 +0000 2016", "klabel": 2}}, {"geometry": {"type": "Point", "coordinates": [-79.29207568, 43.78374874]}, "type": "Feature", "id": 767506092439900160, "properties": {"loc": [-79.29207568, 43.78374874], "centroid": [-79.444494501344, 43.782724739904], "screen_name": "_betbetl", "time": 1471840686.0, "tid": 767506092439900160, "text": "Congee is best with deep fried dough fritters \u2764\ufe0f @ Congee Queen Restaurant https://t.co/jSHPgGXBwC", "created_at": "Sun Aug 21 23:38:06 +0000 2016", "klabel": 2}}, {"geometry": {"type": "Point", "coordinates": [-79.29225675, 43.78380291]}, "type": "Feature", "id": 767506369490456580, "properties": {"loc": [-79.29225675, 43.78380291], "centroid": [-79.444494501344, 43.782724739904], "screen_name": "_betbetl", "time": 1471840752.0, "tid": 767506369490456580, "text": "Congee is best with deep fried dough fritters \u2764\ufe0f @ Congee Queen \u7687\u540e\u540d\u7ca5 https://t.co/jSHPgGXBwC", "created_at": "Sun Aug 21 23:39:12 +0000 2016", "klabel": 2}}, {"geometry": {"type": "Point", "coordinates": [-79.29109573, 43.78418799]}, "type": "Feature", "id": 767510899909353472, "properties": {"loc": [-79.29109573, 43.78418799], "centroid": [-79.444494501344, 43.782724739904], "screen_name": "jsharplive", "time": 1471841832.0, "tid": 767510899909353472, "text": "Just posted a video @ Wal-Mart Canada https://t.co/eLSZpyKPu1", "created_at": "Sun Aug 21 23:57:12 +0000 2016", "klabel": 2}}, {"geometry": {"type": "Point", "coordinates": [-79.306657, 43.7840739]}, "type": "Feature", "id": 767526965624594432, "properties": {"loc": [-79.306657, 43.7840739], "centroid": [-79.444494501344, 43.782724739904], "screen_name": "tpscalls", "time": 1471845663.0, "tid": 767526965624594432, "text": "See Ambulance | Sheppard Ave E &amp; Davisbrook Blvd [42 Div.] 08/21 20:56 #Bridlewood #Toronto", "created_at": "Mon Aug 22 01:01:03 +0000 2016", "klabel": 2}}, {"geometry": {"type": "Point", "coordinates": [-79.2995541, 43.7806786]}, "type": "Feature", "id": 767717288745197568, "properties": {"loc": [-79.2995541, 43.7806786], "centroid": [-79.444494501344, 43.782724739904], "screen_name": "tmj_gta_hrta", "time": 1471891039.0, "tid": 767717288745197568, "text": "We're #hiring! Read about our latest #job opening here: Shift Supervisor (CA) - https://t.co/dsXOcmoJPN #Hospitality #Veterans #CareerArc", "created_at": "Mon Aug 22 13:37:19 +0000 2016", "klabel": 2}}, {"geometry": {"type": "Point", "coordinates": [-79.29225675, 43.78380291]}, "type": "Feature", "id": 767764313465552897, "properties": {"loc": [-79.29225675, 43.78380291], "centroid": [-79.444494501344, 43.782724739904], "screen_name": "teafortwo_c", "time": 1471902251.0, "tid": 767764313465552897, "text": "Had lunch at #CongeeQueen yesterday. What's your favourite dish(es) there? @ Congee Queen \u7687\u540e\u540d\u7ca5 https://t.co/3zXIFC1Yh1", "created_at": "Mon Aug 22 16:44:11 +0000 2016", "klabel": 2}}, {"geometry": {"type": "Point", "coordinates": [-79.28035555, 43.77278785]}, "type": "Feature", "id": 767772594665844740, "properties": {"loc": [-79.28035555, 43.77278785], "centroid": [-79.444494501344, 43.782724739904], "screen_name": "TorontoMACgirl", "time": 1471904225.0, "tid": 767772594665844740, "text": "Getting some advice (at @HenrysCamera in Scarborough, Ontario) https://t.co/yOAUV6quwT", "created_at": "Mon Aug 22 17:17:05 +0000 2016", "klabel": 2}}, {"geometry": {"type": "Point", "coordinates": [-79.3035306, 43.7820973]}, "type": "Feature", "id": 767864194838433794, "properties": {"loc": [-79.3035306, 43.7820973], "centroid": [-79.444494501344, 43.782724739904], "screen_name": "tofire", "time": 1471926064.0, "tid": 767864194838433794, "text": "Alarm Residential - Bay Mills Boulevard b/w Eaglestone Road / Birchmount Road, Scarborough (7 Trucks)", "created_at": "Mon Aug 22 23:21:04 +0000 2016", "klabel": 2}}, {"geometry": {"type": "Point", "coordinates": [-79.3035306, 43.7820973]}, "type": "Feature", "id": 767864195660574720, "properties": {"loc": [-79.3035306, 43.7820973], "centroid": [-79.444494501344, 43.782724739904], "screen_name": "tofireE", "time": 1471926065.0, "tid": 767864195660574720, "text": "Alarm Residential - Bay Mills Boulevard b/w Eaglestone Road / Birchmount Road, Scarborough (7 Trucks)", "created_at": "Mon Aug 22 23:21:05 +0000 2016", "klabel": 2}}, {"geometry": {"type": "Point", "coordinates": [-79.29225675, 43.78380291]}, "type": "Feature", "id": 768130742010404864, "properties": {"loc": [-79.29225675, 43.78380291], "centroid": [-79.444494501344, 43.782724739904], "screen_name": "teafortwo_c", "time": 1471989614.0, "tid": 768130742010404864, "text": "Shredded pork &amp; Penny hot sauce lo mien ($6.50) was interesting. Despite ordering the wrong\u2026 https://t.co/9gatqIUuT2", "created_at": "Tue Aug 23 17:00:14 +0000 2016", "klabel": 2}}, {"geometry": {"type": "Point", "coordinates": [-79.28033589, 43.77324461]},