{"type": "FeatureCollection", "features": [{"geometry": {"type": "Point", "coordinates": [-79.4573798, 43.702129]}, "type": "Feature", "id": 705066497379422208, "properties": {"loc": [-79.4573798, 43.702129], "centroid": [-79.36250739020899, 43.79194359037618], "screen_name": "RHMRJobs", "time": 1456953927.0, "tid": 705066497379422208, "text": "#Accounting #Job alert: Accounting Manager | Robert Half Management Resources | #Toronto, ON https://t.co/hyORGIwPlg #RHMRJobs #Jobs", "created_at": "Wed Mar 02 16:25:27 +0000 2016", "klabel": 55}}, {"geometry": {"type": "Point", "coordinates": [-79.4412689, 43.6926498]}, "type": "Feature", "id": 705136569548673024, "properties": {"loc": [-79.4412689, 43.6926498], "centroid": [-79.36250739020899, 43.79194359037618], "screen_name": "inyoungah2", "time": 1456970633.0, "tid": 705136569548673024, "text": "Been way too long \ud83d\ude0d\ud83d\ude0d \uc624\ub79c\ub9cc\uc5d0 \uce90\ub9ac\ube44\uc548 \uc74c\uc2dd \uc548\uba39\uc5c8\ub124 \uc774\uac70 \uc5c4\uccad \uc88b\ub2e4!! #\uba39\uc2a4\ud0c0\uadf8\ub7a8 #\uba39\ubc29 #\ub9db\uc2a4\ud0c0\uadf8\ub7a8 #\uce74\ub808 @ Crystal Sea Food\u2026 https://t.co/l2Decloy39", "created_at": "Wed Mar 02 21:03:53 +0000 2016", "klabel": 55}}, {"geometry": {"type": "Point", "coordinates": [-79.43609834, 43.69910438]}, "type": "Feature", "id": 705162500246003714, "properties": {"loc": [-79.43609834, 43.69910438], "centroid": [-79.36250739020899, 43.79194359037618], "screen_name": "tylerhhan", "time": 1456976816.0, "tid": 705162500246003714, "text": "I'm at Eglinton West Subway Station in Toronto, ON https://t.co/MlyTu3n2WP", "created_at": "Wed Mar 02 22:46:56 +0000 2016", "klabel": 55}}, {"geometry": {"type": "Point", "coordinates": [-79.44210962, 43.6851422]}, "type": "Feature", "id": 705256219385184257, "properties": {"loc": [-79.44210962, 43.6851422], "centroid": [-79.36250739020899, 43.79194359037618], "screen_name": "laurallisonpo", "time": 1456999160.0, "tid": 705256219385184257, "text": "That's just the way it is. \n#thingsIsee #photographer #myworld #toronto #416 #laurapolischuik @\u2026 https://t.co/1hCesrYSQx", "created_at": "Thu Mar 03 04:59:20 +0000 2016", "klabel": 55}}, {"geometry": {"type": "Point", "coordinates": [-79.4492611, 43.6855144]}, "type": "Feature", "id": 705373514237419520, "properties": {"loc": [-79.4492611, 43.6855144], "centroid": [-79.36250739020899, 43.79194359037618], "screen_name": "KrisCook13", "time": 1457027125.0, "tid": 705373514237419520, "text": "Is Blogging Worth It? Integrate Content Marketing Into Your Customer Development - https://t.co/hjrzz6cnOH", "created_at": "Thu Mar 03 12:45:25 +0000 2016", "klabel": 55}}, {"geometry": {"type": "Point", "coordinates": [-79.4362017, 43.6989884]}, "type": "Feature", "id": 705527226041802752, "properties": {"loc": [-79.4362017, 43.6989884], "centroid": [-79.36250739020899, 43.79194359037618], "screen_name": "exkalibur_to", "time": 1457063773.0, "tid": 705527226041802752, "text": "It'd sure be nice if @TorontoPolice enforced the bus turning lane at Eg West, especially since @TPS13Div is right there...", "created_at": "Thu Mar 03 22:56:13 +0000 2016", "klabel": 55}}, {"geometry": {"type": "Point", "coordinates": [-79.444405, 43.6994833]}, "type": "Feature", "id": 705566992653221888, "properties": {"loc": [-79.444405, 43.6994833], "centroid": [-79.36250739020899, 43.79194359037618], "screen_name": "RonnieKozak", "time": 1457073254.0, "tid": 705566992653221888, "text": "Interested in affiliate marketing i used clickbank university and now have a working amazon website https://t.co/RdRaK4tf9Z", "created_at": "Fri Mar 04 01:34:14 +0000 2016", "klabel": 55}}, {"geometry": {"type": "Point", "coordinates": [-79.4537811, 43.7033005]}, "type": "Feature", "id": 705817110342082560, "properties": {"loc": [-79.4537811, 43.7033005], "centroid": [-79.36250739020899, 43.79194359037618], "screen_name": "veroriera", "time": 1457132887.0, "tid": 705817110342082560, "text": "#VOTD \ud83d\udca5\ud83d\udca5 My gorgeous model for the day at cbvisage \ud83d\udc93\ud83d\udc93 @ Caryl Baker Visage Cosmetics https://t.co/VvZ7XUEv3p", "created_at": "Fri Mar 04 18:08:07 +0000 2016", "klabel": 55}}, {"geometry": {"type": "Point", "coordinates": [-79.43492, 43.6878198]}, "type": "Feature", "id": 705822891074572289, "properties": {"loc": [-79.43492, 43.6878198], "centroid": [-79.36250739020899, 43.79194359037618], "screen_name": "tofire", "time": 1457134265.0, "tid": 705822891074572289, "text": "Medical (Vsa) - Winona Dr b/w Mulberry Crescent / Lane South Vaughan West Atlas, York (2 Trucks)", "created_at": "Fri Mar 04 18:31:05 +0000 2016", "klabel": 55}}, {"geometry": {"type": "Point", "coordinates": [-79.4383884, 43.6981988]}, "type": "Feature", "id": 705822900884996097, "properties": {"loc": [-79.4383884, 43.6981988], "centroid": [-79.36250739020899, 43.79194359037618], "screen_name": "tofire", "time": 1457134267.0, "tid": 705822900884996097, "text": "Check Call (Non Emergency) - Eglinton Avenue b/w Atlas Avenue / Winona Dr, York (2 Trucks)", "created_at": "Fri Mar 04 18:31:07 +0000 2016", "klabel": 55}}, {"geometry": {"type": "Point", "coordinates": [-79.4383884, 43.6981988]}, "type": "Feature", "id": 705822904752201729, "properties": {"loc": [-79.4383884, 43.6981988], "centroid": [-79.36250739020899, 43.79194359037618], "screen_name": "tofireS", "time": 1457134268.0, "tid": 705822904752201729, "text": "Check Call (Non Emergency) - Eglinton Avenue b/w Atlas Avenue / Winona Dr, York (2 Trucks)", "created_at": "Fri Mar 04 18:31:08 +0000 2016", "klabel": 55}}, {"geometry": {"type": "Point", "coordinates": [-79.436678, 43.690786]}, "type": "Feature", "id": 705824597011210240, "properties": {"loc": [-79.436678, 43.690786], "centroid": [-79.36250739020899, 43.79194359037618], "screen_name": "JUSTBGRAPHIC", "time": 1457134672.0, "tid": 705824597011210240, "text": "The Vibez are so blessed. After 4 weeks of work it's showtime! Shout out to @thisisscribe\u2026 https://t.co/cj4LoCSaHX", "created_at": "Fri Mar 04 18:37:52 +0000 2016", "klabel": 55}}, {"geometry": {"type": "Point", "coordinates": [-79.436678, 43.690786]}, "type": "Feature", "id": 705826597039972352, "properties": {"loc": [-79.436678, 43.690786], "centroid": [-79.36250739020899, 43.79194359037618], "screen_name": "JUSTBGRAPHIC", "time": 1457135149.0, "tid": 705826597039972352, "text": "Throw back!  #TheKidnPlay Hahahaha good times!!  @edzgyamfi #jbgvaughan @ Vaughan Road Academy https://t.co/hkz7CBxFRW", "created_at": "Fri Mar 04 18:45:49 +0000 2016", "klabel": 55}}, {"geometry": {"type": "Point", "coordinates": [-79.4493541, 43.6855806]}, "type": "Feature", "id": 705835390838697984, "properties": {"loc": [-79.4493541, 43.6855806], "centroid": [-79.36250739020899, 43.79194359037618], "screen_name": "KrisCook13", "time": 1457137245.0, "tid": 705835390838697984, "text": "How To Keep Your Start-up Agile Whilst Growing - https://t.co/xcDXr9WJ5W #Startup #Tech #Entrepreneur", "created_at": "Fri Mar 04 19:20:45 +0000 2016", "klabel": 55}}, {"geometry": {"type": "Point", "coordinates": [-79.4411041, 43.702221]}, "type": "Feature", "id": 705915766168809472, "properties": {"loc": [-79.4411041, 43.702221], "centroid": [-79.36250739020899, 43.79194359037618], "screen_name": "tofireS", "time": 1457156408.0, "tid": 705915766168809472, "text": "Check Call - Roselawn Avenue b/w Marlee Avenue / Danesbury Avenue, York (2 Trucks)", "created_at": "Sat Mar 05 00:40:08 +0000 2016", "klabel": 55}}, {"geometry": {"type": "Point", "coordinates": [-79.4411041, 43.702221]}, "type": "Feature", "id": 705915765250244612, "properties": {"loc": [-79.4411041, 43.702221], "centroid": [-79.36250739020899, 43.79194359037618], "screen_name": "tofire", "time": 1457156408.0, "tid": 705915765250244612, "text": "Check Call - Roselawn Avenue b/w Marlee Avenue / Danesbury Avenue, York (2 Trucks)", "created_at": "Sat Mar 05 00:40:08 +0000 2016", "klabel": 55}}, {"geometry": {"type": "Point", "coordinates": [-79.44109688, 43.69762538]}, "type": "Feature", "id": 706049365727649792, "properties": {"loc": [-79.44109688, 43.69762538], "centroid": [-79.36250739020899, 43.79194359037618], "screen_name": "1800Travoy", "time": 1457188261.0, "tid": 706049365727649792, "text": "This is what love looks like!!!! @rapseglintonw \ud83d\ude0d\ud83d\ude0d\ud83d\ude0d @ Rap's Restaurant https://t.co/T7jfFe2A3k", "created_at": "Sat Mar 05 09:31:01 +0000 2016", "klabel": 55}}, {"geometry": {"type": "Point", "coordinates": [-79.44227656, 43.69741191]}, "type": "Feature", "id": 706135155040264192, "properties": {"loc": [-79.44227656, 43.69741191], "centroid": [-79.36250739020899, 43.79194359037618], "screen_name": "ElieShermer", "time": 1457208714.0, "tid": 706135155040264192, "text": "After #sincity tomorrow @ Barbers Of Eglinton https://t.co/sCVp0D4ILz", "created_at": "Sat Mar 05 15:11:54 +0000 2016", "klabel": 55}}, {"geometry": {"type": "Point", "coordinates": [-79.4426926, 43.7063147]}, "type": "Feature", "id": 749793624913801217, "properties": {"loc": [-79.4426926, 43.7063147], "centroid": [-79.36250739020899, 43.79194359037618], "screen_name": "tofire", "time": 1467617705.0, "tid": 749793624913801217, "text": "Medical (Trouble Breathing) - Marlee Avenue b/w Enid Crescent / Viewmount Avenue, North York (2 Trucks)", "created_at": "Mon Jul 04 02:35:05 +0000 2016", "klabel": 55}}, {"geometry": {"type": "Point", "coordinates": [-79.4362436, 43.6896924]}, "type": "Feature", "id": 749796140682477568, "properties": {"loc": [-79.4362436, 43.6896924], "centroid": [-79.36250739020899, 43.79194359037618], "screen_name": "tpscalls", "time": 1467618305.0, "tid": 749796140682477568, "text": "Missing Vulnerable Person | Atlas Ave &amp; Moir Ave [13 Div.] 07/03 22:40 #Midtown_Toronto", "created_at": "Mon Jul 04 02:45:05 +0000 2016", "klabel": 55}}, {"geometry": {"type": "Point", "coordinates": [-79.4434866, 43.6849509]}, "type": "Feature", "id": 749806704926330880, "properties": {"loc": [-79.4434866, 43.6849509], "centroid": [-79.36250739020899, 43.79194359037618], "screen_name": "tpscalls", "time": 1467620823.0, "tid": 749806704926330880, "text": "Fight | Lauder Ave &amp; Northcliffe Blvd [13 Div.] 07/03 23:22 #Toronto", "created_at": "Mon Jul 04 03:27:03 +0000 2016", "klabel": 55}}, {"geometry": {"type": "Point", "coordinates": [-79.44963747, 43.68839424]}, "type": "Feature", "id": 750007367031484424, "properties": {"loc": [-79.44963747, 43.68839424], "centroid": [-79.36250739020899, 43.79194359037618], "screen_name": "ekabellakirana", "time": 1467668665.0, "tid": 750007367031484424, "text": "Just posted a photo @ Toronto in Canada https://t.co/BCqQ6LzTjU", "created_at": "Mon Jul 04 16:44:25 +0000 2016", "klabel": 55}}, {"geometry": {"type": "Point", "coordinates": [-79.4382202, 43.6859034]}, "type": "Feature", "id": 750063394540154880, "properties": {"loc": [-79.4382202, 43.6859034], "centroid": [-79.36250739020899, 43.79194359037618], "screen_name": "tpscalls", "time": 1467682023.0, "tid": 750063394540154880, "text": "Theft Just Occurred | Robina Ave &amp; Oakwood Ave [13 Div.] 07/04 16:22 #Toronto", "created_at": "Mon Jul 04 20:27:03 +0000 2016", "klabel": 55}}, {"geometry": {"type": "Point", "coordinates": [-79.4382202, 43.6859034]}, "type": "Feature", "id": 750146449103523840, "properties": {"loc": [-79.4382202, 43.6859034], "centroid": [-79.36250739020899, 43.79194359037618], "screen_name": "tpscalls", "time": 1467701825.0, "tid": 750146449103523840, "text": "Impaired Driver | Glenora Ave &amp; Oakwood Ave [13 Div.] 07/04 21:53 #Toronto", "created_at": "Tue Jul 05 01:57:05 +0000 2016", "klabel": 55}}, {"geometry": {"type": "Point", "coordinates": [-79.4396358, 43.6897906]}, "type": "Feature", "id": 750163811815096321, "properties": {"loc": [-79.4396358, 43.6897906], "centroid": [-79.36250739020899, 43.79194359037618], "screen_name": "tpscalls", "time": 1467705964.0, "tid": 750163811815096321, "text": "Person With A Knife | Holland Park Ave &amp; Jesmond Ave [13 Div.] 07/04 23:00 #Oakwood_Village #Toronto", "created_at": "Tue Jul 05 03:06:04 +0000 2016", "klabel": 55}}, {"geometry": {"type": "Point", "coordinates": [-79.4408788, 43.688657]}, "type": "Feature", "id": 750170603802558465, "properties": {"loc": [-79.4408788, 43.688657], "centroid": [-79.36250739020899, 43.79194359037618], "screen_name": "tpscalls", "time": 1467707584.0, "tid": 750170603802558465, "text": "Sound Of Gunshots | Rogers Rd &amp; Hanson Rd [13 Div.] 07/04 23:28 #Oakwood_Village #Toronto", "created_at": "Tue Jul 05 03:33:04 +0000 2016", "klabel": 55}}, {"geometry": {"type": "Point", "coordinates": [-79.4386854, 43.6871144]}, "type": "Feature", "id": 750190232973213696, "properties": {"loc": [-79.4386854, 43.6871144], "centroid": [-79.36250739020899, 43.79194359037618], "screen_name": "tpscalls", "time": 1467712264.0, "tid": 750190232973213696, "text": "Impaired Driver | Oakwood Ave &amp; Rogers Rd [13 Div.] 07/05 00:46 #Midtown_Toronto", "created_at": "Tue Jul 05 04:51:04 +0000 2016", "klabel": 55}}, {"geometry": {"type": "Point", "coordinates": [-79.44963747, 43.68839424]}, "type": "Feature", "id": 750262088551964672, "properties": {"loc": [-79.44963747, 43.68839424], "centroid": [-79.36250739020899, 43.79194359037618], "screen_name": "MeuBrejo", "time": 1467729395.0, "tid": 750262088551964672, "text": "CLOSE CERTO A GENTE VER POR AQUI. \ud83c\udf08\ud83d\udc6d\ud83d\ude0d\u2764\ufe0f\ud83d\udc38 @ Toronto in Canada https://t.co/2jhS17pjJT", "created_at": "Tue Jul 05 09:36:35 +0000 2016", "klabel": 55}}, {"geometry": {"type": "Point", "coordinates": [-79.4508786, 43.6854342]}, "type": "Feature", "id": 750309775443947520, "properties": {"loc": [-79.4508786, 43.6854342], "centroid": [-79.36250739020899, 43.79194359037618], "screen_name": "tofireS", "time": 1467740765.0, "tid": 750309775443947520, "text": "Medical (Trouble Breathing) - Teignmouth Avenue b/w Earlscourt Avenue / Nairn Avenue, York (2 Trucks)", "created_at": "Tue Jul 05 12:46:05 +0000 2016", "klabel": 55}}, {"geometry": {"type": "Point", "coordinates": [-79.4465986, 43.6925398]}, "type": "Feature", "id": 750329495979110401, "properties": {"loc": [-79.4465986, 43.6925398], "centroid": [-79.36250739020899, 43.79194359037618], "screen_name": "Charlantino", "time": 1467745466.0, "tid": 750329495979110401, "text": "Cute dining area in our apartment. #Toronto #torontoblogger #travel #canada #cute #flowers\u2026 https://t.co/zM9fQQRats", "created_at": "Tue Jul 05 14:04:26 +0000 2016", "klabel": 55}}, {"geometry": {"type": "Point", "coordinates": [-79.4386896, 43.6870754]}, "type": "Feature", "id": 750363104979013632, "properties": {"loc": [-79.4386896, 43.6870754], "centroid": [-79.36250739020899, 43.79194359037618], "screen_name": "tmj_gta_mgmt", "time": 1467753479.0, "tid": 750363104979013632, "text": "Want to work at CIBC? We're #hiring in #Toronto, Ontario! Click for details: https://t.co/ZHdqIoW6wZ #Job #cibc #cibcjobs #cibccareers #Jobs", "created_at": "Tue Jul 05 16:17:59 +0000 2016", "klabel": 55}}, {"geometry": {"type": "Point", "coordinates": [-79.453127, 43.6950528]}, "type": "Feature", "id": 751241156525260800, "properties": {"loc": [-79.453127, 43.6950528], "centroid": [-79.36250739020899, 43.79194359037618], "screen_name": "tpscalls", "time": 1467962823.0, "tid": 751241156525260800, "text": "Fire | 27 S 427 C S Ramp &amp; Eglinton Ave W [22 Div.] 07/07 22:24 #Toronto", "created_at": "Fri Jul 08 02:27:03 +0000 2016", "klabel": 55}}, {"geometry": {"type": "Point", "coordinates": [-79.4539999, 43.70171]}, "type": "Feature", "id": 751642236983582720, "properties": {"loc": [-79.4539999, 43.70171], "centroid": [-79.36250739020899, 43.79194359037618], "screen_name": "TheDylanDias", "time": 1468058448.0, "tid": 751642236983582720, "text": "V1 #PreciousStones // #Amethyst, #Lavender, #Rose, #Pewter, #Topaz, and #Sapphire in a #FreeHand\u2026 https://t.co/eNp24d6DJf", "created_at": "Sat Jul 09 05:00:48 +0000 2016", "klabel": 55}}, {"geometry": {"type": "Point", "coordinates": [-79.4539999, 43.70171]}, "type": "Feature", "id": 751642267790835712, "properties": {"loc": [-79.4539999, 43.70171], "centroid": [-79.36250739020899, 43.79194359037618], "screen_name": "TheDylanDias", "time": 1468058456.0, "tid": 751642267790835712, "text": "V2 #PreciousStones // #Amethyst, #Lavender, #Rose, #Pewter, #Topaz, and #Sapphire in a #FreeHand\u2026 https://t.co/FpWJwTkmaU", "created_at": "Sat Jul 09 05:00:56 +0000 2016", "klabel": 55}}, {"geometry": {"type": "Point", "coordinates": [-79.4539999, 43.70171]}, "type": "Feature", "id": 751642300133040128, "properties": {"loc": [-79.4539999, 43.70171], "centroid": [-79.36250739020899, 43.79194359037618], "screen_name": "TheDylanDias", "time": 1468058463.0, "tid": 751642300133040128, "text": "V3 #PreciousStones // #Amethyst, #Lavender, #Rose, #Pewter, #Topaz, and #Sapphire in a #FreeHand\u2026 https://t.co/xf25czPciH", "created_at": "Sat Jul 09 05:01:03 +0000 2016", "klabel": 55}}, {"geometry": {"type": "Point", "coordinates": [-79.4539999, 43.70171]}, "type": "Feature", "id": 751642335553916928, "properties": {"loc": [-79.4539999, 43.70171], "centroid": [-79.36250739020899, 43.79194359037618], "screen_name": "TheDylanDias", "time": 1468058472.0, "tid": 751642335553916928, "text": "V4 #PreciousStones // #Amethyst, #Lavender, #Rose, #Pewter, #Topaz, and #Sapphire in a #FreeHand\u2026 https://t.co/bgsmT9VXpd", "created_at": "Sat Jul 09 05:01:12 +0000 2016", "klabel": 55}}, {"geometry": {"type": "Point", "coordinates": [-79.4489347, 43.6925369]}, "type": "Feature", "id": 751651112860676096, "properties": {"loc": [-79.4489347, 43.6925369], "centroid": [-79.36250739020899, 43.79194359037618], "screen_name": "tpscalls", "time": 1468060564.0, "tid": 751651112860676096, "text": "Property Damage Collision | Dufferin St &amp; Keywest Ave [13 Div.] 07/09 01:32 #Fairbank #Toronto", "created_at": "Sat Jul 09 05:36:04 +0000 2016", "klabel": 55}}, {"geometry": {"type": "Point", "coordinates": [-79.439283, 43.689646]}, "type": "Feature", "id": 751667212751167488, "properties": {"loc": [-79.439283, 43.689646], "centroid": [-79.36250739020899, 43.79194359037618], "screen_name": "tpscalls", "time": 1468064403.0, "tid": 751667212751167488, "text": "Noisy Party | Oakwood Ave &amp; Oakwood Ave [13 Div.] 07/09 02:33 #Midtown_Toronto", "created_at": "Sat Jul 09 06:40:03 +0000 2016", "klabel": 55}}, {"geometry": {"type": "Point", "coordinates": [-79.4382202, 43.6859034]}, "type": "Feature", "id": 751684574418243584, "properties": {"loc": [-79.4382202, 43.6859034], "centroid": [-79.36250739020899, 43.79194359037618], "screen_name": "tpscalls", "time": 1468068542.0, "tid": 751684574418243584, "text": "Noisy Party | Alameda Ave &amp; Oakwood Ave [13 Div.] 07/09 03:42 #Toronto", "created_at": "Sat Jul 09 07:49:02 +0000 2016", "klabel": 55}}, {"geometry": {"type": "Point", "coordinates": [-79.4465986, 43.6925398]}, "type": "Feature", "id": 751774802092916736, "properties": {"loc": [-79.4465986, 43.6925398], "centroid": [-79.36250739020899, 43.79194359037618], "screen_name": "bellamy_olivia", "time": 1468090054.0, "tid": 751774802092916736, "text": "I haven't been everywhere, but it's on my list \ud83d\uddfa @ Canada Ontario Toronto https://t.co/EBfUA8NiSe", "created_at": "Sat Jul 09 13:47:34 +0000 2016", "klabel": 55}}, {"geometry": {"type": "Point", "coordinates": [-79.4439266, 43.6860122]}, "type": "Feature", "id": 751823240444645376, "properties": {"loc": [-79.4439266, 43.6860122], "centroid": [-79.36250739020899, 43.79194359037618], "screen_name": "tpscalls", "time": 1468101603.0, "tid": 751823240444645376, "text": "Personal Injury Collision | Northcliffe Blvd &amp; Rogers Rd [13 Div.] 07/09 12:54 #St._Clair_West_Village #Toronto", "created_at": "Sat Jul 09 17:00:03 +0000 2016", "klabel": 55}}, {"geometry": {"type": "Point", "coordinates": [-79.44002085, 43.7072494]}, "type": "Feature", "id": 751827329127776257, "properties": {"loc": [-79.44002085, 43.7072494], "centroid": [-79.36250739020899, 43.79194359037618], "screen_name": "bakiberkk", "time": 1468102578.0, "tid": 751827329127776257, "text": "UNBROKEN! @ TTC Subway Line https://t.co/lbSOjXVYCN", "created_at": "Sat Jul 09 17:16:18 +0000 2016", "klabel": 55}}, {"geometry": {"type": "Point", "coordinates": [-79.4527892, 43.6951284]}, "type": "Feature", "id": 751832305182834688, "properties": {"loc": [-79.4527892, 43.6951284], "centroid": [-79.36250739020899, 43.79194359037618], "screen_name": "tofireS", "time": 1468103764.0, "tid": 751832305182834688, "text": "UD: Rescue (High Level) - Eglinton Avenue b/w Fairbank Avenue / Ennerdale Road, York (7 Trucks)", "created_at": "Sat Jul 09 17:36:04 +0000 2016", "klabel": 55}}, {"geometry": {"type": "Point", "coordinates": [-79.4465986, 43.6925398]}, "type": "Feature", "id": 751872583952367617, "properties": {"loc": [-79.4465986, 43.6925398], "centroid": [-79.36250739020899, 43.79194359037618], "screen_name": "federicoesperan", "time": 1468113367.0, "tid": 751872583952367617, "text": "Nice day in toronto @ Canada Ontario Toronto https://t.co/W3rrvVYKPG", "created_at": "Sat Jul 09 20:16:07 +0000 2016", "klabel": 55}}, {"geometry": {"type": "Point", "coordinates": [-79.4465986, 43.6925398]}, "type": "Feature", "id": 751897672139714560, "properties": {"loc": [-79.4465986, 43.6925398], "centroid": [-79.36250739020899, 43.79194359037618], "screen_name": "Charlantino", "time": 1468119349.0, "tid": 751897672139714560, "text": "\ud83d\udc9c @ Canada Ontario Toronto https://t.co/Qcwlo3ryVS", "created_at": "Sat Jul 09 21:55:49 +0000 2016", "klabel": 55}}, {"geometry": {"type": "Point", "coordinates": [-79.4474184, 43.6887231]}, "type": "Feature", "id": 751911577390022656, "properties": {"loc": [-79.4474184, 43.6887231], "centroid": [-79.36250739020899, 43.79194359037618], "screen_name": "tpscalls", "time": 1468122664.0, "tid": 751911577390022656, "text": "Property Damage Collision | Dufferin St &amp; Martin St [12 Div.] 07/09 18:46 #Fairbank #Toronto", "created_at": "Sat Jul 09 22:51:04 +0000 2016", "klabel": 55}}, {"geometry": {"type": "Point", "coordinates": [-79.4473499, 43.6886235]}, "type": "Feature", "id": 751913840049283072, "properties": {"loc": [-79.4473499, 43.6886235], "centroid": [-79.36250739020899, 43.79194359037618], "screen_name": "tpscalls", "time": 1468123204.0, "tid": 751913840049283072, "text": "Personal Injury Collision | Ln N Rogers E Dufferin &amp; Holmesdale Rd [HP] 07/09 18:54 #Fairbank #Toronto", "created_at": "Sat Jul 09 23:00:04 +0000 2016", "klabel": 55}}, {"geometry": {"type": "Point", "coordinates": [-79.4382202, 43.6859034]}, "type": "Feature", "id": 752087733967941632, "properties": {"loc": [-79.4382202, 43.6859034], "centroid": [-79.36250739020899, 43.79194359037618], "screen_name": "tpscalls", "time": 1468164663.0, "tid": 752087733967941632, "text": "Unknown Trouble | Alameda Ave &amp; Oakwood Ave [13 Div.] 07/10 06:26 #Toronto", "created_at": "Sun Jul 10 10:31:03 +0000 2016", "klabel": 55}}, {"geometry": {"type": "Point", "coordinates": [-79.4413591, 43.6856768]}, "type": "Feature", "id": 752116924004401152, "properties": {"loc": [-79.4413591, 43.6856768], "centroid": [-79.36250739020899, 43.79194359037618], "screen_name": "tpscalls", "time": 1468171622.0, "tid": 752116924004401152, "text": "Noisy Party | Appleton Ave &amp; Glenholme Ave [13 Div.] 07/10 08:22 #Toronto", "created_at": "Sun Jul 10 12:27:02 +0000 2016", "klabel": 55}}, {"geometry": {"type": "Point", "coordinates": [-79.4465986, 43.6925398]}, "type": "Feature", "id": 752122549689982976, "properties": {"loc": [-79.4465986, 43.6925398], "centroid": [-79.36250739020899, 43.79194359037618], "screen_name": "Charlantino", "time": 1468172964.0, "tid": 752122549689982976, "text": "The sky at 5am this morning. #Toronto #Ontario #rooftop #sunrise #canada #torontoblogger\u2026 https://t.co/oxLYMQBjbo", "created_at": "Sun Jul 10 12:49:24 +0000 2016", "klabel": 55}}, {"geometry": {"type": "Point", "coordinates": [-79.445291, 43.705917]}, "type": "Feature", "id": 752133537558585344, "properties": {"loc": [-79.445291, 43.705917], "centroid": [-79.36250739020899, 43.79194359037618], "screen_name": "tpscalls", "time": 1468175583.0, "tid": 752133537558585344, "text": "Dispute | Marlee Ave &amp; Danesbury Ave [13 Div.] 07/10 09:29 #Briar_Hill_Belgravia #Toronto", "created_at": "Sun Jul 10 13:33:03 +0000 2016", "klabel": 55}}, {"geometry": {"type": "Point", "coordinates": [-79.4511237, 43.6979172]}, "type": "Feature", "id": 752171283715153920, "properties": {"loc": [-79.4511237, 43.6979172], "centroid": [-79.36250739020899, 43.79194359037618], "screen_name": "tpscalls", "time": 1468184583.0, "tid": 752171283715153920, "text": "Personal Injury Collision | Dufferin St &amp; Whitmore Ave [13 Div.] 07/10 11:59 #Briar_Hill_Belgravia #Toronto", "created_at": "Sun Jul 10 16:03:03 +0000 2016", "klabel": 55}}, {"geometry": {"type": "Point", "coordinates": [-79.4452703, 43.696763]}, "type": "Feature", "id": 752202240941752320, "properties": {"loc": [-79.4452703, 43.696763], "centroid": [-79.36250739020899, 43.79194359037618], "screen_name": "tofireS", "time": 1468191964.0, "tid": 752202240941752320, "text": "Medical (Unconscious) - Eglinton Avenue b/w Glenholme Avenue / Locksley Avenue, York (2 Trucks)", "created_at": "Sun Jul 10 18:06:04 +0000 2016", "klabel": 55}}, {"geometry": {"type": "Point", "coordinates": [-79.45681, 43.7043495]}, "type": "Feature", "id": 752222240435998720, "properties": {"loc": [-79.45681, 43.7043495], "centroid": [-79.36250739020899, 43.79194359037618], "screen_name": "casadiluce", "time": 1468196732.0, "tid": 752222240435998720, "text": "Tolomeo off-centre ceiling light by artemide_lighting is an ideal solution for small spaces.\u2026 https://t.co/t0IVxsmgnC", "created_at": "Sun Jul 10 19:25:32 +0000 2016", "klabel": 55}}, {"geometry": {"type": "Point", "coordinates": [-79.44039925, 43.69768817]}, "type": "Feature", "id": 752261176919195648, "properties": {"loc": [-79.44039925, 43.69768817], "centroid": [-79.36250739020899, 43.79194359037618], "screen_name": "foodie411", "time": 1468206015.0, "tid": 752261176919195648, "text": "I'm at Spence's Bakery in Toronto, Ontario https://t.co/aokRfokDYe", "created_at": "Sun Jul 10 22:00:15 +0000 2016", "klabel": 55}}, {"geometry": {"type": "Point", "coordinates": [-79.4465986, 43.6925398]}, "type": "Feature", "id": 752300796000268288, "properties": {"loc": [-79.4465986, 43.6925398], "centroid": [-79.36250739020899, 43.79194359037618], "screen_name": "Dash_bondar", "time": 1468215461.0, "tid": 752300796000268288, "text": "Pretty artsy for a movie theatre eh? @ Canada Ontario Toronto https://t.co/40mtyAz0n2", "created_at": "Mon Jul 11 00:37:41 +0000 2016", "klabel": 55}}, {"geometry": {"type": "Point", "coordinates": [-79.44094, 43.69745]}, "type": "Feature", "id": 752310966298243072, "properties": {"loc": [-79.44094, 43.69745], "centroid": [-79.36250739020899, 43.79194359037618], "screen_name": "foodie411", "time": 1468217886.0, "tid": 752310966298243072, "text": "The real real... @ Spence's Bakery https://t.co/Mkpgbp4qVr", "created_at": "Mon Jul 11 01:18:06 +0000 2016", "klabel": 55}}, {"geometry": {"type": "Point", "coordinates": [-79.4399626, 43.6937661]}, "type": "Feature", "id": 752358523657486336, "properties": {"loc": [-79.4399626, 43.6937661], "centroid": [-79.36250739020899, 43.79194359037618], "screen_name": "tpscalls", "time": 1468229224.0, "tid": 752358523657486336, "text": "Noise Complaint | Belvidere Ave &amp; Strader Ave [13 Div.] 07/11 00:23 #Midtown_Toronto", "created_at": "Mon Jul 11 04:27:04 +0000 2016", "klabel": 55}}, {"geometry": {"type": "Point", "coordinates": [-79.4539999, 43.70171]}, "type": "Feature", "id": 752359394524950528, "properties": {"loc": [-79.4539999, 43.70171], "centroid": [-79.36250739020899, 43.79194359037618], "screen_name": "idiotgallant", "time": 1468229432.0, "tid": 752359394524950528, "text": "White Guys Dancing Badly Just Before Bedtime @ Mattress Boyz https://t.co/NeHtm9gVb7", "created_at": "Mon Jul 11 04:30:32 +0000 2016", "klabel": 55}}, {"geometry": {"type": "Point", "coordinates": [-79.4461092, 43.6855532]}, "type": "Feature", "id": 752370603169120256, "properties": {"loc": [-79.4461092, 43.6855532], "centroid": [-79.36250739020899, 43.79194359037618], "screen_name": "tpscalls", "time": 1468232104.0, "tid": 752370603169120256, "text": "Personal Injury Collision | Rogers Rd &amp; Dufferin St [13 Div.] 07/11 01:11 #Caledonia_Fairbank #Toronto", "created_at": "Mon Jul 11 05:15:04 +0000 2016", "klabel": 55}}, {"geometry": {"type": "Point", "coordinates": [-79.4465986, 43.6925398]}, "type": "Feature", "id": 752493647027965952, "properties": {"loc": [-79.4465986, 43.6925398], "centroid": [-79.36250739020899, 43.79194359037618], "screen_name": "5bucksbootcamp", "time": 1468261440.0, "tid": 752493647027965952, "text": "#1on1personaltraining Sale Going On Until July 31st 2016! $19.99/Session When You Buy 10\u2026 https://t.co/SZFr8JIy4W", "created_at": "Mon Jul 11 13:24:00 +0000 2016", "klabel": 55}}, {"geometry": {"type": "Point", "coordinates": [-79.4465986, 43.6925398]}, "type": "Feature", "id": 752505000325107713, "properties": {"loc": [-79.4465986, 43.6925398], "centroid": [-79.36250739020899, 43.79194359037618], "screen_name": "Charlantino", "time": 1468264147.0, "tid": 752505000325107713, "text": "Smart number for my last day here in Ontario. Seeing some art. #smart #torontoblogger #toronto\u2026 https://t.co/9yuiFJthoO", "created_at": "Mon Jul 11 14:09:07 +0000 2016", "klabel": 55}}, {"geometry": {"type": "Point", "coordinates": [-79.4363984, 43.6907037]}, "type": "Feature", "id": 752620025245208576, "properties": {"loc": [-79.4363984, 43.6907037], "centroid": [-79.36250739020899, 43.79194359037618], "screen_name": "AdrienneWishart", "time": 1468291571.0, "tid": 752620025245208576, "text": "When I hear about \"Salsa on St. Clair\" I automatically just picture a blob of chunky salsa on the sidewalk and it makes me laugh everytime", "created_at": "Mon Jul 11 21:46:11 +0000 2016", "klabel": 55}}, {"geometry": {"type": "Point", "coordinates": [-79.4465986, 43.6925398]}, "type": "Feature", "id": 752638054679011328, "properties": {"loc": [-79.4465986, 43.6925398], "centroid": [-79.36250739020899, 43.79194359037618], "screen_name": "Charlantino", "time": 1468295870.0, "tid": 752638054679011328, "text": "More amazing street food today near the harbour. #lastday #travel #torontoblogger #torontofoodie\u2026 https://t.co/0F8W8INPP1", "created_at": "Mon Jul 11 22:57:50 +0000 2016", "klabel": 55}}, {"geometry": {"type": "Point", "coordinates": [-79.4465986, 43.6925398]}, "type": "Feature", "id": 752646898809397249, "properties": {"loc": [-79.4465986, 43.6925398], "centroid": [-79.36250739020899, 43.79194359037618], "screen_name": "GiseGuzSa", "time": 1468297978.0, "tid": 752646898809397249, "text": "Lo mejor del lunes! Comer junto a ti @rjonasd \ud83d\ude18 @ Canada Ontario Toronto https://t.co/xf58447P8o", "created_at": "Mon Jul 11 23:32:58 +0000 2016", "klabel": 55}}, {"geometry": {"type": "Point", "coordinates": [-79.4413591, 43.6856768]}, "type": "Feature", "id": 752647672192966656, "properties": {"loc": [-79.4413591, 43.6856768], "centroid": [-79.36250739020899, 43.79194359037618], "screen_name": "tpscalls", "time": 1468298163.0, "tid": 752647672192966656, "text": "Attempt Break &amp; Enter | Times Rd &amp; Glenholme Ave [13 Div.] 07/11 19:32 #Toronto", "created_at": "Mon Jul 11 23:36:03 +0000 2016", "klabel": 55}}, {"geometry": {"type": "Point", "coordinates": [-79.4461092, 43.6855532]}, "type": "Feature", "id": 752692971817013249, "properties": {"loc": [-79.4461092, 43.6855532], "centroid": [-79.36250739020899, 43.79194359037618], "screen_name": "tpscalls", "time": 1468308963.0, "tid": 752692971817013249, "text": "Hazard | Rogers Rd &amp; Dufferin St [13 Div.] 07/11 22:32 #Caledonia_Fairbank #Toronto", "created_at": "Tue Jul 12 02:36:03 +0000 2016", "klabel": 55}}, {"geometry": {"type": "Point", "coordinates": [-79.44963747, 43.68839424]}, "type": "Feature", "id": 752693905938841600, "properties": {"loc": [-79.44963747, 43.68839424], "centroid": [-79.36250739020899, 43.79194359037618], "screen_name": "Aladin7o3", "time": 1468309186.0, "tid": 752693905938841600, "text": "T.O. C.A. \ud83c\udde8\ud83c\udde6 @ Toronto in Canada https://t.co/Txp8FPHohx", "created_at": "Tue Jul 12 02:39:46 +0000 2016", "klabel": 55}}, {"geometry": {"type": "Point", "coordinates": [-79.4536507, 43.6889917]}, "type": "Feature", "id": 752711094653841408, "properties": {"loc": [-79.4536507, 43.6889917], "centroid": [-79.36250739020899, 43.79194359037618], "screen_name": "tpscalls", "time": 1468313284.0, "tid": 752711094653841408, "text": "Dispute | Holmesdale Rd &amp; Chudleigh Rd [13 Div.] 07/11 23:42 #Fairbank #Toronto", "created_at": "Tue Jul 12 03:48:04 +0000 2016", "klabel": 55}}, {"geometry": {"type": "Point", "coordinates": [-79.4387957, 43.6942733]}, "type": "Feature", "id": 752728460687249409, "properties": {"loc": [-79.4387957, 43.6942733], "centroid": [-79.36250739020899, 43.79194359037618], "screen_name": "tpscalls", "time": 1468317424.0, "tid": 752728460687249409, "text": "Disorderlies | Marlee Ave &amp; Alameda Ave [13 Div.] 07/12 00:52 #York #Toronto", "created_at": "Tue Jul 12 04:57:04 +0000 2016", "klabel": 55}}, {"geometry": {"type": "Point", "coordinates": [-79.439283, 43.689646]}, "type": "Feature", "id": 752729211920580608, "properties": {"loc": [-79.439283, 43.689646], "centroid": [-79.36250739020899, 43.79194359037618], "screen_name": "tpscalls", "time": 1468317603.0, "tid": 752729211920580608, "text": "Noise Complaint | Oakwood Ave &amp; Oakwood Ave [13 Div.] 07/12 00:54 #Midtown_Toronto", "created_at": "Tue Jul 12 05:00:03 +0000 2016", "klabel": 55}}, {"geometry": {"type": "Point", "coordinates": [-79.44608408, 43.69993275]}, "type": "Feature", "id": 752842394807181312, "properties": {"loc": [-79.44608408, 43.69993275], "centroid": [-79.36250739020899, 43.79194359037618], "screen_name": "STEPSInitiative", "time": 1468344588.0, "tid": 752842394807181312, "text": "July 23rd is our 2nd Woven  community public art installation #artsintheparksto supported by\u2026 https://t.co/piR5lyDETc", "created_at": "Tue Jul 12 12:29:48 +0000 2016", "klabel": 55}}, {"geometry": {"type": "Point", "coordinates": [-79.4419655, 43.6841576]}, "type": "Feature", "id": 752898323858747392, "properties": {"loc": [-79.4419655, 43.6841576], "centroid": [-79.36250739020899, 43.79194359037618], "screen_name": "tpscalls", "time": 1468357923.0, "tid": 752898323858747392, "text": "Dispute | Glenholme Ave &amp; Lauder Ave [13 Div.] 07/12 12:06 #Toronto", "created_at": "Tue Jul 12 16:12:03 +0000 2016", "klabel": 55}}, {"geometry": {"type": "Point", "coordinates": [-79.4362813, 43.691401]}, "type": "Feature", "id": 752931304904196096, "properties": {"loc": [-79.4362813, 43.691401], "centroid": [-79.36250739020899, 43.79194359037618], "screen_name": "AdrienneWishart", "time": 1468365786.0, "tid": 752931304904196096, "text": "Imagine if you worked 1 shift at Burger King and then you quit but everyone u meet is like \"I saw u at BK! You're a Burger Flippin Master!\"", "created_at": "Tue Jul 12 18:23:06 +0000 2016", "klabel": 55}}, {"geometry": {"type": "Point", "coordinates": [-79.452112, 43.685176]}, "type": "Feature", "id": 752979863762505728, "properties": {"loc": [-79.452112, 43.685176], "centroid": [-79.36250739020899, 43.79194359037618], "screen_name": "tpscalls", "time": 1468377363.0, "tid": 752979863762505728, "text": "Break &amp; Enter | Miranda Ave &amp; Nairn Ave [13 Div.] 07/12 17:31 #Toronto", "created_at": "Tue Jul 12 21:36:03 +0000 2016", "klabel": 55}}, {"geometry": {"type": "Point", "coordinates": [-79.4402387, 43.6944645]}, "type": "Feature", "id": 752982884538023937, "properties": {"loc": [-79.4402387, 43.6944645], "centroid": [-79.36250739020899, 43.79194359037618], "screen_name": "tpscalls", "time": 1468378084.0, "tid": 752982884538023937, "text": "Trespass | Strader Ave &amp; Bude St [13 Div.] 07/12 17:42 #Oakwood_Village #Toronto", "created_at": "Tue Jul 12 21:48:04 +0000 2016", "klabel": 55}}, {"geometry": {"type": "Point", "coordinates": [-79.4428129, 43.6973438]}, "type": "Feature", "id": 752985149512572929, "properties": {"loc": [-79.4428129, 43.6973438], "centroid": [-79.36250739020899, 43.79194359037618], "screen_name": "tpscalls", "time": 1468378624.0, "tid": 752985149512572929, "text": "Robbery | Oakwood Ave &amp; Eglinton Ave W [13 Div.] 07/12 17:51 #Oakwood_Village #Toronto", "created_at": "Tue Jul 12 21:57:04 +0000 2016", "klabel": 55}}, {"geometry": {"type": "Point", "coordinates": [-79.4465986, 43.6925398]}, "type": "Feature", "id": 753003279316058113, "properties": {"loc": [-79.4465986, 43.6925398], "centroid": [-79.36250739020899, 43.79194359037618], "screen_name": "dulvera", "time": 1468382946.0, "tid": 753003279316058113, "text": "Ya empezamos. ..BBQ TIME!! #friends #venezuela #cuba #turkey #mexico\u2026 https://t.co/BY7hnj2KXR", "created_at": "Tue Jul 12 23:09:06 +0000 2016", "klabel": 55}}, {"geometry": {"type": "Point", "coordinates": [-79.44963747, 43.68839424]}, "type": "Feature", "id": 753079437680345088, "properties": {"loc": [-79.44963747, 43.68839424], "centroid": [-79.36250739020899, 43.79194359037618], "screen_name": "q17_s2", "time": 1468401104.0, "tid": 753079437680345088, "text": "\u4e09\u597d\u30aa\u30b9\u30b9\u30e1\u30aa\u30e0\u30e9\u30a4\u30b9\ud83d\udc93\n\u3042\u3086\u306e\u58f0\u304c\u3046\u308b\u3055\u3044 @ Toronto in Canada https://t.co/cJwKT4EEBO", "created_at": "Wed Jul 13 04:11:44 +0000 2016", "klabel": 55}}, {"geometry": {"type": "Point", "coordinates": [-79.4497146, 43.6947548]}, "type": "Feature", "id": 753306520616628224, "properties": {"loc": [-79.4497146, 43.6947548], "centroid": [-79.36250739020899, 43.79194359037618], "screen_name": "AdrienneWishart", "time": 1468455244.0, "tid": 753306520616628224, "text": "*9 Y.O me discovers a time machine*\nCOOL! IM GONNA GO TO THE YEAR 2016!\n*it zaps me to 2016, then zaps me back*\nWhat the fuck did I just see", "created_at": "Wed Jul 13 19:14:04 +0000 2016", "klabel": 55}}, {"geometry": {"type": "Point", "coordinates": [-79.4497116, 43.6947518]}, "type": "Feature", "id": 753307376049065985, "properties": {"loc": [-79.4497116, 43.6947518], "centroid": [-79.36250739020899, 43.79194359037618], "screen_name": "AdrienneWishart", "time": 1468455448.0, "tid": 753307376049065985, "text": "Ya'll remember that show on Much Music where they would invade somones bedroom and redecorate it?\n\nHow many dildos do you think they found?", "created_at": "Wed Jul 13 19:17:28 +0000 2016", "klabel": 55}}, {"geometry": {"type": "Point", "coordinates": [-79.4428129, 43.6973438]}, "type": "Feature", "id": 753334699880222720, "properties": {"loc": [-79.4428129, 43.6973438], "centroid": [-79.36250739020899, 43.79194359037618], "screen_name": "tpscalls", "time": 1468461963.0, "tid": 753334699880222720, "text": "Disorderlies | Oakwood Ave &amp; Eglinton Ave W [13 Div.] 07/13 17:01 #Oakwood_Village #Toronto", "created_at": "Wed Jul 13 21:06:03 +0000 2016", "klabel": 55}}, {"geometry": {"type": "Point", "coordinates": [-79.44066, 43.69751]}, "type": "Feature", "id": 753343450037248001, "properties": {"loc": [-79.44066, 43.69751], "centroid": [-79.36250739020899, 43.79194359037618], "screen_name": "YorkEglintonBIA", "time": 1468464049.0, "tid": 753343450037248001, "text": "omg! It is looking better and better by the minute.... Big unveiling this Saturday during\u2026 https://t.co/Npoi7uzocn", "created_at": "Wed Jul 13 21:40:49 +0000 2016", "klabel": 55}}, {"geometry": {"type": "Point", "coordinates": [-79.44963747, 43.68839424]}, "type": "Feature", "id": 753345334861033472, "properties": {"loc": [-79.44963747, 43.68839424], "centroid": [-79.36250739020899, 43.79194359037618], "screen_name": "claire_shinn", "time": 1468464498.0, "tid": 753345334861033472, "text": "Can't wait to get away from everything and everyone for a while. See you soon (6 days) \u2764\ufe0f @\u2026 https://t.co/ysAUWpiK1v", "created_at": "Wed Jul 13 21:48:18 +0000 2016", "klabel": 55}}, {"geometry": {"type": "Point", "coordinates": [-79.453127, 43.6950528]}, "type": "Feature", "id": 753374715629146113, "properties": {"loc": [-79.453127, 43.6950528], "centroid": [-79.36250739020899, 43.79194359037618], "screen_name": "tpscalls", "time": 1468471503.0, "tid": 753374715629146113, "text": "Disorderlies | Soudan Ave &amp; Eglinton Ave W [53 Div.] 07/13 19:40 #Toronto", "created_at": "Wed Jul 13 23:45:03 +0000 2016", "klabel": 55}}, {"geometry": {"type": "Point", "coordinates": [-79.44963747, 43.68839424]}, "type": "Feature", "id": 753391313681276929, "properties": {"loc": [-79.44963747, 43.68839424], "centroid": [-79.36250739020899, 43.79194359037618], "screen_name": "isabelmatos2000", "time": 1468475461.0, "tid": 753391313681276929, "text": "Aholaa \ud83c\udde8\ud83c\udde6 @ Toronto in Canada https://t.co/JTww5lnbBe", "created_at": "Thu Jul 14 00:51:01 +0000 2016", "klabel": 55}}, {"geometry": {"type": "Point", "coordinates": [-79.4417319, 43.7038489]}, "type": "Feature", "id": 753392077573087233, "properties": {"loc": [-79.4417319, 43.7038489], "centroid": [-79.36250739020899, 43.79194359037618], "screen_name": "tpscalls", "time": 1468475643.0, "tid": 753392077573087233, "text": "Assault Just Occurred | Marlee Ave &amp; Ridelle Ave [13 Div.] 07/13 20:48 #Midtown_Toronto", "created_at": "Thu Jul 14 00:54:03 +0000 2016", "klabel": 55}}, {"geometry": {"type": "Point", "coordinates": [-79.4461092, 43.6855532]}, "type": "Feature", "id": 753400389119123456, "properties": {"loc": [-79.4461092, 43.6855532], "centroid": [-79.36250739020899, 43.79194359037618], "screen_name": "tpscalls", "time": 1468477624.0, "tid": 753400389119123456, "text": "Assault Just Occurred | Rogers Rd &amp; Dufferin St [PK13] 07/13 21:23 #Caledonia_Fairbank #Toronto", "created_at": "Thu Jul 14 01:27:04 +0000 2016", "klabel": 55}}, {"geometry": {"type": "Point", "coordinates": [-79.453127, 43.6950528]}, "type": "Feature", "id": 753570500899643392, "properties": {"loc": [-79.453127, 43.6950528], "centroid": [-79.36250739020899, 43.79194359037618], "screen_name": "tpscalls", "time": 1468518182.0, "tid": 753570500899643392, "text": "Unknown Trouble | Soudan Ave &amp; Eglinton Ave W [53 Div.] 07/14 08:37 #Toronto", "created_at": "Thu Jul 14 12:43:02 +0000 2016", "klabel": 55}}, {"geometry": {"type": "Point", "coordinates": [-79.4465986, 43.6925398]}, "type": "Feature", "id": 753591690544291840, "properties": {"loc": [-79.4465986, 43.6925398], "centroid": [-79.36250739020899, 43.79194359037618], "screen_name": "jtjazzy1", "time": 1468523234.0, "tid": 753591690544291840, "text": "Happy Anniversary to my best friends who got married on the same day as my husband and I. Love\u2026 https://t.co/BX9afJnKXr", "created_at": "Thu Jul 14 14:07:14 +0000 2016", "klabel": 55}}, {"geometry": {"type": "Point", "coordinates": [-79.4383884, 43.6981988]}, "type": "Feature", "id": 753715724749766660, "properties": {"loc": [-79.4383884, 43.6981988], "centroid": [-79.36250739020899, 43.79194359037618], "screen_name": "tofireS", "time": 1468552806.0, "tid": 753715724749766660, "text": "Medical (Unconscious) - Eglinton Avenue b/w Atlas Avenue / Winona Dr, York (2 Trucks)", "created_at": "Thu Jul 14 22:20:06 +0000 2016", "klabel": 55}}, {"geometry": {"type": "Point", "coordinates": [-79.44963747, 43.68839424]}, "type": "Feature", "id": 753926786585460736, "properties": {"loc": [-79.44963747, 43.68839424], "centroid": [-79.36250739020899, 43.79194359037618], "screen_name": "Shierz", "time": 1468603127.0, "tid": 753926786585460736, "text": "#UA conversion in progress...awaiting sponsorship! @underarmour #2032olympian @ Toronto in Canada https://t.co/OtiAhPymi2", "created_at": "Fri Jul 15 12:18:47 +0000 2016", "klabel": 55}}, {"geometry": {"type": "Point", "coordinates": [-79.4517099, 43.7061576]}, "type": "Feature", "id": 753948745444786176, "properties": {"loc": [-79.4517099, 43.7061576], "centroid": [-79.36250739020899, 43.79194359037618], "screen_name": "tpscalls", "time": 1468608363.0, "tid": 753948745444786176, "text": "Personal Injury Collision | Hillmount Ave &amp; Hillmount Ave [13 Div.] 07/15 09:40 #393 #Toronto", "created_at": "Fri Jul 15 13:46:03 +0000 2016", "klabel": 55}}, {"geometry": {"type": "Point", "coordinates": [-79.453127, 43.6950528]}, "type": "Feature", "id": 753975674738733056, "properties": {"loc": [-79.453127, 43.6950528], "centroid": [-79.36250739020899, 43.79194359037618], "screen_name": "tpscalls", "time": 1468614783.0, "tid": 753975674738733056, "text": "Holding Lost Elderly | Soudan Ave &amp; Eglinton Ave W [53 Div.] 07/15 11:27 #Toronto", "created_at": "Fri Jul 15 15:33:03 +0000 2016", "klabel": 55}}, {"geometry": {"type": "Point", "coordinates": [-79.44963747, 43.68839424]}, "type": "Feature", "id": 753977771462946816, "properties": {"loc": [-79.44963747, 43.68839424], "centroid": [-79.36250739020899, 43.79194359037618], "screen_name": "_shettababy", "time": 1468615283.0, "tid": 753977771462946816, "text": "Flashback Day!\n\n#flashbackday #flashback #flashbackfri #fbf #summer15 #toronto2015 #caribana2015\u2026 https://t.co/NQQWBmOikR", "created_at": "Fri Jul 15 15:41:23 +0000 2016", "klabel": 55}}, {"geometry": {"type": "Point", "coordinates": [-79.44963747, 43.68839424]}, "type": "Feature", "id": 754059736975310848, "properties": {"loc": [-79.44963747, 43.68839424], "centroid": [-79.36250739020899, 43.79194359037618], "screen_name": "_shettababy", "time": 1468634825.0, "tid": 754059736975310848, "text": "Flashback Day!\n\n#flashbackday #flashback #flashbackfri #fbf #summer15 #toronto2015\u2026 https://t.co/mEmmznLXTM", "created_at": "Fri Jul 15 21:07:05 +0000 2016", "klabel": 55}}, {"geometry": {"type": "Point", "coordinates": [-79.4456, 43.69695]}, "type": "Feature", "id": 754074205251964928, "properties": {"loc": [-79.4456, 43.69695], "centroid": [-79.36250739020899, 43.79194359037618], "screen_name": "Toronto24FIT", "time": 1468638275.0, "tid": 754074205251964928, "text": "The truth always comes out!\nGod bless #Herbalife!  When you FOCUS on helping people and stay on\u2026 https://t.co/UeH9HZWyeW", "created_at": "Fri Jul 15 22:04:35 +0000 2016", "klabel": 55}}, {"geometry": {"type": "Point", "coordinates": [-79.453127, 43.6950528]}, "type": "Feature", "id": 754133465638006784, "properties": {"loc": [-79.453127, 43.6950528], "centroid": [-79.36250739020899, 43.79194359037618], "screen_name": "tpscalls", "time": 1468652403.0, "tid": 754133465638006784, "text": "Disorderlies | Denfield St &amp; Eglinton Ave W [23 Div.] 07/15 21:54 #Toronto", "created_at": "Sat Jul 16 02:00:03 +0000 2016", "klabel": 55}}, {"geometry": {"type": "Point", "coordinates": [-79.4409595, 43.68316]}, "type": "Feature", "id": 754133468473389057, "properties": {"loc": [-79.4409595, 43.68316], "centroid": [-79.36250739020899, 43.79194359037618], "screen_name": "tpscalls", "time": 1468652404.0, "tid": 754133468473389057, "text": "Person With A Knife | Cloverlawn Ave &amp; Millerson Ave [13 Div.] 07/15 21:57 #St._Clair_West_Village #Toronto", "created_at": "Sat Jul 16 02:00:04 +0000 2016", "klabel": 55}}, {"geometry": {"type": "Point", "coordinates": [-79.44963747, 43.68839424]}, "type": "Feature", "id": 754134708200599561, "properties": {"loc": [-79.44963747, 43.68839424], "centroid": [-79.36250739020899, 43.79194359037618], "screen_name": "_shettababy", "time": 1468652700.0, "tid": 754134708200599561, "text": "Flashback Day!\n\n#flashbackday #flashback #flashbackfri #fbf #summer2015 #summer15 #toronto2015\u2026 https://t.co/5yIXq9JgNk", "created_at": "Sat Jul 16 02:05:00 +0000 2016", "klabel": 55}}, {"geometry": {"type": "Point", "coordinates": [-79.44963747, 43.68839424]}, "type": "Feature", "id": 754150139896459264, "properties": {"loc": [-79.44963747, 43.68839424], "centroid": [-79.36250739020899, 43.79194359037618], "screen_name": "_shettababy", "time": 1468656379.0, "tid": 754150139896459264, "text": "Flashback Day!\n\n#flashbackday #flashback #flashbackfri #fbf #summer2015 #summer15 #toronto2015\u2026 https://t.co/JBfxLi24zB", "created_at": "Sat Jul 16 03:06:19 +0000 2016", "klabel": 55}}, {"geometry": {"type": "Point", "coordinates": [-79.4354334, 43.6989199]}, "type": "Feature", "id": 754187073947664384, "properties": {"loc": [-79.4354334, 43.6989199], "centroid": [-79.36250739020899, 43.79194359037618], "screen_name": "tpscalls", "time": 1468665185.0, "tid": 754187073947664384, "text": "Taxi Alarm | Eglinton Ave W &amp; William R Allen Rd N [13 Div.] 07/16 01:28 #Midtown_Toronto", "created_at": "Sat Jul 16 05:33:05 +0000 2016", "klabel": 55}}, {"geometry": {"type": "Point", "coordinates": [-79.4341623, 43.692672]}, "type": "Feature", "id": 754192356140867585, "properties": {"loc": [-79.4341623, 43.692672], "centroid": [-79.36250739020899, 43.79194359037618], "screen_name": "tpscalls", "time": 1468666444.0, "tid": 754192356140867585, "text": "Disorderlies | Ln N Vaughan E Arlington &amp; Durham Ave [13 Div.] 07/16 01:48 #Midtown_Toronto", "created_at": "Sat Jul 16 05:54:04 +0000 2016", "klabel": 55}}, {"geometry": {"type": "Point", "coordinates": [-79.439283, 43.689646]}, "type": "Feature", "id": 754200150139084800, "properties": {"loc": [-79.439283, 43.689646], "centroid": [-79.36250739020899, 43.79194359037618], "screen_name": "tpscalls", "time": 1468668302.0, "tid": 754200150139084800, "text": "Noise Complaint | Oakwood Ave &amp; Oakwood Ave [13 Div.] 07/16 02:20 #Midtown_Toronto", "created_at": "Sat Jul 16 06:25:02 +0000 2016", "klabel": 55}}, {"geometry": {"type": "Point", "coordinates": [-79.4387957, 43.6942733]}, "type": "Feature", "id": 754237896140480513, "properties": {"loc": [-79.4387957, 43.6942733], "centroid": [-79.36250739020899, 43.79194359037618], "screen_name": "tpscalls", "time": 1468677302.0, "tid": 754237896140480513, "text": "Disorderlies | Marlee Ave &amp; Alameda Ave [13 Div.] 07/16 04:50 #Midtown_Toronto", "created_at": "Sat Jul 16 08:55:02 +0000 2016", "klabel": 55}}, {"geometry": {"type": "Point", "coordinates": [-79.44963747, 43.68839424]}, "type": "Feature", "id": 754396703180992512, "properties": {"loc": [-79.44963747, 43.68839424], "centroid": [-79.36250739020899, 43.79194359037618], "screen_name": "davosays", "time": 1468715164.0, "tid": 754396703180992512, "text": "Toronto Indy Car Races. #Toronto #indyto #indycar #indycars #Canada #Porsche #Porsche911 @\u2026 https://t.co/HOesGAFw2o", "created_at": "Sat Jul 16 19:26:04 +0000 2016", "klabel": 55}}, {"geometry": {"type": "Point", "coordinates": [-79.44963747, 43.68839424]}, "type": "Feature", "id": 754401590468116480, "properties": {"loc": [-79.44963747, 43.68839424], "centroid": [-79.36250739020899, 43.79194359037618], "screen_name": "djpyrex", "time": 1468716329.0, "tid": 754401590468116480, "text": "#Np..Far Away  by emani  &amp;  @HotBoyTurk32  #TheRealLoveAndHipHop comin soon #YNTDJs #NerveDjs\u2026 https://t.co/iCd1Tg9FHD", "created_at": "Sat Jul 16 19:45:29 +0000 2016", "klabel": 55}}, {"geometry": {"type": "Point", "coordinates": [-79.435342, 43.698435]}, "type": "Feature", "id": 754409531677868032, "properties": {"loc": [-79.435342, 43.698435], "centroid": [-79.36250739020899, 43.79194359037618], "screen_name": "Bees_N_Trees", "time": 1468718223.0, "tid": 754409531677868032, "text": "Making friends. #nature_grows #cicada #love #lifewithjoe #family #summer #babymamaatwork @ Ben\u2026 https://t.co/e4rjBnWOui", "created_at": "Sat Jul 16 20:17:03 +0000 2016", "klabel": 55}}, {"geometry": {"type": "Point", "coordinates": [-79.435819, 43.699209]}, "type": "Feature", "id": 754423028180668416, "properties": {"loc": [-79.435819, 43.699209], "centroid": [-79.36250739020899, 43.79194359037618], "screen_name": "AndreasKalo", "time": 1468721441.0, "tid": 754423028180668416, "text": "Tmac member, the incomparable Jay Douglas with the sweet reggae\u2026 https://t.co/cxKqWQLVaE", "created_at": "Sat Jul 16 21:10:41 +0000 2016", "klabel": 55}}, {"geometry": {"type": "Point", "coordinates": [-79.4405715, 43.7010689]}, "type": "Feature", "id": 754425391322918916, "properties": {"loc": [-79.4405715, 43.7010689], "centroid": [-79.36250739020899, 43.79194359037618], "screen_name": "tofire", "time": 1468722004.0, "tid": 754425391322918916, "text": "Alarm Highrise Residential - Hopewell Avenue b/w Marlee Avenue / Times Road, York (6 Trucks)", "created_at": "Sat Jul 16 21:20:04 +0000 2016", "klabel": 55}}, {"geometry": {"type": "Point", "coordinates": [-79.4360549, 43.6859823]}, "type": "Feature", "id": 754446276083716096, "properties": {"loc": [-79.4360549, 43.6859823], "centroid": [-79.36250739020899, 43.79194359037618], "screen_name": "tpscalls", "time": 1468726983.0, "tid": 754446276083716096, "text": "Fail To Remain Property Damage Collision | Earlsdale Ave &amp; Earlsdale Ave [13 Div.] 07/16 18:38 #Oakwood_Village #Toronto", "created_at": "Sat Jul 16 22:43:03 +0000 2016", "klabel": 55}}, {"geometry": {"type": "Point", "coordinates": [-79.4402753, 43.7003154]}, "type": "Feature", "id": 754461882220675072, "properties": {"loc": [-79.4402753, 43.7003154], "centroid": [-79.36250739020899, 43.79194359037618], "screen_name": "tofire", "time": 1468730704.0, "tid": 754461882220675072, "text": "Alarm Residential - Whitmore Avenue b/w Marlee Avenue / Times Road, York (6 Trucks)", "created_at": "Sat Jul 16 23:45:04 +0000 2016", "klabel": 55}}, {"geometry": {"type": "Point", "coordinates": [-79.4539999, 43.70171]}, "type": "Feature", "id": 754479387437834240, "properties": {"loc": [-79.4539999, 43.70171], "centroid": [-79.36250739020899, 43.79194359037618], "screen_name": "TheDylanDias", "time": 1468734878.0, "tid": 754479387437834240, "text": "V3 #Supernova // #Summer spectrum of #Ruby, #Sapphire, #Sky, #UltraViolet, #Amethyst, #HotPink,\u2026 https://t.co/RASNCxSKzJ", "created_at": "Sun Jul 17 00:54:38 +0000 2016", "klabel": 55}}, {"geometry": {"type": "Point", "coordinates": [-79.44592617, 43.68779797]}, "type": "Feature", "id": 754486164141248512, "properties": {"loc": [-79.44592617, 43.68779797], "centroid": [-79.36250739020899, 43.79194359037618], "screen_name": "celsocelante", "time": 1468736493.0, "tid": 754486164141248512, "text": "@allanhano", "created_at": "Sun Jul 17 01:21:33 +0000 2016", "klabel": 55}}, {"geometry": {"type": "Point", "coordinates": [-79.44575051, 43.68798884]}, "type": "Feature", "id": 754506899664568320, "properties": {"loc": [-79.44575051, 43.68798884], "centroid": [-79.36250739020899, 43.79194359037618], "screen_name": "celsocelante", "time": 1468741437.0, "tid": 754506899664568320, "text": "@czar533", "created_at": "Sun Jul 17 02:43:57 +0000 2016", "klabel": 55}}, {"geometry": {"type": "Point", "coordinates": [-79.4340797, 43.6914225]}, "type": "Feature", "id": 754525295391154176, "properties": {"loc": [-79.4340797, 43.6914225], "centroid": [-79.36250739020899, 43.79194359037618], "screen_name": "tpscalls", "time": 1468745823.0, "tid": 754525295391154176, "text": "Assault | William R Allen Rd S &amp; Winnett Ave [13 Div.] 07/16 23:53 #Midtown_Toronto", "created_at": "Sun Jul 17 03:57:03 +0000 2016", "klabel": 55}}, {"geometry": {"type": "Point", "coordinates": [-79.44206, 43.70576]}, "type": "Feature", "id": 754551652477243392, "properties": {"loc": [-79.44206, 43.70576], "centroid": [-79.36250739020899, 43.79194359037618], "screen_name": "VDensted", "time": 1468752107.0, "tid": 754551652477243392, "text": "Purple focus by my girl milabright_toronto \ud83d\ude18\ud83d\ude0d #pool #billiards #toronto #nightlife @ Chalkers\u2026 https://t.co/g8UEGbyDUu", "created_at": "Sun Jul 17 05:41:47 +0000 2016", "klabel": 55}}, {"geometry": {"type": "Point", "coordinates": [-79.450964, 43.695588]}, "type": "Feature", "id": 754575119704469504, "properties": {"loc": [-79.450964, 43.695588], "centroid": [-79.36250739020899, 43.79194359037618], "screen_name": "eTRiTcom", "time": 1468757702.0, "tid": 754575119704469504, "text": "Eglinton West Rehab Group, York, ON, M6E 2J4 - https://t.co/QfZdZWyhKv\n\n#eglintonwestrehabgroup #chiropractor #reviews", "created_at": "Sun Jul 17 07:15:02 +0000 2016", "klabel": 55}}, {"geometry": {"type": "Point", "coordinates": [-79.4483348, 43.7011413]}, "type": "Feature", "id": 754643824023142401, "properties": {"loc": [-79.4483348, 43.7011413], "centroid": [-79.36250739020899, 43.79194359037618], "screen_name": "tpscalls", "time": 1468774082.0, "tid": 754643824023142401, "text": "Unknown Trouble | Times Rd &amp; Locksley Ave [13 Div.] 07/17 07:45 #York #Toronto", "created_at": "Sun Jul 17 11:48:02 +0000 2016", "klabel": 55}}, {"geometry": {"type": "Point", "coordinates": [-79.44963747, 43.68839424]}, "type": "Feature", "id": 754649209803042816, "properties": {"loc": [-79.44963747, 43.68839424], "centroid": [-79.36250739020899, 43.79194359037618], "screen_name": "Maaria_LC", "time": 1468775366.0, "tid": 754649209803042816, "text": "H a p p y  B d a y \u2755 \ud83d\ude18\ud83d\udc9e\ud83c\udf82\ud83c\udf88\ud83c\udf81 @ Toronto in Canada https://t.co/7V4SmzKwVi", "created_at": "Sun Jul 17 12:09:26 +0000 2016", "klabel": 55}}, {"geometry": {"type": "Point", "coordinates": [-79.4406684, 43.70302579]}, "type": "Feature", "id": 754668008409149440, "properties": {"loc": [-79.4406684, 43.70302579], "centroid": [-79.36250739020899, 43.79194359037618], "screen_name": "ShowDown_TO", "time": 1468779848.0, "tid": 754668008409149440, "text": "Join us Today, Sun July 17th for the #Muzikbeach Day Party! Open\u2026 https://t.co/2dbVTrlagB", "created_at": "Sun Jul 17 13:24:08 +0000 2016", "klabel": 55}}, {"geometry": {"type": "Point", "coordinates": [-79.435819, 43.699209]}, "type": "Feature", "id": 754704669859917824, "properties": {"loc": [-79.435819, 43.699209], "centroid": [-79.36250739020899, 43.79194359037618], "screen_name": "georgiienne", "time": 1468788589.0, "tid": 754704669859917824, "text": "I want this in my apartment! So cool #ttc #egwest #subwayart #urbanart @ Eglinton West https://t.co/JMigzdNrM9", "created_at": "Sun Jul 17 15:49:49 +0000 2016", "klabel": 55}}, {"geometry": {"type": "Point", "coordinates": [-79.44963747, 43.68839424]}, "type": "Feature", "id": 754781925659684864, "properties": {"loc": [-79.44963747, 43.68839424], "centroid": [-79.36250739020899, 43.79194359037618], "screen_name": "_SLEEPYBOO", "time": 1468807008.0, "tid": 754781925659684864, "text": "The time goes by faster than you imagine. #1monthago @ Toronto in\u2026 https://t.co/HUQQIb4anU", "created_at": "Sun Jul 17 20:56:48 +0000 2016", "klabel": 55}}, {"geometry": {"type": "Point", "coordinates": [-79.4385647, 43.6932712]}, "type": "Feature", "id": 754796330845925377, "properties": {"loc": [-79.4385647, 43.6932712], "centroid": [-79.36250739020899, 43.79194359037618], "screen_name": "tpscalls", "time": 1468810443.0, "tid": 754796330845925377, "text": "See Ambulance | Vaughan Rd &amp; Belvidere Ave [13 Div.] 07/17 17:49 #Midtown_Toronto", "created_at": "Sun Jul 17 21:54:03 +0000 2016", "klabel": 55}}, {"geometry": {"type": "Point", "coordinates": [-79.4403076, 43.6981087]}, "type": "Feature", "id": 754824054960455682, "properties": {"loc": [-79.4403076, 43.6981087], "centroid": [-79.36250739020899, 43.79194359037618], "screen_name": "King1Lyrical", "time": 1468817053.0, "tid": 754824054960455682, "text": "Cheap N Clean Mondayz\n\nThis Week\n\nSo You Think You Can Dance Edition\n\nLas Brisas Night Club\n\n24\u2026 https://t.co/a2dE9ZoLKB", "created_at": "Sun Jul 17 23:44:13 +0000 2016", "klabel": 55}}, {"geometry": {"type": "Point", "coordinates": [-79.44963747, 43.68839424]}, "type": "Feature", "id": 754881914343948288, "properties": {"loc": [-79.44963747, 43.68839424], "centroid": [-79.36250739020899, 43.79194359037618], "screen_name": "savagegizzy", "time": 1468830848.0, "tid": 754881914343948288, "text": "#PLUGGED #photoshopexpress #GRizzly #HIVEFAM #DAWGS #TRAPMUISK\u2026 https://t.co/nn1hUezoZG", "created_at": "Mon Jul 18 03:34:08 +0000 2016", "klabel": 55}}, {"geometry": {"type": "Point", "coordinates": [-79.44705, 43.69624]}, "type": "Feature", "id": 754882269001678848, "properties": {"loc": [-79.44705, 43.69624], "centroid": [-79.36250739020899, 43.79194359037618], "screen_name": "King1Lyrical", "time": 1468830932.0, "tid": 754882269001678848, "text": "Just posted a photo @ High Life Restaurant https://t.co/0737IKAMhq", "created_at": "Mon Jul 18 03:35:32 +0000 2016", "klabel": 55}}, {"geometry": {"type": "Point", "coordinates": [-79.44705, 43.69624]}, "type": "Feature", "id": 754882430620864512, "properties": {"loc": [-79.44705, 43.69624], "centroid": [-79.36250739020899, 43.79194359037618], "screen_name": "King1Lyrical", "time": 1468830971.0, "tid": 754882430620864512, "text": "Just posted a photo @ High Life Restaurant https://t.co/P20bqauiJE", "created_at": "Mon Jul 18 03:36:11 +0000 2016", "klabel": 55}}, {"geometry": {"type": "Point", "coordinates": [-79.4399626, 43.6937661]}, "type": "Feature", "id": 754886176314626048, "properties": {"loc": [-79.4399626, 43.6937661], "centroid": [-79.36250739020899, 43.79194359037618], "screen_name": "tpscalls", "time": 1468831864.0, "tid": 754886176314626048, "text": "Noise Complaint | Belvidere Ave &amp; Strader Ave [13 Div.] 07/17 23:45 #Midtown_Toronto", "created_at": "Mon Jul 18 03:51:04 +0000 2016", "klabel": 55}}, {"geometry": {"type": "Point", "coordinates": [-79.4370814, 43.6857721]}, "type": "Feature", "id": 754997155606237185, "properties": {"loc": [-79.4370814, 43.6857721], "centroid": [-79.36250739020899, 43.79194359037618], "screen_name": "tpscalls", "time": 1468858323.0, "tid": 754997155606237185, "text": "Arson | Roseneath Gdns &amp; Robina Ave [13 Div.] 07/18 07:07 #Midtown_Toronto", "created_at": "Mon Jul 18 11:12:03 +0000 2016", "klabel": 55}}, {"geometry": {"type": "Point", "coordinates": [-79.45647, 43.70536]}, "type": "Feature", "id": 755014260787339264, "properties": {"loc": [-79.45647, 43.70536], "centroid": [-79.36250739020899, 43.79194359037618], "screen_name": "NoManuel696", "time": 1468862401.0, "tid": 755014260787339264, "text": "Goodmorning! \n#coffee #morningcoffee #morning #faces #happyfaces #happy #subway\u2026 https://t.co/Q9VbCecyUm", "created_at": "Mon Jul 18 12:20:01 +0000 2016", "klabel": 55}}, {"geometry": {"type": "Point", "coordinates": [-79.4462211, 43.7015803]}, "type": "Feature", "id": 755038679299682304, "properties": {"loc": [-79.4462211, 43.7015803], "centroid": [-79.36250739020899, 43.79194359037618], "screen_name": "tpscalls", "time": 1468868223.0, "tid": 755038679299682304, "text": "Break &amp; Enter | Marlee Ave &amp; Times Rd [13 Div.] 07/18 09:51 #York #Toronto", "created_at": "Mon Jul 18 13:57:03 +0000 2016", "klabel": 55}}, {"geometry": {"type": "Point", "coordinates": [-79.453127, 43.6950528]}, "type": "Feature", "id": 755045470758666240, "properties": {"loc": [-79.453127, 43.6950528], "centroid": [-79.36250739020899, 43.79194359037618], "screen_name": "tpscalls", "time": 1468869842.0, "tid": 755045470758666240, "text": "Unknown Trouble | Soudan Ave &amp; Eglinton Ave W [53 Div.] 07/18 10:19 #Toronto", "created_at": "Mon Jul 18 14:24:02 +0000 2016", "klabel": 55}}, {"geometry": {"type": "Point", "coordinates": [-79.4459305, 43.6998215]}, "type": "Feature", "id": 755064087130714113, "properties": {"loc": [-79.4459305, 43.6998215], "centroid": [-79.36250739020899, 43.79194359037618], "screen_name": "DopexSociety", "time": 1468874281.0, "tid": 755064087130714113, "text": "The Art Of Dope II \nNew Collection / \nhttps://t.co/302pyq8PpU\n\n#ArtOfDope\n#Toronto\n#Fashion\n#Dope @\u2026 https://t.co/qFSwA3Fhgm", "created_at": "Mon Jul 18 15:38:01 +0000 2016", "klabel": 55}}, {"geometry": {"type": "Point", "coordinates": [-79.44963747, 43.68839424]}, "type": "Feature", "id": 755083938121457664, "properties": {"loc": [-79.44963747, 43.68839424], "centroid": [-79.36250739020899, 43.79194359037618], "screen_name": "Charlantino", "time": 1468879014.0, "tid": 755083938121457664, "text": "Take me back \u2600\ufe0f #travel #holiday #adventure #Canada #lovinglife #missingit #whatsnext \ud83d\ude2d @\u2026 https://t.co/pWY19K7fTc", "created_at": "Mon Jul 18 16:56:54 +0000 2016", "klabel": 55}}, {"geometry": {"type": "Point", "coordinates": [-79.4363989, 43.690996]}, "type": "Feature", "id": 755107354803404801, "properties": {"loc": [-79.4363989, 43.690996], "centroid": [-79.36250739020899, 43.79194359037618], "screen_name": "AdrienneWishart", "time": 1468884597.0, "tid": 755107354803404801, "text": "*10 Y.O Me visits a fortune teller*\nTell me about my life in the future! \n\nF.T: Uh...it's probably a good thing ur sitting down", "created_at": "Mon Jul 18 18:29:57 +0000 2016", "klabel": 55}}, {"geometry": {"type": "Point", "coordinates": [-79.4396358, 43.6897906]}, "type": "Feature", "id": 755117950454099973, "properties": {"loc": [-79.4396358, 43.6897906], "centroid": [-79.36250739020899, 43.79194359037618], "screen_name": "tpscalls", "time": 1468887123.0, "tid": 755117950454099973, "text": "Dispute | Holland Park Ave &amp; Jesmond Ave [13 Div.] 07/18 15:07 #Oakwood_Village #Toronto", "created_at": "Mon Jul 18 19:12:03 +0000 2016", "klabel": 55}}, {"geometry": {"type": "Point", "coordinates": [-79.45403246, 43.69020262]}, "type": "Feature", "id": 755125972811251712, "properties": {"loc": [-79.45403246, 43.69020262], "centroid": [-79.36250739020899, 43.79194359037618], "screen_name": "DigitalDreamPVD", "time": 1468889036.0, "tid": 755125972811251712, "text": "Smiling because they got perfect sunset photos for their engagement shoot \ud83c\udf1e #engaged #engagement\u2026 https://t.co/vwGoSYpWUp", "created_at": "Mon Jul 18 19:43:56 +0000 2016", "klabel": 55}}, {"geometry": {"type": "Point", "coordinates": [-79.4461092, 43.6855532]}, "type": "Feature", "id": 755145135034216448, "properties": {"loc": [-79.4461092, 43.6855532], "centroid": [-79.36250739020899, 43.79194359037618], "screen_name": "tpscalls", "time": 1468893604.0, "tid": 755145135034216448, "text": "Fail To Remain Personal Injury Collision | Dufferin St &amp; Rogers Rd [13 Div.] 07/18 16:54 #Caledonia_Fairbank #Toronto", "created_at": "Mon Jul 18 21:00:04 +0000 2016", "klabel": 55}}, {"geometry": {"type": "Point", "coordinates": [-79.4363636, 43.6910052]}, "type": "Feature", "id": 755163876287733760, "properties": {"loc": [-79.4363636, 43.6910052], "centroid": [-79.36250739020899, 43.79194359037618], "screen_name": "AdrienneWishart", "time": 1468898073.0, "tid": 755163876287733760, "text": "Sometimes I wish I were an optomist. Being a realist can be pretty draining .\nA small dose of ignorant bliss would be a nice change.", "created_at": "Mon Jul 18 22:14:33 +0000 2016", "klabel": 55}}, {"geometry": {"type": "Point", "coordinates": [-79.4370814, 43.6857721]}, "type": "Feature", "id": 755179104996036608, "properties": {"loc": [-79.4370814, 43.6857721], "centroid": [-79.36250739020899, 43.79194359037618], "screen_name": "tpscalls", "time": 1468901703.0, "tid": 755179104996036608, "text": "Arson | Roseneath Gdns &amp; Robina Ave [13 Div.] 07/18 19:10 #Midtown_Toronto", "created_at": "Mon Jul 18 23:15:03 +0000 2016", "klabel": 55}}, {"geometry": {"type": "Point", "coordinates": [-79.4561386, 43.6946297]}, "type": "Feature", "id": 755210334324027392, "properties": {"loc": [-79.4561386, 43.6946297], "centroid": [-79.36250739020899, 43.79194359037618], "screen_name": "Teinie", "time": 1468909149.0, "tid": 755210334324027392, "text": "You don't have cravings like I do \ud83d\ude05\n~\u2022~\u2022~\u2022~\u2022~\u2022~\u2022~\u2022~\u2022~\u2022~\u2022~\u2022~\u2022~\u2022~\u2022~\u2022~\u2022~\n#food #foodporn #instafood\u2026 https://t.co/my2wURDAHI", "created_at": "Tue Jul 19 01:19:09 +0000 2016", "klabel": 55}}, {"geometry": {"type": "Point", "coordinates": [-79.44574936, 43.68788772]}, "type": "Feature", "id": 755233001580224512, "properties": {"loc": [-79.44574936, 43.68788772], "centroid": [-79.36250739020899, 43.79194359037618], "screen_name": "celsocelante", "time": 1468914553.0, "tid": 755233001580224512, "text": "@bonelam fechado", "created_at": "Tue Jul 19 02:49:13 +0000 2016", "klabel": 55}}, {"geometry": {"type": "Point", "coordinates": [-79.435819, 43.699209]}, "type": "Feature", "id": 755440381215576064, "properties": {"loc": [-79.435819, 43.699209], "centroid": [-79.36250739020899, 43.79194359037618], "screen_name": "cvirtueskirts", "time": 1468963996.0, "tid": 755440381215576064, "text": "I did it! I got the documents to open my new account at @jnbscanada of @jamaicanational .  All\u2026 https://t.co/l5bRRWuaE1", "created_at": "Tue Jul 19 16:33:16 +0000 2016", "klabel": 55}}, {"geometry": {"type": "Point", "coordinates": [-79.435819, 43.699209]}, "type": "Feature", "id": 755441392260943872, "properties": {"loc": [-79.435819, 43.699209], "centroid": [-79.36250739020899, 43.79194359037618], "screen_name": "cvirtueskirts", "time": 1468964237.0, "tid": 755441392260943872, "text": "I did it! I got the documents to open my new account at @jnbscanada of @jamaicanational .  All\u2026 https://t.co/eA8Y1ZEICT", "created_at": "Tue Jul 19 16:37:17 +0000 2016", "klabel": 55}}, {"geometry": {"type": "Point", "coordinates": [-79.44608408, 43.69993275]}, "type": "Feature", "id": 755457558668869632, "properties": {"loc": [-79.44608408, 43.69993275], "centroid": [-79.36250739020899, 43.79194359037618], "screen_name": "STEPSInitiative", "time": 1468968092.0, "tid": 755457558668869632, "text": "Any #pokego fans out there? Seems like our installation at #waltersaundersmemorialpark is a\u2026 https://t.co/mQusvjMirL", "created_at": "Tue Jul 19 17:41:32 +0000 2016", "klabel": 55}}, {"geometry": {"type": "Point", "coordinates": [-79.44963747, 43.68839424]}, "type": "Feature", "id": 755484888095227905, "properties": {"loc": [-79.44963747, 43.68839424], "centroid": [-79.36250739020899, 43.79194359037618], "screen_name": "Rebe_OjosVerdes", "time": 1468974608.0, "tid": 755484888095227905, "text": "Just posted a photo @ Toronto in Canada https://t.co/0DEBRkG7kk", "created_at": "Tue Jul 19 19:30:08 +0000 2016", "klabel": 55}}, {"geometry": {"type": "Point", "coordinates": [-79.442505, 43.696603]}, "type": "Feature", "id": 755490910968901632, "properties": {"loc": [-79.442505, 43.696603], "centroid": [-79.36250739020899, 43.79194359037618], "screen_name": "tpscalls", "time": 1468976044.0, "tid": 755490910968901632, "text": "Dispute | Lanark Ave &amp; Lanark Ave [13 Div.] 07/19 15:50 #Oakwood_Village #Toronto", "created_at": "Tue Jul 19 19:54:04 +0000 2016", "klabel": 55}}, {"geometry": {"type": "Point", "coordinates": [-79.453127, 43.6950528]}, "type": "Feature", "id": 755491664538501121, "properties": {"loc": [-79.453127, 43.6950528], "centroid": [-79.36250739020899, 43.79194359037618], "screen_name": "tpscalls", "time": 1468976223.0, "tid": 755491664538501121, "text": "Unknown Trouble | Soudan Ave &amp; Eglinton Ave W [53 Div.] 07/19 15:53 #Toronto", "created_at": "Tue Jul 19 19:57:03 +0000 2016", "klabel": 55}}, {"geometry": {"type": "Point", "coordinates": [-79.44963747, 43.68839424]}, "type": "Feature", "id": 755537592985214976, "properties": {"loc": [-79.44963747, 43.68839424], "centroid": [-79.36250739020899, 43.79194359037618], "screen_name": "Jeeeeean_97", "time": 1468987174.0, "tid": 755537592985214976, "text": "\ud83d\udc8f\ud83d\udc95 @ Toronto in Canada https://t.co/urDrUJq3nz", "created_at": "Tue Jul 19 22:59:34 +0000 2016", "klabel": 55}}, {"geometry": {"type": "Point", "coordinates": [-79.4387957, 43.6942733]}, "type": "Feature", "id": 755555084826804225, "properties": {"loc": [-79.4387957, 43.6942733], "centroid": [-79.36250739020899, 43.79194359037618], "screen_name": "tpscalls", "time": 1468991344.0, "tid": 755555084826804225, "text": "Disorderlies | Marlee Ave &amp; Alameda Ave [13 Div.] 07/19 20:05 #Midtown_Toronto", "created_at": "Wed Jul 20 00:09:04 +0000 2016", "klabel": 55}}, {"geometry": {"type": "Point", "coordinates": [-79.44963747, 43.68839424]}, "type": "Feature", "id": 755565372506505216, "properties": {"loc": [-79.44963747, 43.68839424], "centroid": [-79.36250739020899, 43.79194359037618], "screen_name": "GuadaCapalbo", "time": 1468993797.0, "tid": 755565372506505216, "text": "\ud83d\ude82\ud83d\ude8f @ Toronto in Canada https://t.co/QqgTD3ZAPu", "created_at": "Wed Jul 20 00:49:57 +0000 2016", "klabel": 55}}, {"geometry": {"type": "Point", "coordinates": [-79.4516745, 43.7007797]}, "type": "Feature", "id": 755581509394960384, "properties": {"loc": [-79.4516745, 43.7007797], "centroid": [-79.36250739020899, 43.79194359037618], "screen_name": "tpscalls", "time": 1468997644.0, "tid": 755581509394960384, "text": "Robbery | Roselawn Ave &amp; Castlefield Ave [13 Div.] 07/19 21:50 #Briar_Hill_Belgravia #Toronto", "created_at": "Wed Jul 20 01:54:04 +0000 2016", "klabel": 55}}, {"geometry": {"type": "Point", "coordinates": [-79.44963747, 43.68839424]}, "type": "Feature", "id": 755582291548606464, "properties": {"loc": [-79.44963747, 43.68839424], "centroid": [-79.36250739020899, 43.79194359037618], "screen_name": "Edison_Ramos8", "time": 1468997831.0, "tid": 755582291548606464, "text": "Just posted a photo @ Toronto in Canada https://t.co/825KCxVE49", "created_at": "Wed Jul 20 01:57:11 +0000 2016", "klabel": 55}}, {"geometry": {"type": "Point", "coordinates": [-79.44963747, 43.68839424]}, "type": "Feature", "id": 755584938297155584, "properties": {"loc": [-79.44963747, 43.68839424], "centroid": [-79.36250739020899, 43.79194359037618], "screen_name": "HipStarsEnt", "time": 1468998462.0, "tid": 755584938297155584, "text": "Toronto is a great place to visit. #toronto #canada #views #thesix #hipstarsent @ Toronto in Canada https://t.co/6IUSmkWzbm", "created_at": "Wed Jul 20 02:07:42 +0000 2016", "klabel": 55}}, {"geometry": {"type": "Point", "coordinates": [-79.440902, 43.692766]}, "type": "Feature", "id": 755599627055923204, "properties": {"loc": [-79.440902, 43.692766], "centroid": [-79.36250739020899, 43.79194359037618], "screen_name": "tpscalls", "time": 1469001964.0, "tid": 755599627055923204, "text": "Person With A Knife | Belvidere Ave &amp; Oakwood Ave [13 Div.] 07/19 23:02 #Midtown_Toronto", "created_at": "Wed Jul 20 03:06:04 +0000 2016", "klabel": 55}}, {"geometry": {"type": "Point", "coordinates": [-79.4334458, 43.7011196]}, "type": "Feature", "id": 755658004234665986, "properties": {"loc": [-79.4334458, 43.7011196], "centroid": [-79.36250739020899, 43.79194359037618], "screen_name": "tpscalls", "time": 1469015882.0, "tid": 755658004234665986, "text": "Break &amp; Enter | Menin Rd &amp; Glenarden Rd [13 Div.] 07/20 02:51 #Midtown_Toronto", "created_at": "Wed Jul 20 06:58:02 +0000 2016", "klabel": 55}}, {"geometry": {"type": "Point", "coordinates": [-79.4334458, 43.7011196]}, "type": "Feature", "id": 755694245063880704, "properties": {"loc": [-79.4334458, 43.7011196], "centroid": [-79.36250739020899, 43.79194359037618], "screen_name": "tpscalls", "time": 1469024522.0, "tid": 755694245063880704, "text": "Break &amp; Enter | Menin Rd &amp; Glenarden Rd [13 Div.] 07/20 05:16 #Midtown_Toronto", "created_at": "Wed Jul 20 09:22:02 +0000 2016", "klabel": 55}}, {"geometry": {"type": "Point", "coordinates": [-79.45647, 43.70536]}, "type": "Feature", "id": 755724082356760580, "properties": {"loc": [-79.45647, 43.70536], "centroid": [-79.36250739020899, 43.79194359037618], "screen_name": "jtjazzy1", "time": 1469031636.0, "tid": 755724082356760580, "text": "Some people make your laugh a little louder, your smile a little brighter, your life a little\u2026 https://t.co/WKZr0MRcLH", "created_at": "Wed Jul 20 11:20:36 +0000 2016", "klabel": 55}}, {"geometry": {"type": "Point", "coordinates": [-79.4402387, 43.6944645]}, "type": "Feature", "id": 755768233681154049, "properties": {"loc": [-79.4402387, 43.6944645], "centroid": [-79.36250739020899, 43.79194359037618], "screen_name": "tpscalls", "time": 1469042163.0, "tid": 755768233681154049, "text": "See Ambulance | Belvidere Ave &amp; Bude St [13 Div.] 07/20 10:11 #Oakwood_Village #Toronto", "created_at": "Wed Jul 20 14:16:03 +0000 2016", "klabel": 55}}, {"geometry": {"type": "Point", "coordinates": [-79.4423739, 43.7054751]}, "type": "Feature", "id": 755822345953087489, "properties": {"loc": [-79.4423739, 43.7054751], "centroid": [-79.36250739020899, 43.79194359037618], "screen_name": "tofireS", "time": 1469055064.0, "tid": 755822345953087489, "text": "Medical (Chest Pains) - Marlee Avenue b/w Stayner Avenue / Enid Crescent, North York (2 Trucks)", "created_at": "Wed Jul 20 17:51:04 +0000 2016", "klabel": 55}}, {"geometry": {"type": "Point", "coordinates": [-79.4423739, 43.7054751]}, "type": "Feature", "id": 755822343788826625, "properties": {"loc": [-79.4423739, 43.7054751], "centroid": [-79.36250739020899, 43.79194359037618], "screen_name": "tofire", "time": 1469055063.0, "tid": 755822343788826625, "text": "Medical (Chest Pains) - Marlee Avenue b/w Stayner Avenue / Enid Crescent, North York (2 Trucks)", "created_at": "Wed Jul 20 17:51:03 +0000 2016", "klabel": 55}}, {"geometry": {"type": "Point", "coordinates": [-79.4340797, 43.6914225]}, "type": "Feature", "id": 755824858009919488, "properties": {"loc": [-79.4340797, 43.6914225], "centroid": [-79.36250739020899, 43.79194359037618], "screen_name": "tpscalls", "time": 1469055663.0, "tid": 755824858009919488, "text": "Property Damage Collision | William R Allen Rd S &amp; Winnett Ave [13 Div.] 07/20 13:56 #Midtown_Toronto", "created_at": "Wed Jul 20 18:01:03 +0000 2016", "klabel": 55}}, {"geometry": {"type": "Point", "coordinates": [-79.4456, 43.69695]}, "type": "Feature", "id": 755854841461760001, "properties": {"loc": [-79.4456, 43.69695], "centroid": [-79.36250739020899, 43.79194359037618], "screen_name": "Toronto24FIT", "time": 1469062811.0, "tid": 755854841461760001, "text": "\u041a\u0422\u041e \u0412 \u0422\u0415\u041c\u0415 \"alexei.yagudin: \u0412\u0447\u0435\u0440\u0430 \u043c\u044b \u043e\u0444\u0438\u0446\u0438\u0430\u043b\u044c\u043d\u043e \u0441\u0442\u0430\u043b\u0438 \u043f\u043e\u0441\u043b\u0430\u043d\u043d\u0438\u043a\u0430\u043c\u0438 \u0431\u0440\u0435\u043d\u0434\u0430 Herbalife \ud83d\udc4d\ud83d\udc4d\ud83d\udc4d \u043d\u0430\u0448\u0430\u2026 https://t.co/yWkjT1zCYN", "created_at": "Wed Jul 20 20:00:11 +0000 2016", "klabel": 55}}, {"geometry": {"type": "Point", "coordinates": [-79.4486589, 43.706125]}, "type": "Feature", "id": 755859590391050240, "properties": {"loc": [-79.4486589, 43.706125], "centroid": [-79.36250739020899, 43.79194359037618], "screen_name": "tpscalls", "time": 1469063944.0, "tid": 755859590391050240, "text": "Dispute | Risa Blvd &amp; Lilywood Rd [13 Div.] 07/20 16:13 #Glen_Park #Toronto", "created_at": "Wed Jul 20 20:19:04 +0000 2016", "klabel": 55}}, {"geometry": {"type": "Point", "coordinates": [-79.4407926, 43.6925884]}, "type": "Feature", "id": 755874683770310656, "properties": {"loc": [-79.4407926, 43.6925884], "centroid": [-79.36250739020899, 43.79194359037618], "screen_name": "tpscalls", "time": 1469067542.0, "tid": 755874683770310656, "text": "Assault Just Occurred | Oakwood Ave &amp; Vaughan Rd [13 Div.] 07/20 17:12 #Midtown_Toronto", "created_at": "Wed Jul 20 21:19:02 +0000 2016", "klabel": 55}}, {"geometry": {"type": "Point", "coordinates": [-79.44963747, 43.68839424]}, "type": "Feature", "id": 755887388120014849, "properties": {"loc": [-79.44963747, 43.68839424], "centroid": [-79.36250739020899, 43.79194359037618], "screen_name": "TheRealJ_Hen", "time": 1469070571.0, "tid": 755887388120014849, "text": "#Repost @hipstarsent\n\u30fb\u30fb\u30fb\n@TheRealJ_Hen photoshoot with janicklaurent in Toronto! #Hipstarsent\u2026 https://t.co/El1JeGWTBX", "created_at": "Wed Jul 20 22:09:31 +0000 2016", "klabel": 55}}, {"geometry": {"type": "Point", "coordinates": [-79.45399442, 43.69405328]}, "type": "Feature", "id": 755892378766979072, "properties": {"loc": [-79.45399442, 43.69405328], "centroid": [-79.36250739020899, 43.79194359037618], "screen_name": "EmilianoPironti", "time": 1469071761.0, "tid": 755892378766979072, "text": "Don't be surprise I will still rise... \u2728 @ Eglinton Ave. West, Toronto https://t.co/UwnSrmAgKf", "created_at": "Wed Jul 20 22:29:21 +0000 2016", "klabel": 55}}, {"geometry": {"type": "Point", "coordinates": [-79.453127, 43.6950528]}, "type": "Feature", "id": 755894313029083136, "properties": {"loc": [-79.453127, 43.6950528], "centroid": [-79.36250739020899, 43.79194359037618], "screen_name": "tpscalls", "time": 1469072222.0, "tid": 755894313029083136, "text": "Break &amp; Enter | Chadwick Ave &amp; Eglinton Ave W [13 Div.] 07/20 18:31 #Toronto", "created_at": "Wed Jul 20 22:37:02 +0000 2016", "klabel": 55}}, {"geometry": {"type": "Point", "coordinates": [-79.453127, 43.6950528]}, "type": "Feature", "id": 755949434387693572, "properties": {"loc": [-79.453127, 43.6950528], "centroid": [-79.36250739020899, 43.79194359037618], "screen_name": "tpscalls", "time": 1469085364.0, "tid": 755949434387693572, "text": "Unknown Trouble | Soudan Ave &amp; Eglinton Ave W [53 Div.] 07/20 22:10 #Toronto", "created_at": "Thu Jul 21 02:16:04 +0000 2016", "klabel": 55}}, {"geometry": {"type": "Point", "coordinates": [-79.4488808, 43.6837294]}, "type": "Feature", "id": 756013595205439488, "properties": {"loc": [-79.4488808, 43.6837294], "centroid": [-79.36250739020899, 43.79194359037618], "screen_name": "tpscalls", "time": 1469100661.0, "tid": 756013595205439488, "text": "See Ambulance | Hope St &amp; Morrison Ave [13 Div.] 07/21 02:26 #York #Toronto", "created_at": "Thu Jul 21 06:31:01 +0000 2016", "klabel": 55}}, {"geometry": {"type": "Point", "coordinates": [-79.4452703, 43.696763]}, "type": "Feature", "id": 756027190014308352, "properties": {"loc": [-79.4452703, 43.696763], "centroid": [-79.36250739020899, 43.79194359037618], "screen_name": "tpscalls", "time": 1469103903.0, "tid": 756027190014308352, "text": "Explosion | Eglinton Ave W &amp; Glenholme Ave [13 Div.] 07/21 03:20 #Oakwood_Village #Toronto", "created_at": "Thu Jul 21 07:25:03 +0000 2016", "klabel": 55}}, {"geometry": {"type": "Point", "coordinates": [-79.4413591, 43.6856768]}, "type": "Feature", "id": 756029455617916928, "properties": {"loc": [-79.4413591, 43.6856768], "centroid": [-79.36250739020899, 43.79194359037618], "screen_name": "tpscalls", "time": 1469104443.0, "tid": 756029455617916928, "text": "Sound Of Gunshots | Rockvale Ave &amp; Glenholme Ave [13 Div.] 07/21 03:29 #Toronto", "created_at": "Thu Jul 21 07:34:03 +0000 2016", "klabel": 55}}, {"geometry": {"type": "Point", "coordinates": [-79.4488808, 43.6837294]}, "type": "Feature", "id": 756060406028926976, "properties": {"loc": [-79.4488808, 43.6837294], "centroid": [-79.36250739020899, 43.79194359037618], "screen_name": "tpscalls", "time": 1469111822.0, "tid": 756060406028926976, "text": "See Ambulance | Hope St &amp; Morrison Ave [13 Div.] 07/21 05:30 #York #Toronto", "created_at": "Thu Jul 21 09:37:02 +0000 2016", "klabel": 55}}, {"geometry": {"type": "Point", "coordinates": [-79.453127, 43.6950528]}, "type": "Feature", "id": 756166104721068032, "properties": {"loc": [-79.453127, 43.6950528], "centroid": [-79.36250739020899, 43.79194359037618], "screen_name": "tpscalls", "time": 1469137022.0, "tid": 756166104721068032, "text": "See Ambulance | Soudan Ave &amp; Eglinton Ave W [53 Div.] 07/21 12:30 #Toronto", "created_at": "Thu Jul 21 16:37:02 +0000 2016", "klabel": 55}}, {"geometry": {"type": "Point", "coordinates": [-79.4336517, 43.698812]}, "type": "Feature", "id": 756198567627423744, "properties": {"loc": [-79.4336517, 43.698812], "centroid": [-79.36250739020899, 43.79194359037618], "screen_name": "tpscalls", "time": 1469144762.0, "tid": 756198567627423744, "text": "Dispute | Westover Hill Rd &amp; Flanders Rd [13 Div.] 07/21 14:40 #Midtown_Toronto", "created_at": "Thu Jul 21 18:46:02 +0000 2016", "klabel": 55}}, {"geometry": {"type": "Point", "coordinates": [-79.4363862, 43.6909584]}, "type": "Feature", "id": 756210565169774592, "properties": {"loc": [-79.4363862, 43.6909584], "centroid": [-79.36250739020899, 43.79194359037618], "screen_name": "AdrienneWishart", "time": 1469147623.0, "tid": 756210565169774592, "text": "Sippin' my second iced coffee of the day \ud83c\udf75\ud83d\ude25\ud83c\udf1e \nI hate \"coffee\" coffee, but these things are surprisingly refreshing \nBtw McDicks&gt;Tims", "created_at": "Thu Jul 21 19:33:43 +0000 2016", "klabel": 55}}, {"geometry": {"type": "Point", "coordinates": [-79.45647, 43.70536]}, "type": "Feature", "id": 756250744668368896, "properties": {"loc": [-79.45647, 43.70536], "centroid": [-79.36250739020899, 43.79194359037618], "screen_name": "wheelchairjitsu", "time": 1469157202.0, "tid": 756250744668368896, "text": "Thank you nutrishopsouthernpines for getting me rehydrated after a day of traveling. I can't\u2026 https://t.co/ga3anqoHAZ", "created_at": "Thu Jul 21 22:13:22 +0000 2016", "klabel": 55}}, {"geometry": {"type": "Point", "coordinates": [-79.4388567, 43.6915062]}, "type": "Feature", "id": 756359380493340672, "properties": {"loc": [-79.4388567, 43.6915062], "centroid": [-79.36250739020899, 43.79194359037618], "screen_name": "tpscalls", "time": 1469183103.0, "tid": 756359380493340672, "text": "Sound Of Gunshots | Vaughan Rd &amp; Glenora Ave [13 Div.] 07/22 01:20 #Midtown_Toronto", "created_at": "Fri Jul 22 05:25:03 +0000 2016", "klabel": 55}}, {"geometry": {"type": "Point", "coordinates": [-79.4385564, 43.6863774]}, "type": "Feature", "id": 756372210227568641, "properties": {"loc": [-79.4385564, 43.6863774], "centroid": [-79.36250739020899, 43.79194359037618], "screen_name": "tpscalls", "time": 1469186162.0, "tid": 756372210227568641, "text": "Unknown Trouble | O\\'Leary Ave &amp; Holland Park Ave [13 Div.] 07/22 02:11 #Oakwood_Village #Toronto", "created_at": "Fri Jul 22 06:16:02 +0000 2016", "klabel": 55}}, {"geometry": {"type": "Point", "coordinates": [-79.453127, 43.6950528]}, "type": "Feature", "id": 756403921829163008, "properties": {"loc": [-79.453127, 43.6950528], "centroid": [-79.36250739020899, 43.79194359037618], "screen_name": "tpscalls", "time": 1469193722.0, "tid": 756403921829163008, "text": "Person Gone Berserk | Lanark Ave &amp; Eglinton Ave W [13 Div.] 07/22 04:16 #Toronto", "created_at": "Fri Jul 22 08:22:02 +0000 2016", "klabel": 55}}, {"geometry": {"type": "Point", "coordinates": [-79.4465986, 43.6925398]}, "type": "Feature", "id": 756472413957816320, "properties": {"loc": [-79.4465986, 43.6925398], "centroid": [-79.36250739020899, 43.79194359037618], "screen_name": "ibusher", "time": 1469210052.0, "tid": 756472413957816320, "text": "#workingfromhome this morning and the #cat is chasing the #squirrels out of the yard while the\u2026 https://t.co/DKRKijbmRE", "created_at": "Fri Jul 22 12:54:12 +0000 2016", "klabel": 55}}, {"geometry": {"type": "Point", "coordinates": [-79.4413591, 43.6856768]}, "type": "Feature", "id": 756493010687266816, "properties": {"loc": [-79.4413591, 43.6856768], "centroid": [-79.36250739020899, 43.79194359037618], "screen_name": "tpscalls", "time": 1469214963.0, "tid": 756493010687266816, "text": "Dispute | Crang Ave &amp; Glenholme Ave [13 Div.] 07/22 10:11 #Toronto", "created_at": "Fri Jul 22 14:16:03 +0000 2016", "klabel": 55}}, {"geometry": {"type": "Point", "coordinates": [-79.4357872, 43.6897945]}, "type": "Feature", "id": 756568567810760704, "properties": {"loc": [-79.4357872, 43.6897945], "centroid": [-79.36250739020899, 43.79194359037618], "screen_name": "AdrienneWishart", "time": 1469232977.0, "tid": 756568567810760704, "text": "This is an accurate representation of me whenever I decide to torture myself by looking at pics of @FuckingJakeBass https://t.co/fTYzDyUSAG", "created_at": "Fri Jul 22 19:16:17 +0000 2016", "klabel": 55}}, {"geometry": {"type": "Point", "coordinates": [-79.4382202, 43.6859034]}, "type": "Feature", "id": 756570774287355904, "properties": {"loc": [-79.4382202, 43.6859034], "centroid": [-79.36250739020899, 43.79194359037618], "screen_name": "tpscalls", "time": 1469233503.0, "tid": 756570774287355904, "text": "Holding One With Trouble | Alberta Ave &amp; Oakwood Ave [13 Div.] 07/22 15:19 #Toronto", "created_at": "Fri Jul 22 19:25:03 +0000 2016", "klabel": 55}}, {"geometry": {"type": "Point", "coordinates": [-79.4473148, 43.6963273]}, "type": "Feature", "id": 756610034444996609, "properties": {"loc": [-79.4473148, 43.6963273], "centroid": [-79.36250739020899, 43.79194359037618], "screen_name": "tpscalls", "time": 1469242864.0, "tid": 756610034444996609, "text": "Fail To Remain Personal Injury Collision | Eglinton Ave W &amp; Locksley Ave [13 Div.] 07/22 17:55 #Oakwood_Village #Toronto", "created_at": "Fri Jul 22 22:01:04 +0000 2016", "klabel": 55}}, {"geometry": {"type": "Point", "coordinates": [-79.453127, 43.6950528]}, "type": "Feature", "id": 756629416646672384, "properties": {"loc": [-79.453127, 43.6950528], "centroid": [-79.36250739020899, 43.79194359037618], "screen_name": "tpscalls", "time": 1469247485.0, "tid": 756629416646672384, "text": "Hazard | Ln S Eglinton E Northcliffe &amp; Eglinton Ave W [13 Div.] 07/22 19:13 #Toronto", "created_at": "Fri Jul 22 23:18:05 +0000 2016", "klabel": 55}}, {"geometry": {"type": "Point", "coordinates": [-79.4473148, 43.6963273]}, "type": "Feature", "id": 756639476781346816, "properties": {"loc": [-79.4473148, 43.6963273], "centroid": [-79.36250739020899, 43.79194359037618], "screen_name": "tpscalls", "time": 1469249883.0, "tid": 756639476781346816, "text": "Disorderlies | Eglinton Ave W &amp; Locksley Ave [13 Div.] 07/22 19:53 #Oakwood_Village #Toronto", "created_at": "Fri Jul 22 23:58:03 +0000 2016", "klabel": 55}}, {"geometry": {"type": "Point", "coordinates": [-79.4452426, 43.6834061]}, "type": "Feature", "id": 756658860161507328, "properties": {"loc": [-79.4452426, 43.6834061], "centroid": [-79.36250739020899, 43.79194359037618], "screen_name": "tpscalls", "time": 1469254504.0, "tid": 756658860161507328, "text": "Missing Vulnerable Person | Rosecliffe Ave &amp; Rogers Rd [13 Div.] 07/22 21:09 #York #Toronto", "created_at": "Sat Jul 23 01:15:04 +0000 2016", "klabel": 55}}, {"geometry": {"type": "Point", "coordinates": [-79.4539999, 43.70171]}, "type": "Feature", "id": 756679128733061121, "properties": {"loc": [-79.4539999, 43.70171], "centroid": [-79.36250739020899, 43.79194359037618], "screen_name": "TheDylanDias", "time": 1469259337.0, "tid": 756679128733061121, "text": "#Smokey #Foilage #Tones finished in a neck-hugging, polished #Lob with the always sparkling\u2026 https://t.co/kVlgEyCiXw", "created_at": "Sat Jul 23 02:35:37 +0000 2016", "klabel": 55}}, {"geometry": {"type": "Point", "coordinates": [-79.4382202, 43.6859034]}, "type": "Feature", "id": 756867479218118656, "properties": {"loc": [-79.4382202, 43.6859034], "centroid": [-79.36250739020899, 43.79194359037618], "screen_name": "tpscalls", "time": 1469304243.0, "tid": 756867479218118656, "text": "Attempt Break &amp; Enter | Robina Ave &amp; Oakwood Ave [13 Div.] 07/23 10:57 #Toronto", "created_at": "Sat Jul 23 15:04:03 +0000 2016", "klabel": 55}}, {"geometry": {"type": "Point", "coordinates": [-79.44305, 43.69694]}, "type": "Feature", "id": 756878210365845504, "properties": {"loc": [-79.44305, 43.69694], "centroid": [-79.36250739020899, 43.79194359037618], "screen_name": "Empire_Living", "time": 1469306802.0, "tid": 756878210365845504, "text": "Empire Midtowns's one day sales event is today! Doors open at 12. Meet our first family in line\u2026 https://t.co/YPcFLDDac2", "created_at": "Sat Jul 23 15:46:42 +0000 2016", "klabel": 55}}, {"geometry": {"type": "Point", "coordinates": [-79.4394407, 43.704331]}, "type": "Feature", "id": 756890885607088128, "properties": {"loc": [-79.4394407, 43.704331], "centroid": [-79.36250739020899, 43.79194359037618], "screen_name": "tpscalls", "time": 1469309824.0, "tid": 756890885607088128, "text": "See Ambulance | Castlefield Ave &amp; Ridelle Ave [13 Div.] 07/23 12:31 #Toronto", "created_at": "Sat Jul 23 16:37:04 +0000 2016", "klabel": 55}}, {"geometry": {"type": "Point", "coordinates": [-79.44305, 43.69694]}, "type": "Feature", "id": 756901604201205760, "properties": {"loc": [-79.44305, 43.69694], "centroid": [-79.36250739020899, 43.79194359037618], "screen_name": "Empire_Living", "time": 1469312379.0, "tid": 756901604201205760, "text": "The beginning of a 'new Midtown'. Congratulations to our new purchasers! \nWe're open till 5pm\u2026 https://t.co/EmDdJy8Uuc", "created_at": "Sat Jul 23 17:19:39 +0000 2016", "klabel": 55}}, {"geometry": {"type": "Point", "coordinates": [-79.43883, 43.68682]}, "type": "Feature", "id": 756903400516624385, "properties": {"loc": [-79.43883, 43.68682], "centroid": [-79.36250739020899, 43.79194359037618], "screen_name": "christellasays", "time": 1469312807.0, "tid": 756903400516624385, "text": "#Repost @lizwhitmere\n\u30fb\u30fb\u30fb\nToday's score from @christellasays is a charming grey clutch.\u2026 https://t.co/q5AUBvQr8C", "created_at": "Sat Jul 23 17:26:47 +0000 2016", "klabel": 55}}, {"geometry": {"type": "Point", "coordinates": [-79.4354125, 43.6988358]}, "type": "Feature", "id": 756946752985501696, "properties": {"loc": [-79.4354125, 43.6988358], "centroid": [-79.36250739020899, 43.79194359037618], "screen_name": "tpscalls", "time": 1469323143.0, "tid": 756946752985501696, "text": "Unknown Trouble | Eglinton Ave W &amp; William R Allen Rd N [13 Div.] 07/23 16:14 #Midtown_Toronto", "created_at": "Sat Jul 23 20:19:03 +0000 2016", "klabel": 55}}, {"geometry": {"type": "Point", "coordinates": [-79.4452779, 43.6992186]}, "type": "Feature", "id": 756954810591612929, "properties": {"loc": [-79.4452779, 43.6992186], "centroid": [-79.36250739020899, 43.79194359037618], "screen_name": "tofire", "time": 1469325065.0, "tid": 756954810591612929, "text": "Medical (Chest Pains) - Whitmore Avenue b/w Times Road / Locksley Avenue, York (2 Trucks)", "created_at": "Sat Jul 23 20:51:05 +0000 2016", "klabel": 55}}, {"geometry": {"type": "Point", "coordinates": [-79.4452779, 43.6992186]}, "type": "Feature", "id": 756954811455668224, "properties": {"loc": [-79.4452779, 43.6992186], "centroid": [-79.36250739020899, 43.79194359037618], "screen_name": "tofireS", "time": 1469325065.0, "tid": 756954811455668224, "text": "Medical (Chest Pains) - Whitmore Avenue b/w Times Road / Locksley Avenue, York (2 Trucks)", "created_at": "Sat Jul 23 20:51:05 +0000 2016", "klabel": 55}}, {"geometry": {"type": "Point", "coordinates": [-79.44305, 43.69694]}, "type": "Feature", "id": 756959198160773120, "properties": {"loc": [-79.44305, 43.69694], "centroid": [-79.36250739020899, 43.79194359037618], "screen_name": "Empire_Living", "time": 1469326111.0, "tid": 756959198160773120, "text": "Thanks for coming out! Congratulations to all our new purchasers \u2728 #EmpireMidtown\u2026 https://t.co/It9GfDIZzP", "created_at": "Sat Jul 23 21:08:31 +0000 2016", "klabel": 55}}, {"geometry": {"type": "Point", "coordinates": [-79.4399887, 43.6995451]}, "type": "Feature", "id": 756986010941218816, "properties": {"loc": [-79.4399887, 43.6995451], "centroid": [-79.36250739020899, 43.79194359037618], "screen_name": "tofireS", "time": 1469332503.0, "tid": 756986010941218816, "text": "Carbon Monoxide (Non Medical) - Belgravia Avenue b/w Marlee Avenue / Times Road, York (2 Trucks)", "created_at": "Sat Jul 23 22:55:03 +0000 2016", "klabel": 55}}, {"geometry": {"type": "Point", "coordinates": [-79.4503219, 43.6956796]}, "type": "Feature", "id": 757000104133943296, "properties": {"loc": [-79.4503219, 43.6956796], "centroid": [-79.36250739020899, 43.79194359037618], "screen_name": "tpscalls", "time": 1469335863.0, "tid": 757000104133943296, "text": "Person With A Gun | Dufferin St &amp; Eglinton Ave W [13 Div.] 07/23 19:45 #Fairbank #Toronto", "created_at": "Sat Jul 23 23:51:03 +0000 2016", "klabel": 55}}, {"geometry": {"type": "Point", "coordinates": [-79.4489921, 43.6867785]}, "type": "Feature", "id": 757009921074495489, "properties": {"loc": [-79.4489921, 43.6867785], "centroid": [-79.36250739020899, 43.79194359037618], "screen_name": "tpscalls", "time": 1469338204.0, "tid": 757009921074495489, "text": "Assault | Ln S Eversfield W Dufferin &amp; Eversfield Rd [13 Div.] 07/23 20:24 #Fairbank #Toronto", "created_at": "Sun Jul 24 00:30:04 +0000 2016", "klabel": 55}}, {"geometry": {"type": "Point", "coordinates": [-79.4489921, 43.6867785]}, "type": "Feature", "id": 757027282821246976, "properties": {"loc": [-79.4489921, 43.6867785], "centroid": [-79.36250739020899, 43.79194359037618], "screen_name": "tpscalls", "time": 1469342343.0, "tid": 757027282821246976, "text": "Assault | Ln S Eversfield W Dufferin &amp; Eversfield Rd [13 Div.] 07/23 21:35 #Fairbank #Toronto", "created_at": "Sun Jul 24 01:39:03 +0000 2016", "klabel": 55}}, {"geometry": {"type": "Point", "coordinates": [-79.44002085, 43.7072494]}, "type": "Feature", "id": 757283620532817921, "properties": {"loc": [-79.44002085, 43.7072494], "centroid": [-79.36250739020899, 43.79194359037618], "screen_name": "LifeOnTheEdgley", "time": 1469403459.0, "tid": 757283620532817921, "text": "dabs &amp; trains @ TTC Subway Line https://t.co/6YC01tsFhD", "created_at": "Sun Jul 24 18:37:39 +0000 2016", "klabel": 55}}, {"geometry": {"type": "Point", "coordinates": [-79.4570223, 43.6992223]}, "type": "Feature", "id": 757322225645158404, "properties": {"loc": [-79.4570223, 43.6992223], "centroid": [-79.36250739020899, 43.79194359037618], "screen_name": "tofire", "time": 1469412663.0, "tid": 757322225645158404, "text": "Medical (Unconscious) - (Miranda Avenue @ Roselawn Avenue), York (2 Trucks)", "created_at": "Sun Jul 24 21:11:03 +0000 2016", "klabel": 55}}, {"geometry": {"type": "Point", "coordinates": [-79.4570223, 43.6992223]}, "type": "Feature", "id": 757322226597232640, "properties": {"loc": [-79.4570223, 43.6992223], "centroid": [-79.36250739020899, 43.79194359037618], "screen_name": "tofireS", "time": 1469412663.0, "tid": 757322226597232640, "text": "Medical (Unconscious) - (Miranda Avenue @ Roselawn Avenue), York (2 Trucks)", "created_at": "Sun Jul 24 21:11:03 +0000 2016", "klabel": 55}}, {"geometry": {"type": "Point", "coordinates": [-79.453127, 43.6950528]}, "type": "Feature", "id": 757386149182705664, "properties": {"loc": [-79.453127, 43.6950528], "centroid": [-79.36250739020899, 43.79194359037618], "screen_name": "tpscalls", "time": 1469427904.0, "tid": 757386149182705664, "text": "Assault Just Occurred | Soudan Ave &amp; Eglinton Ave W [53 Div.] 07/24 21:18 #Toronto", "created_at": "Mon Jul 25 01:25:04 +0000 2016", "klabel": 55}}, {"geometry": {"type": "Point", "coordinates": [-79.4483348, 43.7011413]}, "type": "Feature", "id": 757422892430884864, "properties": {"loc": [-79.4483348, 43.7011413], "centroid": [-79.36250739020899, 43.79194359037618], "screen_name": "tpscalls", "time": 1469436664.0, "tid": 757422892430884864, "text": "See Ambulance | Glenholme Ave &amp; Locksley Ave [13 Div.] 07/24 23:47 #York #Toronto", "created_at": "Mon Jul 25 03:51:04 +0000 2016", "klabel": 55}}, {"geometry": {"type": "Point", "coordinates": [-79.4465986, 43.6925398]}, "type": "Feature", "id": 757524597772210176, "properties": {"loc": [-79.4465986, 43.6925398], "centroid": [-79.36250739020899, 43.79194359037618], "screen_name": "nanduin", "time": 1469460912.0, "tid": 757524597772210176, "text": "Small talks are best way to have wonderful conversation #toronto #lovetoronto #Streetsoftoronto\u2026 https://t.co/zaKHkcpah0", "created_at": "Mon Jul 25 10:35:12 +0000 2016", "klabel": 55}}, {"geometry": {"type": "Point", "coordinates": [-79.4421602, 43.6877866]},