{"type": "FeatureCollection", "features": [{"geometry": {"type": "Point", "coordinates": [-79.3650212, 43.7137569]}, "type": "Feature", "id": 705137868243480576, "properties": {"loc": [-79.3650212, 43.7137569], "centroid": [-79.42634064659919, 43.83829891629555], "screen_name": "tmj_gta_hrta", "time": 1456970943.0, "tid": 705137868243480576, "text": "Starbucks #Hospitality #Job: Shift Supervisor (CA) https://t.co/rbN6hZG2Q3 #Veterans #Jobs #Hiring #CareerArc", "created_at": "Wed Mar 02 21:09:03 +0000 2016", "klabel": 59}}, {"geometry": {"type": "Point", "coordinates": [-79.3616426, 43.7057894]}, "type": "Feature", "id": 705435471086653440, "properties": {"loc": [-79.3616426, 43.7057894], "centroid": [-79.42634064659919, 43.83829891629555], "screen_name": "tmj_gta_retail", "time": 1457041897.0, "tid": 705435471086653440, "text": "Assistant Store Manager - Vitapath: (#Toronto, ON) https://t.co/qtP8ioknJV #Retail #Job #Jobs #Hiring #CareerArc", "created_at": "Thu Mar 03 16:51:37 +0000 2016", "klabel": 59}}, {"geometry": {"type": "Point", "coordinates": [-79.3716556, 43.6967347]}, "type": "Feature", "id": 705476617443930112, "properties": {"loc": [-79.3716556, 43.6967347], "centroid": [-79.42634064659919, 43.83829891629555], "screen_name": "tofire", "time": 1457051707.0, "tid": 705476617443930112, "text": "Vehicle (Spill Clean Up) - Bayview Avenue @ Moore Avenue, East York (2 Trucks)", "created_at": "Thu Mar 03 19:35:07 +0000 2016", "klabel": 59}}, {"geometry": {"type": "Point", "coordinates": [-79.3716556, 43.6967347]}, "type": "Feature", "id": 705476618433765377, "properties": {"loc": [-79.3716556, 43.6967347], "centroid": [-79.42634064659919, 43.83829891629555], "screen_name": "tofireS", "time": 1457051707.0, "tid": 705476618433765377, "text": "Vehicle (Spill Clean Up) - Bayview Avenue @ Moore Avenue, East York (2 Trucks)", "created_at": "Thu Mar 03 19:35:07 +0000 2016", "klabel": 59}}, {"geometry": {"type": "Point", "coordinates": [-79.3624967, 43.7090816]}, "type": "Feature", "id": 705502571746557952, "properties": {"loc": [-79.3624967, 43.7090816], "centroid": [-79.42634064659919, 43.83829891629555], "screen_name": "tmj_gta_retail", "time": 1457057895.0, "tid": 705502571746557952, "text": "If you're a #Retail professional in #Toronto, ON, check out this #job: https://t.co/Dkcmy7aAmz #Hiring #CareerArc", "created_at": "Thu Mar 03 21:18:15 +0000 2016", "klabel": 59}}, {"geometry": {"type": "Point", "coordinates": [-79.3498863, 43.7050507]}, "type": "Feature", "id": 705514362438590465, "properties": {"loc": [-79.3498863, 43.7050507], "centroid": [-79.42634064659919, 43.83829891629555], "screen_name": "tofireS", "time": 1457060706.0, "tid": 705514362438590465, "text": "Medical (Trouble Breathing) - Thorncliffe Park Dr b/w Overlea Boulevard / Milepost Pl, East York (2 Trucks)", "created_at": "Thu Mar 03 22:05:06 +0000 2016", "klabel": 59}}, {"geometry": {"type": "Point", "coordinates": [-79.3590775, 43.7122002]}, "type": "Feature", "id": 705773649660346368, "properties": {"loc": [-79.3590775, 43.7122002], "centroid": [-79.42634064659919, 43.83829891629555], "screen_name": "evelyndesigner", "time": 1457122525.0, "tid": 705773649660346368, "text": "My new F A V O U E I T E cabinet pull.... n also doubles as a hook... \ud83d\ude0d\ud83d\ude0d\ud83d\ude0d .. #eeid\u2026 https://t.co/vUudFudV4D", "created_at": "Fri Mar 04 15:15:25 +0000 2016", "klabel": 59}}, {"geometry": {"type": "Point", "coordinates": [-79.3517054, 43.7033191]}, "type": "Feature", "id": 705864414734512131, "properties": {"loc": [-79.3517054, 43.7033191], "centroid": [-79.42634064659919, 43.83829891629555], "screen_name": "tofire", "time": 1457144165.0, "tid": 705864414734512131, "text": "Medical (Assist) - Leaside Park Dr @ Overlea Boulevard, East York (2 Trucks)", "created_at": "Fri Mar 04 21:16:05 +0000 2016", "klabel": 59}}, {"geometry": {"type": "Point", "coordinates": [-79.3616426, 43.7057894]}, "type": "Feature", "id": 705905787294515200, "properties": {"loc": [-79.3616426, 43.7057894], "centroid": [-79.42634064659919, 43.83829891629555], "screen_name": "VitapathCareers", "time": 1457154029.0, "tid": 705905787294515200, "text": "We're #hiring! Click to apply: Store Manager - https://t.co/a5u7BDSGeG #Retail #Toronto, ON #Job #Jobs", "created_at": "Sat Mar 05 00:00:29 +0000 2016", "klabel": 59}}, {"geometry": {"type": "Point", "coordinates": [-79.36360168, 43.7103653]}, "type": "Feature", "id": 705997872123285504, "properties": {"loc": [-79.36360168, 43.7103653], "centroid": [-79.42634064659919, 43.83829891629555], "screen_name": "futurobrilhante", "time": 1457175984.0, "tid": 705997872123285504, "text": "I'm at The Leaside Pub in Toronto, Ontario https://t.co/4r286yM4wM", "created_at": "Sat Mar 05 06:06:24 +0000 2016", "klabel": 59}}, {"geometry": {"type": "Point", "coordinates": [-79.3635178, 43.7098999]}, "type": "Feature", "id": 706109225370566656, "properties": {"loc": [-79.3635178, 43.7098999], "centroid": [-79.42634064659919, 43.83829891629555], "screen_name": "Triplebogey", "time": 1457202532.0, "tid": 706109225370566656, "text": "#Repost @localleaside with repostapp.\n\u30fb\u30fb\u30fb\nApril 9th, we're hosting the Mini Putt Masters in our\u2026 https://t.co/l7mPVKgs8L", "created_at": "Sat Mar 05 13:28:52 +0000 2016", "klabel": 59}}, {"geometry": {"type": "Point", "coordinates": [-79.3614445, 43.7048502]}, "type": "Feature", "id": 706119954597179392, "properties": {"loc": [-79.3614445, 43.7048502], "centroid": [-79.42634064659919, 43.83829891629555], "screen_name": "tmj_gta_hrta", "time": 1457205090.0, "tid": 706119954597179392, "text": "Join the Starbucks team! See our latest #Hospitality #job opening here: https://t.co/f7mUyjGuMR 62 LAIRD DRIVE, #TORONTO, ON #Veterans", "created_at": "Sat Mar 05 14:11:30 +0000 2016", "klabel": 59}}, {"geometry": {"type": "Point", "coordinates": [-79.35850302, 43.69688942]}, "type": "Feature", "id": 749783753812086784, "properties": {"loc": [-79.35850302, 43.69688942], "centroid": [-79.42634064659919, 43.83829891629555], "screen_name": "AGoodSpirit", "time": 1467615351.0, "tid": 749783753812086784, "text": "Sunday peace encounter #biketoronto #mtb #mountainbiker #donvalleytrails @ Don Valley Trails https://t.co/DSBWLXGmN8", "created_at": "Mon Jul 04 01:55:51 +0000 2016", "klabel": 59}}, {"geometry": {"type": "Point", "coordinates": [-79.36901093, 43.70611992]}, "type": "Feature", "id": 749963260510740480, "properties": {"loc": [-79.36901093, 43.70611992], "centroid": [-79.42634064659919, 43.83829891629555], "screen_name": "BarryTheBazman", "time": 1467658149.0, "tid": 749963260510740480, "text": "I'm at Leaside in Toronto, ON https://t.co/3nGrjUZZdd", "created_at": "Mon Jul 04 13:49:09 +0000 2016", "klabel": 59}}, {"geometry": {"type": "Point", "coordinates": [-79.36075969, 43.70544407]}, "type": "Feature", "id": 749964819047014400, "properties": {"loc": [-79.36075969, 43.70544407], "centroid": [-79.42634064659919, 43.83829891629555], "screen_name": "BarryTheBazman", "time": 1467658521.0, "tid": 749964819047014400, "text": "I'm at Leaside Village in Toronto, ON https://t.co/WUYhfdIRBZ", "created_at": "Mon Jul 04 13:55:21 +0000 2016", "klabel": 59}}, {"geometry": {"type": "Point", "coordinates": [-79.36063869, 43.70540546]}, "type": "Feature", "id": 749964892774535168, "properties": {"loc": [-79.36063869, 43.70540546], "centroid": [-79.42634064659919, 43.83829891629555], "screen_name": "BarryTheBazman", "time": 1467658538.0, "tid": 749964892774535168, "text": "I'm at Aroma Espresso Bar in Toronto, Ontario https://t.co/9g5QcjfJPf", "created_at": "Mon Jul 04 13:55:38 +0000 2016", "klabel": 59}}, {"geometry": {"type": "Point", "coordinates": [-79.3586, 43.6978]}, "type": "Feature", "id": 749996999580286976, "properties": {"loc": [-79.3586, 43.6978], "centroid": [-79.42634064659919, 43.83829891629555], "screen_name": "mediabead", "time": 1467666193.0, "tid": 749996999580286976, "text": "#blessed #hikingadventures #donvalleytrails #puppysofinstagram #patterdaleterrier #love #ruby\u2026 https://t.co/inROvALBYm", "created_at": "Mon Jul 04 16:03:13 +0000 2016", "klabel": 59}}, {"geometry": {"type": "Point", "coordinates": [-79.3616426, 43.7057894]}, "type": "Feature", "id": 750058667928457216, "properties": {"loc": [-79.3616426, 43.7057894], "centroid": [-79.42634064659919, 43.83829891629555], "screen_name": "tmj_gta_retail", "time": 1467680896.0, "tid": 750058667928457216, "text": "This #Retail #job might be a great fit for you: Store Manager - https://t.co/3By6gUaXQH #Toronto, ON #Hiring #CareerArc", "created_at": "Mon Jul 04 20:08:16 +0000 2016", "klabel": 59}}, {"geometry": {"type": "Point", "coordinates": [-79.36901093, 43.70611992]}, "type": "Feature", "id": 750323652390977537, "properties": {"loc": [-79.36901093, 43.70611992], "centroid": [-79.42634064659919, 43.83829891629555], "screen_name": "BarryTheBazman", "time": 1467744073.0, "tid": 750323652390977537, "text": "I'm at Leaside in Toronto, ON https://t.co/sWR39ZzmNx", "created_at": "Tue Jul 05 13:41:13 +0000 2016", "klabel": 59}}, {"geometry": {"type": "Point", "coordinates": [-79.36075969, 43.70544407]}, "type": "Feature", "id": 750328371440128000, "properties": {"loc": [-79.36075969, 43.70544407], "centroid": [-79.42634064659919, 43.83829891629555], "screen_name": "BarryTheBazman", "time": 1467745198.0, "tid": 750328371440128000, "text": "I'm at Leaside Village in Toronto, ON https://t.co/vUTI31WPlN", "created_at": "Tue Jul 05 13:59:58 +0000 2016", "klabel": 59}}, {"geometry": {"type": "Point", "coordinates": [-79.35850302, 43.69688942]}, "type": "Feature", "id": 750364255526858752, "properties": {"loc": [-79.35850302, 43.69688942], "centroid": [-79.42634064659919, 43.83829891629555], "screen_name": "DonnaBulika", "time": 1467753754.0, "tid": 750364255526858752, "text": "#thismorning #10k #walk #park #woodpecker #exploring #torontoparks #oneatatime #gorgeous #nature\u2026 https://t.co/Cd8bFp7vNP", "created_at": "Tue Jul 05 16:22:34 +0000 2016", "klabel": 59}}, {"geometry": {"type": "Point", "coordinates": [-79.3480002, 43.70399]}, "type": "Feature", "id": 751657903749300224, "properties": {"loc": [-79.3480002, 43.70399], "centroid": [-79.42634064659919, 43.83829891629555], "screen_name": "tpscalls", "time": 1468062184.0, "tid": 751657903749300224, "text": "Unknown Trouble | Thorncliffe Park Dr &amp; Thorncliffe Park Dr [53 Div.] 07/09 01:57 #Thorncliffe_Park #Toronto", "created_at": "Sat Jul 09 06:03:04 +0000 2016", "klabel": 59}}, {"geometry": {"type": "Point", "coordinates": [-79.3578332, 43.7141732]}, "type": "Feature", "id": 751750027358314497, "properties": {"loc": [-79.3578332, 43.7141732], "centroid": [-79.42634064659919, 43.83829891629555], "screen_name": "tmj_gta_retail", "time": 1468084148.0, "tid": 751750027358314497, "text": "This #job might be a great fit for you: Merchandise Coordinator - https://t.co/AI8OqTnHjV #Retail #EastYork, ON #Hiring #CareerArc", "created_at": "Sat Jul 09 12:09:08 +0000 2016", "klabel": 59}}, {"geometry": {"type": "Point", "coordinates": [-79.3569022, 43.7069098]}, "type": "Feature", "id": 751782790010642433, "properties": {"loc": [-79.3569022, 43.7069098], "centroid": [-79.42634064659919, 43.83829891629555], "screen_name": "amsterdambeer", "time": 1468091959.0, "tid": 751782790010642433, "text": "Amsterdam Howl now available in bottles. https://t.co/IUyom3EnEI @amsterdambeer #BeerMenus", "created_at": "Sat Jul 09 14:19:19 +0000 2016", "klabel": 59}}, {"geometry": {"type": "Point", "coordinates": [-79.3609595, 43.7094195]}, "type": "Feature", "id": 751788436160323584, "properties": {"loc": [-79.3609595, 43.7094195], "centroid": [-79.42634064659919, 43.83829891629555], "screen_name": "tmj_gta_retail", "time": 1468093305.0, "tid": 751788436160323584, "text": "Interested in a #job near #Toronto, ON? This could be a great fit: https://t.co/TLeXWgP4GA #Retail #Hiring #CareerArc", "created_at": "Sat Jul 09 14:41:45 +0000 2016", "klabel": 59}}, {"geometry": {"type": "Point", "coordinates": [-79.3589588, 43.7140116]}, "type": "Feature", "id": 751792266457395201, "properties": {"loc": [-79.3589588, 43.7140116], "centroid": [-79.42634064659919, 43.83829891629555], "screen_name": "tmj_gta_retail", "time": 1468094218.0, "tid": 751792266457395201, "text": "Can you recommend anyone for this #job? Coordonnateur, Service \u00e0 la client\u00e8le - https://t.co/qrCegS8Yi4 #Retail #Toronto, ON #Hiring", "created_at": "Sat Jul 09 14:56:58 +0000 2016", "klabel": 59}}, {"geometry": {"type": "Point", "coordinates": [-79.3589588, 43.7140116]}, "type": "Feature", "id": 751799934173667329, "properties": {"loc": [-79.3589588, 43.7140116], "centroid": [-79.42634064659919, 43.83829891629555], "screen_name": "tmj_gta_retail", "time": 1468096046.0, "tid": 751799934173667329, "text": "Can you recommend anyone for this #job? Merchandise Processing Coordinator - https://t.co/NzESfeKsAS #Retail #Toronto, ON #Hiring #CareerArc", "created_at": "Sat Jul 09 15:27:26 +0000 2016", "klabel": 59}}, {"geometry": {"type": "Point", "coordinates": [-79.3707699, 43.69667]}, "type": "Feature", "id": 751812170950770688, "properties": {"loc": [-79.3707699, 43.69667], "centroid": [-79.42634064659919, 43.83829891629555], "screen_name": "LouisePreteFood", "time": 1468098964.0, "tid": 751812170950770688, "text": "#feelingthelove #simple #italian #sugo #instafood #instamood #cleaneating #lowsodium #nongmo\u2026 https://t.co/bXzilvermJ", "created_at": "Sat Jul 09 16:16:04 +0000 2016", "klabel": 59}}, {"geometry": {"type": "Point", "coordinates": [-79.3616426, 43.7057894]}, "type": "Feature", "id": 751853503849521152, "properties": {"loc": [-79.3616426, 43.7057894], "centroid": [-79.42634064659919, 43.83829891629555], "screen_name": "VitapathCareers", "time": 1468108818.0, "tid": 751853503849521152, "text": "This #job might be a great fit for you: Health Enthusiast Part-Time - https://t.co/X1SI1wuMY1 #Retail #Toronto, ON #Hiring", "created_at": "Sat Jul 09 19:00:18 +0000 2016", "klabel": 59}}, {"geometry": {"type": "Point", "coordinates": [-79.372191, 43.704091]}, "type": "Feature", "id": 752127499312783360, "properties": {"loc": [-79.372191, 43.704091], "centroid": [-79.42634064659919, 43.83829891629555], "screen_name": "tpscalls", "time": 1468174144.0, "tid": 752127499312783360, "text": "Dispute | Bayview Ave &amp; Berney Cres [53 Div.] 07/10 09:04 #Leaside #Toronto", "created_at": "Sun Jul 10 13:09:04 +0000 2016", "klabel": 59}}, {"geometry": {"type": "Point", "coordinates": [-79.3578781, 43.7063599]}, "type": "Feature", "id": 752188856078835712, "properties": {"loc": [-79.3578781, 43.7063599], "centroid": [-79.42634064659919, 43.83829891629555], "screen_name": "TorontoCardShow", "time": 1468188772.0, "tid": 752188856078835712, "text": "TODAY til 4pm!!!\nEnjoy Pints &amp; Browse Sports Cards @Amsterdambeer Brewery, 45 Esandar\nhttps://t.co/if1i9d45ee https://t.co/P42WBINfVu", "created_at": "Sun Jul 10 17:12:52 +0000 2016", "klabel": 59}}, {"geometry": {"type": "Point", "coordinates": [-79.3632114, 43.7030864]}, "type": "Feature", "id": 752210552315871232, "properties": {"loc": [-79.3632114, 43.7030864], "centroid": [-79.42634064659919, 43.83829891629555], "screen_name": "tpscalls", "time": 1468193945.0, "tid": 752210552315871232, "text": "Theft Just Occurred | Randolph Rd &amp; Millwood Rd [53 Div.] 07/10 14:34 #Leaside #Toronto", "created_at": "Sun Jul 10 18:39:05 +0000 2016", "klabel": 59}}, {"geometry": {"type": "Point", "coordinates": [-79.36009253, 43.71391941]}, "type": "Feature", "id": 752229812723384320, "properties": {"loc": [-79.36009253, 43.71391941], "centroid": [-79.42634064659919, 43.83829891629555], "screen_name": "bodybybasch", "time": 1468198537.0, "tid": 752229812723384320, "text": "\ud83d\ude02\ud83d\ude02\ud83d\ude02Having fun now at the gym! \n\n#fitfam #healthy #healthylifestyle #werk #strong @ Pure Fitness\u2026 https://t.co/GjHNlDk8tR", "created_at": "Sun Jul 10 19:55:37 +0000 2016", "klabel": 59}}, {"geometry": {"type": "Point", "coordinates": [-79.3616426, 43.7057894]}, "type": "Feature", "id": 752255761258942464, "properties": {"loc": [-79.3616426, 43.7057894], "centroid": [-79.42634064659919, 43.83829891629555], "screen_name": "tmj_gta_retail", "time": 1468204724.0, "tid": 752255761258942464, "text": "Want to work at Vitapath? We're #hiring in #Toronto, ON! Click for details: https://t.co/3By6gUaXQH #Job #Retail #Jobs #CareerArc", "created_at": "Sun Jul 10 21:38:44 +0000 2016", "klabel": 59}}, {"geometry": {"type": "Point", "coordinates": [-79.3704419, 43.7030826]}, "type": "Feature", "id": 752278745994715137, "properties": {"loc": [-79.3704419, 43.7030826], "centroid": [-79.42634064659919, 43.83829891629555], "screen_name": "tofireS", "time": 1468210204.0, "tid": 752278745994715137, "text": "Alarm Residential - Rolland Road b/w Bessborough Dr / Hanna Road, East York (6 Trucks)", "created_at": "Sun Jul 10 23:10:04 +0000 2016", "klabel": 59}}, {"geometry": {"type": "Point", "coordinates": [-79.35850302, 43.69688942]}, "type": "Feature", "id": 752311960474095616, "properties": {"loc": [-79.35850302, 43.69688942], "centroid": [-79.42634064659919, 43.83829891629555], "screen_name": "Nyw", "time": 1468218123.0, "tid": 752311960474095616, "text": "Mtb Sunday night fun on the 86 #mtb #scion #86 #frs #trails #fun #superfuntimes #becauseracecar\u2026 https://t.co/0QhleqvpEU", "created_at": "Mon Jul 11 01:22:03 +0000 2016", "klabel": 59}}, {"geometry": {"type": "Point", "coordinates": [-79.3491961, 43.6971729]}, "type": "Feature", "id": 752370604465090560, "properties": {"loc": [-79.3491961, 43.6971729], "centroid": [-79.42634064659919, 43.83829891629555], "screen_name": "tpscalls", "time": 1468232105.0, "tid": 752370604465090560, "text": "Noise Complaint | Pape Ave &amp; Donlands Ave [54 Div.] 07/11 01:10 #Old_East_York #Toronto", "created_at": "Mon Jul 11 05:15:05 +0000 2016", "klabel": 59}}, {"geometry": {"type": "Point", "coordinates": [-79.36901093, 43.70611992]}, "type": "Feature", "id": 752471438448287744, "properties": {"loc": [-79.36901093, 43.70611992], "centroid": [-79.42634064659919, 43.83829891629555], "screen_name": "BarryTheBazman", "time": 1468256145.0, "tid": 752471438448287744, "text": "I'm at Leaside in Toronto, ON https://t.co/cwRsQHwyBr", "created_at": "Mon Jul 11 11:55:45 +0000 2016", "klabel": 59}}, {"geometry": {"type": "Point", "coordinates": [-79.36077069, 43.70529151]}, "type": "Feature", "id": 752471507415203840, "properties": {"loc": [-79.36077069, 43.70529151], "centroid": [-79.42634064659919, 43.83829891629555], "screen_name": "BarryTheBazman", "time": 1468256162.0, "tid": 752471507415203840, "text": "I'm at TELUS in Toronto, ON https://t.co/v8wnIFYIDm", "created_at": "Mon Jul 11 11:56:02 +0000 2016", "klabel": 59}}, {"geometry": {"type": "Point", "coordinates": [-79.36108806, 43.70523522]}, "type": "Feature", "id": 752511486489137152, "properties": {"loc": [-79.36108806, 43.70523522], "centroid": [-79.42634064659919, 43.83829891629555], "screen_name": "BarryTheBazman", "time": 1468265694.0, "tid": 752511486489137152, "text": "Hi Diana. Thanks. @ConlanDiana @HershelGreene1 @hopeoedzes @Alpha2468 @jerry_shonk @giselessecret @MikeAngelette @Mikeyznsacto @KellyR71", "created_at": "Mon Jul 11 14:34:54 +0000 2016", "klabel": 59}}, {"geometry": {"type": "Point", "coordinates": [-79.36075969, 43.70544407]}, "type": "Feature", "id": 752533252058017792, "properties": {"loc": [-79.36075969, 43.70544407], "centroid": [-79.42634064659919, 43.83829891629555], "screen_name": "BarryTheBazman", "time": 1468270883.0, "tid": 752533252058017792, "text": "I'm at Leaside Village in Toronto, ON https://t.co/Uqlmntsf5u", "created_at": "Mon Jul 11 16:01:23 +0000 2016", "klabel": 59}}, {"geometry": {"type": "Point", "coordinates": [-79.36063869, 43.70540546]}, "type": "Feature", "id": 752533330550255616, "properties": {"loc": [-79.36063869, 43.70540546], "centroid": [-79.42634064659919, 43.83829891629555], "screen_name": "BarryTheBazman", "time": 1468270902.0, "tid": 752533330550255616, "text": "I'm at Aroma Espresso Bar in Toronto, Ontario https://t.co/paCeVJjYa8", "created_at": "Mon Jul 11 16:01:42 +0000 2016", "klabel": 59}}, {"geometry": {"type": "Point", "coordinates": [-79.36122166, 43.70561807]}, "type": "Feature", "id": 752537159140278274, "properties": {"loc": [-79.36122166, 43.70561807], "centroid": [-79.42634064659919, 43.83829891629555], "screen_name": "BarryTheBazman", "time": 1468271814.0, "tid": 752537159140278274, "text": "I'm at @Five_Guys in Toronto, ON https://t.co/UbprxdDHxM", "created_at": "Mon Jul 11 16:16:54 +0000 2016", "klabel": 59}}, {"geometry": {"type": "Point", "coordinates": [-79.3578332, 43.7141732]}, "type": "Feature", "id": 752568869328269312, "properties": {"loc": [-79.3578332, 43.7141732], "centroid": [-79.42634064659919, 43.83829891629555], "screen_name": "tmj_gta_retail", "time": 1468279375.0, "tid": 752568869328269312, "text": "This #job might be a great fit for you: Store Associate - https://t.co/Y9BCcNTegC #Retail #EastYork, ON #Hiring #CareerArc", "created_at": "Mon Jul 11 18:22:55 +0000 2016", "klabel": 59}}, {"geometry": {"type": "Point", "coordinates": [-79.36063869, 43.70540546]}, "type": "Feature", "id": 752576254000435200, "properties": {"loc": [-79.36063869, 43.70540546], "centroid": [-79.42634064659919, 43.83829891629555], "screen_name": "BarryTheBazman", "time": 1468281135.0, "tid": 752576254000435200, "text": "I'm at Aroma Espresso Bar in Toronto, Ontario https://t.co/RG4eRh7bSN", "created_at": "Mon Jul 11 18:52:15 +0000 2016", "klabel": 59}}, {"geometry": {"type": "Point", "coordinates": [-79.36901093, 43.70611992]}, "type": "Feature", "id": 752704487207362560, "properties": {"loc": [-79.36901093, 43.70611992], "centroid": [-79.42634064659919, 43.83829891629555], "screen_name": "BarryTheBazman", "time": 1468311708.0, "tid": 752704487207362560, "text": "I'm at Leaside in Toronto, ON https://t.co/pFBB4bJUbS", "created_at": "Tue Jul 12 03:21:48 +0000 2016", "klabel": 59}}, {"geometry": {"type": "Point", "coordinates": [-79.36096867, 43.70517618]}, "type": "Feature", "id": 752704670804639744, "properties": {"loc": [-79.36096867, 43.70517618], "centroid": [-79.42634064659919, 43.83829891629555], "screen_name": "BarryTheBazman", "time": 1468311752.0, "tid": 752704670804639744, "text": "Back at work. (@ TELUS in Toronto, ON) https://t.co/kYkCDwIcNG", "created_at": "Tue Jul 12 03:22:32 +0000 2016", "klabel": 59}}, {"geometry": {"type": "Point", "coordinates": [-79.35086, 43.70691]}, "type": "Feature", "id": 752832738659446784, "properties": {"loc": [-79.35086, 43.70691], "centroid": [-79.42634064659919, 43.83829891629555], "screen_name": "calla_evans", "time": 1468342286.0, "tid": 752832738659446784, "text": "A little after hours tire flipping this morning #6amrules @ Quantum Crossfit https://t.co/mrfLEFC4al", "created_at": "Tue Jul 12 11:51:26 +0000 2016", "klabel": 59}}, {"geometry": {"type": "Point", "coordinates": [-79.36901093, 43.70611992]}, "type": "Feature", "id": 752850691073445888, "properties": {"loc": [-79.36901093, 43.70611992], "centroid": [-79.42634064659919, 43.83829891629555], "screen_name": "BarryTheBazman", "time": 1468346566.0, "tid": 752850691073445888, "text": "I'm at Leaside in Toronto, ON https://t.co/6rultJSEUE", "created_at": "Tue Jul 12 13:02:46 +0000 2016", "klabel": 59}}, {"geometry": {"type": "Point", "coordinates": [-79.36096867, 43.70517618]}, "type": "Feature", "id": 752850740025102338, "properties": {"loc": [-79.36096867, 43.70517618], "centroid": [-79.42634064659919, 43.83829891629555], "screen_name": "BarryTheBazman", "time": 1468346578.0, "tid": 752850740025102338, "text": "I'm at TELUS in Toronto, ON https://t.co/3QGiMINtoK", "created_at": "Tue Jul 12 13:02:58 +0000 2016", "klabel": 59}}, {"geometry": {"type": "Point", "coordinates": [-79.3667, 43.7]}, "type": "Feature", "id": 752948154136485888, "properties": {"loc": [-79.3667, 43.7], "centroid": [-79.42634064659919, 43.83829891629555], "screen_name": "lhi_creative", "time": 1468369803.0, "tid": 752948154136485888, "text": "Is Sanitary dangerous? #urbanart #manholecover #streetphotography\u2026 https://t.co/ssm67DDzr8", "created_at": "Tue Jul 12 19:30:03 +0000 2016", "klabel": 59}}, {"geometry": {"type": "Point", "coordinates": [-79.3609595, 43.7094195]}, "type": "Feature", "id": 752950995848540160, "properties": {"loc": [-79.3609595, 43.7094195], "centroid": [-79.42634064659919, 43.83829891629555], "screen_name": "tmj_gta_retail", "time": 1468370481.0, "tid": 752950995848540160, "text": "We're #hiring! Click to apply: Coordonnateur, Marchandises - https://t.co/g19pYI7Chq #Job #Retail #Toronto, ON #Jobs #CareerArc", "created_at": "Tue Jul 12 19:41:21 +0000 2016", "klabel": 59}}, {"geometry": {"type": "Point", "coordinates": [-79.3474863, 43.6984421]}, "type": "Feature", "id": 752984392860069888, "properties": {"loc": [-79.3474863, 43.6984421], "centroid": [-79.42634064659919, 43.83829891629555], "screen_name": "tpscalls", "time": 1468378443.0, "tid": 752984392860069888, "text": "See Ambulance | Wynford Dr &amp; East Don River Trl [33 Div.] 07/12 17:50 #Toronto", "created_at": "Tue Jul 12 21:54:03 +0000 2016", "klabel": 59}}, {"geometry": {"type": "Point", "coordinates": [-79.3480002, 43.70399]}, "type": "Feature", "id": 753007045020880897, "properties": {"loc": [-79.3480002, 43.70399], "centroid": [-79.42634064659919, 43.83829891629555], "screen_name": "tpscalls", "time": 1468383844.0, "tid": 753007045020880897, "text": "Disorderlies | Thorncliffe Park Dr &amp; Thorncliffe Park Dr [53 Div.] 07/12 19:19 #Thorncliffe_Park #Toronto", "created_at": "Tue Jul 12 23:24:04 +0000 2016", "klabel": 59}}, {"geometry": {"type": "Point", "coordinates": [-79.36901093, 43.70611992]}, "type": "Feature", "id": 753074267571515392, "properties": {"loc": [-79.36901093, 43.70611992], "centroid": [-79.42634064659919, 43.83829891629555], "screen_name": "BarryTheBazman", "time": 1468399871.0, "tid": 753074267571515392, "text": "I'm at Leaside in Toronto, ON https://t.co/ytHFlCgzW1", "created_at": "Wed Jul 13 03:51:11 +0000 2016", "klabel": 59}}, {"geometry": {"type": "Point", "coordinates": [-79.36096867, 43.70517618]}, "type": "Feature", "id": 753074339315154944, "properties": {"loc": [-79.36096867, 43.70517618], "centroid": [-79.42634064659919, 43.83829891629555], "screen_name": "BarryTheBazman", "time": 1468399888.0, "tid": 753074339315154944, "text": "Working again (@ TELUS in Toronto, ON) https://t.co/a2MqengNDq", "created_at": "Wed Jul 13 03:51:28 +0000 2016", "klabel": 59}}, {"geometry": {"type": "Point", "coordinates": [-79.36901093, 43.70611992]}, "type": "Feature", "id": 753211797574942720, "properties": {"loc": [-79.36901093, 43.70611992], "centroid": [-79.42634064659919, 43.83829891629555], "screen_name": "BarryTheBazman", "time": 1468432661.0, "tid": 753211797574942720, "text": "I'm at Leaside in Toronto, ON https://t.co/mgJNLiEQCP", "created_at": "Wed Jul 13 12:57:41 +0000 2016", "klabel": 59}}, {"geometry": {"type": "Point", "coordinates": [-79.36122166, 43.70561807]}, "type": "Feature", "id": 753260978461171712, "properties": {"loc": [-79.36122166, 43.70561807], "centroid": [-79.42634064659919, 43.83829891629555], "screen_name": "BarryTheBazman", "time": 1468444386.0, "tid": 753260978461171712, "text": "I'm at @Five_Guys in Toronto, ON https://t.co/wxg7MziG63", "created_at": "Wed Jul 13 16:13:06 +0000 2016", "klabel": 59}}, {"geometry": {"type": "Point", "coordinates": [-79.35683, 43.70669]}, "type": "Feature", "id": 753265610126131201, "properties": {"loc": [-79.35683, 43.70669], "centroid": [-79.42634064659919, 43.83829891629555], "screen_name": "AkmalFarah", "time": 1468445491.0, "tid": 753265610126131201, "text": "No #Taekwondo training today.   Just lots of fun at #skyzone.   #summercamp @ Skyzone, 45\u2026 https://t.co/bczb7BMdBr", "created_at": "Wed Jul 13 16:31:31 +0000 2016", "klabel": 59}}, {"geometry": {"type": "Point", "coordinates": [-79.3578332, 43.7141732]}, "type": "Feature", "id": 753276837397041152, "properties": {"loc": [-79.3578332, 43.7141732], "centroid": [-79.42634064659919, 43.83829891629555], "screen_name": "tmj_gta_retail", "time": 1468448167.0, "tid": 753276837397041152, "text": "Join the TJX Canada team! See our latest #job opening here: https://t.co/ccw7X4FNR6 #Retail #EastYork, ON #Hiring #CareerArc", "created_at": "Wed Jul 13 17:16:07 +0000 2016", "klabel": 59}}, {"geometry": {"type": "Point", "coordinates": [-79.36063869, 43.70540546]}, "type": "Feature", "id": 753299622446104576, "properties": {"loc": [-79.36063869, 43.70540546], "centroid": [-79.42634064659919, 43.83829891629555], "screen_name": "BarryTheBazman", "time": 1468453600.0, "tid": 753299622446104576, "text": "I'm at Aroma Espresso Bar in Toronto, Ontario https://t.co/7vaTXn5TSK", "created_at": "Wed Jul 13 18:46:40 +0000 2016", "klabel": 59}}, {"geometry": {"type": "Point", "coordinates": [-79.3609595, 43.7094195]}, "type": "Feature", "id": 753315392454430720, "properties": {"loc": [-79.3609595, 43.7094195], "centroid": [-79.42634064659919, 43.83829891629555], "screen_name": "tmj_gta_retail", "time": 1468457360.0, "tid": 753315392454430720, "text": "See our latest #Toronto, ON #job and click to apply: Directeur adjoint, Marchandises - https://t.co/aZ80qxf055 #Retail #Hiring #CareerArc", "created_at": "Wed Jul 13 19:49:20 +0000 2016", "klabel": 59}}, {"geometry": {"type": "Point", "coordinates": [-79.35366, 43.70238]}, "type": "Feature", "id": 753426526188765185, "properties": {"loc": [-79.35366, 43.70238], "centroid": [-79.42634064659919, 43.83829891629555], "screen_name": "itsRyanHilton", "time": 1468483856.0, "tid": 753426526188765185, "text": "Midnight mass #freemason @ York Masonic Temple https://t.co/lIdeHO2jCC", "created_at": "Thu Jul 14 03:10:56 +0000 2016", "klabel": 59}}, {"geometry": {"type": "Point", "coordinates": [-79.3574076, 43.70699402]}, "type": "Feature", "id": 753541757174947840, "properties": {"loc": [-79.3574076, 43.70699402], "centroid": [-79.42634064659919, 43.83829891629555], "screen_name": "Carlotaadrover", "time": 1468511329.0, "tid": 753541757174947840, "text": "Jump \ud83d\ude4c @ Sky Zone Toronto https://t.co/k8WBCWjT7p", "created_at": "Thu Jul 14 10:48:49 +0000 2016", "klabel": 59}}, {"geometry": {"type": "Point", "coordinates": [-79.36901093, 43.70611992]}, "type": "Feature", "id": 753576833975713792, "properties": {"loc": [-79.36901093, 43.70611992], "centroid": [-79.42634064659919, 43.83829891629555], "screen_name": "BarryTheBazman", "time": 1468519692.0, "tid": 753576833975713792, "text": "I'm at Leaside in Toronto, ON https://t.co/HY3Y9lcmwW", "created_at": "Thu Jul 14 13:08:12 +0000 2016", "klabel": 59}}, {"geometry": {"type": "Point", "coordinates": [-79.36096867, 43.70517618]}, "type": "Feature", "id": 753576888354869248, "properties": {"loc": [-79.36096867, 43.70517618], "centroid": [-79.42634064659919, 43.83829891629555], "screen_name": "BarryTheBazman", "time": 1468519705.0, "tid": 753576888354869248, "text": "I'm at TELUS in Toronto, ON https://t.co/L04uBhh41c", "created_at": "Thu Jul 14 13:08:25 +0000 2016", "klabel": 59}}, {"geometry": {"type": "Point", "coordinates": [-79.36075969, 43.70544407]}, "type": "Feature", "id": 753587919055716352, "properties": {"loc": [-79.36075969, 43.70544407], "centroid": [-79.42634064659919, 43.83829891629555], "screen_name": "BarryTheBazman", "time": 1468522335.0, "tid": 753587919055716352, "text": "I'm at Leaside Village in Toronto, ON https://t.co/dy8TNBia4s", "created_at": "Thu Jul 14 13:52:15 +0000 2016", "klabel": 59}}, {"geometry": {"type": "Point", "coordinates": [-79.3616426, 43.7057894]}, "type": "Feature", "id": 753665433098555393, "properties": {"loc": [-79.3616426, 43.7057894], "centroid": [-79.42634064659919, 43.83829891629555], "screen_name": "VitapathCareers", "time": 1468540816.0, "tid": 753665433098555393, "text": "If you're looking for work in #Toronto, ON, check out this #job: https://t.co/X1SI1wuMY1 #Retail #Hiring", "created_at": "Thu Jul 14 19:00:16 +0000 2016", "klabel": 59}}, {"geometry": {"type": "Point", "coordinates": [-79.3498863, 43.7050507]}, "type": "Feature", "id": 753689295966375937, "properties": {"loc": [-79.3498863, 43.7050507], "centroid": [-79.42634064659919, 43.83829891629555], "screen_name": "tofireS", "time": 1468546505.0, "tid": 753689295966375937, "text": "Medical (Chest Pains) - Overlea Boulevard b/w Thorncliffe Park Dr / William Morgan Dr, East York (2 Trucks)", "created_at": "Thu Jul 14 20:35:05 +0000 2016", "klabel": 59}}, {"geometry": {"type": "Point", "coordinates": [-79.3474863, 43.6984421]}, "type": "Feature", "id": 753713197748813824, "properties": {"loc": [-79.3474863, 43.6984421], "centroid": [-79.42634064659919, 43.83829891629555], "screen_name": "tofireS", "time": 1468552204.0, "tid": 753713197748813824, "text": "Medical (Vsa) - Don Mills Road b/w West Don River Trail / Overlea Boulevard, East York (2 Trucks)", "created_at": "Thu Jul 14 22:10:04 +0000 2016", "klabel": 59}}, {"geometry": {"type": "Point", "coordinates": [-79.3616426, 43.7057894]}, "type": "Feature", "id": 753725857408004096, "properties": {"loc": [-79.3616426, 43.7057894], "centroid": [-79.42634064659919, 43.83829891629555], "screen_name": "VitapathCareers", "time": 1468555222.0, "tid": 753725857408004096, "text": "Join the Vitapath team! See our latest #job opening here: https://t.co/1OJ2A737KF #Retail #Toronto, ON #Hiring", "created_at": "Thu Jul 14 23:00:22 +0000 2016", "klabel": 59}}, {"geometry": {"type": "Point", "coordinates": [-79.36096867, 43.70517618]}, "type": "Feature", "id": 753937415321059329, "properties": {"loc": [-79.36096867, 43.70517618], "centroid": [-79.42634064659919, 43.83829891629555], "screen_name": "BarryTheBazman", "time": 1468605661.0, "tid": 753937415321059329, "text": "I'm at TELUS in Toronto, ON https://t.co/hgDgNnNWqx", "created_at": "Fri Jul 15 13:01:01 +0000 2016", "klabel": 59}}, {"geometry": {"type": "Point", "coordinates": [-79.36901093, 43.70611992]}, "type": "Feature", "id": 753937357825605632, "properties": {"loc": [-79.36901093, 43.70611992], "centroid": [-79.42634064659919, 43.83829891629555], "screen_name": "BarryTheBazman", "time": 1468605648.0, "tid": 753937357825605632, "text": "I'm at Leaside in Toronto, ON https://t.co/9dBbQjLo8X", "created_at": "Fri Jul 15 13:00:48 +0000 2016", "klabel": 59}}, {"geometry": {"type": "Point", "coordinates": [-79.36075969, 43.70544407]}, "type": "Feature", "id": 753950371031158784, "properties": {"loc": [-79.36075969, 43.70544407], "centroid": [-79.42634064659919, 43.83829891629555], "screen_name": "BarryTheBazman", "time": 1468608750.0, "tid": 753950371031158784, "text": "I'm at Leaside Village in Toronto, ON https://t.co/XAarxu1FMQ", "created_at": "Fri Jul 15 13:52:30 +0000 2016", "klabel": 59}}, {"geometry": {"type": "Point", "coordinates": [-79.36063869, 43.70540546]}, "type": "Feature", "id": 753950411191623680, "properties": {"loc": [-79.36063869, 43.70540546], "centroid": [-79.42634064659919, 43.83829891629555], "screen_name": "BarryTheBazman", "time": 1468608760.0, "tid": 753950411191623680, "text": "I'm at Aroma Espresso Bar in Toronto, Ontario https://t.co/QiqJBaW2GC", "created_at": "Fri Jul 15 13:52:40 +0000 2016", "klabel": 59}}, {"geometry": {"type": "Point", "coordinates": [-79.35850302, 43.69688942]}, "type": "Feature", "id": 753959793128243200, "properties": {"loc": [-79.35850302, 43.69688942], "centroid": [-79.42634064659919, 43.83829891629555], "screen_name": "LKHeaney", "time": 1468610997.0, "tid": 753959793128243200, "text": "Went for a quick 5.5km run this morning in the #donvalley. I can never get enough of this\u2026 https://t.co/IFNzSYStkv", "created_at": "Fri Jul 15 14:29:57 +0000 2016", "klabel": 59}}, {"geometry": {"type": "Point", "coordinates": [-79.3578332, 43.7141732]}, "type": "Feature", "id": 753989210160320516, "properties": {"loc": [-79.3578332, 43.7141732], "centroid": [-79.42634064659919, 43.83829891629555], "screen_name": "tmj_gta_retail", "time": 1468618010.0, "tid": 753989210160320516, "text": "Interested in a #job near #EastYork, ON? This could be a great fit: https://t.co/AI8OqTnHjV #Retail #Hiring #CareerArc", "created_at": "Fri Jul 15 16:26:50 +0000 2016", "klabel": 59}}, {"geometry": {"type": "Point", "coordinates": [-79.35135292, 43.70593295]}, "type": "Feature", "id": 753989888656244736, "properties": {"loc": [-79.35135292, 43.70593295], "centroid": [-79.42634064659919, 43.83829891629555], "screen_name": "sarahsbrain", "time": 1468618172.0, "tid": 753989888656244736, "text": "Not too shabby @ The Potter's Studio https://t.co/8hNXk8NRfH", "created_at": "Fri Jul 15 16:29:32 +0000 2016", "klabel": 59}}, {"geometry": {"type": "Point", "coordinates": [-79.3589588, 43.7140116]}, "type": "Feature", "id": 754036070841319424, "properties": {"loc": [-79.3589588, 43.7140116], "centroid": [-79.42634064659919, 43.83829891629555], "screen_name": "tmj_gta_retail", "time": 1468629183.0, "tid": 754036070841319424, "text": "We're #hiring! Click to apply: Coordonnateur au traitement des marchandises - https://t.co/imwvy8dgna #Job #Retail #Toronto, ON #Jobs", "created_at": "Fri Jul 15 19:33:03 +0000 2016", "klabel": 59}}, {"geometry": {"type": "Point", "coordinates": [-79.3589588, 43.7140116]}, "type": "Feature", "id": 754039672846680064, "properties": {"loc": [-79.3589588, 43.7140116], "centroid": [-79.42634064659919, 43.83829891629555], "screen_name": "tmj_gta_retail", "time": 1468630042.0, "tid": 754039672846680064, "text": "Want to work in #Toronto, ON? View our latest opening: https://t.co/NzESfeKsAS #Job #Retail #Jobs #Hiring #CareerArc", "created_at": "Fri Jul 15 19:47:22 +0000 2016", "klabel": 59}}, {"geometry": {"type": "Point", "coordinates": [-79.3616426, 43.7057894]}, "type": "Feature", "id": 754064813643341824, "properties": {"loc": [-79.3616426, 43.7057894], "centroid": [-79.42634064659919, 43.83829891629555], "screen_name": "tmj_gta_retail", "time": 1468636036.0, "tid": 754064813643341824, "text": "See our latest #Toronto, ON #job and click to apply: Key Holder - https://t.co/4L0MXeCSN4 #Retail #Hiring #CareerArc", "created_at": "Fri Jul 15 21:27:16 +0000 2016", "klabel": 59}}, {"geometry": {"type": "Point", "coordinates": [-79.34694807, 43.70357433]}, "type": "Feature", "id": 754070497525174272, "properties": {"loc": [-79.34694807, 43.70357433], "centroid": [-79.42634064659919, 43.83829891629555], "screen_name": "nina_bonnyta", "time": 1468637391.0, "tid": 754070497525174272, "text": "see the world not as it is but as what it should be. #Gleek \ud83c\udfa4", "created_at": "Fri Jul 15 21:49:51 +0000 2016", "klabel": 59}}, {"geometry": {"type": "Point", "coordinates": [-79.35683, 43.70669]}, "type": "Feature", "id": 754083235169271808, "properties": {"loc": [-79.35683, 43.70669], "centroid": [-79.42634064659919, 43.83829891629555], "screen_name": "Carlotaadrover", "time": 1468640428.0, "tid": 754083235169271808, "text": "\ud83d\udd1b\ud83d\udd1b\ud83d\udd1b @ Skyzone, 45 Esander Drive, Toronto, Ontario https://t.co/BhcFsPv5Ii", "created_at": "Fri Jul 15 22:40:28 +0000 2016", "klabel": 59}}, {"geometry": {"type": "Point", "coordinates": [-79.35033733, 43.70431528]}, "type": "Feature", "id": 754114594118008833, "properties": {"loc": [-79.35033733, 43.70431528], "centroid": [-79.42634064659919, 43.83829891629555], "screen_name": "kilaWENG", "time": 1468647904.0, "tid": 754114594118008833, "text": "Bench Fresh \ud83d\udc81\ud83c\udffd @ 21 Overlea Blvd https://t.co/oGCKX4OgKa", "created_at": "Sat Jul 16 00:45:04 +0000 2016", "klabel": 59}}, {"geometry": {"type": "Point", "coordinates": [-79.3598223, 43.7126792]}, "type": "Feature", "id": 754203166791655424, "properties": {"loc": [-79.3598223, 43.7126792], "centroid": [-79.42634064659919, 43.83829891629555], "screen_name": "tpscalls", "time": 1468669022.0, "tid": 754203166791655424, "text": "Break &amp; Enter In Progress | Parkhurst Blvd &amp; Vanderhoof Ave [53 Div.] 07/16 02:31 #Leaside #Toronto", "created_at": "Sat Jul 16 06:37:02 +0000 2016", "klabel": 59}}, {"geometry": {"type": "Point", "coordinates": [-79.3713561, 43.696096]}, "type": "Feature", "id": 754219023106277376, "properties": {"loc": [-79.3713561, 43.696096], "centroid": [-79.42634064659919, 43.83829891629555], "screen_name": "tpscalls", "time": 1468672802.0, "tid": 754219023106277376, "text": "Noisy Party | Bayview Ave &amp; Bayview Ave [53 Div.] 07/16 03:34 #Midtown_Toronto", "created_at": "Sat Jul 16 07:40:02 +0000 2016", "klabel": 59}}, {"geometry": {"type": "Point", "coordinates": [-79.3462536, 43.7034345]}, "type": "Feature", "id": 754232611216777216, "properties": {"loc": [-79.3462536, 43.7034345], "centroid": [-79.42634064659919, 43.83829891629555], "screen_name": "tpscalls", "time": 1468676042.0, "tid": 754232611216777216, "text": "Unknown Trouble | Overlea Blvd &amp; Grandstand Pl [53 Div.] 07/16 04:29 #Thorncliffe_Park #Toronto", "created_at": "Sat Jul 16 08:34:02 +0000 2016", "klabel": 59}}, {"geometry": {"type": "Point", "coordinates": [-79.3650212, 43.7137569]}, "type": "Feature", "id": 754292762325811201, "properties": {"loc": [-79.3650212, 43.7137569], "centroid": [-79.42634064659919, 43.83829891629555], "screen_name": "tmj_gta_hrta", "time": 1468690383.0, "tid": 754292762325811201, "text": "We're #hiring! Read about our latest #job opening here: Shift Supervisor (CA) - https://t.co/rbN6hZG2Q3 #Hospitality #Veterans #CareerArc", "created_at": "Sat Jul 16 12:33:03 +0000 2016", "klabel": 59}}, {"geometry": {"type": "Point", "coordinates": [-79.3616426, 43.7057894]}, "type": "Feature", "id": 754304686782427137, "properties": {"loc": [-79.3616426, 43.7057894], "centroid": [-79.42634064659919, 43.83829891629555], "screen_name": "tmj_gta_retail", "time": 1468693226.0, "tid": 754304686782427137, "text": "We're #hiring! Click to apply: Assistant Store Manager - https://t.co/qtP8ioknJV #Job #Retail #Toronto, ON #Jobs #CareerArc", "created_at": "Sat Jul 16 13:20:26 +0000 2016", "klabel": 59}}, {"geometry": {"type": "Point", "coordinates": [-79.3616426, 43.7057894]}, "type": "Feature", "id": 754308280793522177, "properties": {"loc": [-79.3616426, 43.7057894], "centroid": [-79.42634064659919, 43.83829891629555], "screen_name": "tmj_gta_retail", "time": 1468694083.0, "tid": 754308280793522177, "text": "Want to work at Vitapath? We're #hiring in #Toronto, ON! Click for details: https://t.co/7jKmfjJ529 #Job #Retail #Jobs #CareerArc", "created_at": "Sat Jul 16 13:34:43 +0000 2016", "klabel": 59}}, {"geometry": {"type": "Point", "coordinates": [-79.3569022, 43.7069098]}, "type": "Feature", "id": 754331554483146752, "properties": {"loc": [-79.3569022, 43.7069098], "centroid": [-79.42634064659919, 43.83829891629555], "screen_name": "amsterdambeer", "time": 1468699632.0, "tid": 754331554483146752, "text": "Amsterdam El Dorado now available in bottles. https://t.co/IUyom3EnEI #BeerMenus", "created_at": "Sat Jul 16 15:07:12 +0000 2016", "klabel": 59}}, {"geometry": {"type": "Point", "coordinates": [-79.3569022, 43.7069098]}, "type": "Feature", "id": 754331626109296640, "properties": {"loc": [-79.3569022, 43.7069098], "centroid": [-79.42634064659919, 43.83829891629555], "screen_name": "amsterdambeer", "time": 1468699649.0, "tid": 754331626109296640, "text": "Amsterdam Mrs Robinson now available in bottles. https://t.co/IUyom3EnEI @amsterdambeer #BeerMenus", "created_at": "Sat Jul 16 15:07:29 +0000 2016", "klabel": 59}}, {"geometry": {"type": "Point", "coordinates": [-79.360501, 43.7032145]}, "type": "Feature", "id": 754392673902092288, "properties": {"loc": [-79.360501, 43.7032145], "centroid": [-79.42634064659919, 43.83829891629555], "screen_name": "tofireS", "time": 1468714204.0, "tid": 754392673902092288, "text": "Vehicle (Personal Injury) - Laird Dr @ Millwood Road, East York (2 Trucks)", "created_at": "Sat Jul 16 19:10:04 +0000 2016", "klabel": 59}}, {"geometry": {"type": "Point", "coordinates": [-79.3573872, 43.7018149]}, "type": "Feature", "id": 754393930263822336, "properties": {"loc": [-79.3573872, 43.7018149], "centroid": [-79.42634064659919, 43.83829891629555], "screen_name": "tofire", "time": 1468714503.0, "tid": 754393930263822336, "text": "UD: Vehicle (Personal Injury) - Village Station Road @ Millwood Road, East York (2 Trucks)", "created_at": "Sat Jul 16 19:15:03 +0000 2016", "klabel": 59}}, {"geometry": {"type": "Point", "coordinates": [-79.34703706, 43.70347807]}, "type": "Feature", "id": 754433122637344768, "properties": {"loc": [-79.34703706, 43.70347807], "centroid": [-79.42634064659919, 43.83829891629555], "screen_name": "kilaWENG", "time": 1468723847.0, "tid": 754433122637344768, "text": "Boodle boodle gang \ud83c\udf57\ud83c\udf56\ud83c\udf64\ud83c\udf46\ud83c\udf5a @ 22 Thorncliffe Park https://t.co/BxKSbm8Z7m", "created_at": "Sat Jul 16 21:50:47 +0000 2016", "klabel": 59}}, {"geometry": {"type": "Point", "coordinates": [-79.3614881, 43.7052813]}, "type": "Feature", "id": 754447038755012608, "properties": {"loc": [-79.3614881, 43.7052813], "centroid": [-79.42634064659919, 43.83829891629555], "screen_name": "tofireS", "time": 1468727165.0, "tid": 754447038755012608, "text": "Vehicle (Personal Injury) - Laird Dr b/w Esandar Dr / Lea Avenue, East York (2 Trucks)", "created_at": "Sat Jul 16 22:46:05 +0000 2016", "klabel": 59}}, {"geometry": {"type": "Point", "coordinates": [-79.3615796, 43.7024642]}, "type": "Feature", "id": 754448042573586432, "properties": {"loc": [-79.3615796, 43.7024642], "centroid": [-79.42634064659919, 43.83829891629555], "screen_name": "tofire", "time": 1468727404.0, "tid": 754448042573586432, "text": "Fire (Grass/rubbish) - Millwood Road @ Southvale Dr, East York (3 Trucks)", "created_at": "Sat Jul 16 22:50:04 +0000 2016", "klabel": 59}}, {"geometry": {"type": "Point", "coordinates": [-79.3615796, 43.7024642]}, "type": "Feature", "id": 754448043450171394, "properties": {"loc": [-79.3615796, 43.7024642], "centroid": [-79.42634064659919, 43.83829891629555], "screen_name": "tofireS", "time": 1468727405.0, "tid": 754448043450171394, "text": "Fire (Grass/rubbish) - Millwood Road @ Southvale Dr, East York (3 Trucks)", "created_at": "Sat Jul 16 22:50:05 +0000 2016", "klabel": 59}}, {"geometry": {"type": "Point", "coordinates": [-79.3466113, 43.703229]}, "type": "Feature", "id": 754455590093615104, "properties": {"loc": [-79.3466113, 43.703229], "centroid": [-79.42634064659919, 43.83829891629555], "screen_name": "tofire", "time": 1468729204.0, "tid": 754455590093615104, "text": "Medical (Unconscious) - Thorncliffe Park Dr b/w Milepost Pl / West Don River Trail, East York (2 Trucks)", "created_at": "Sat Jul 16 23:20:04 +0000 2016", "klabel": 59}}, {"geometry": {"type": "Point", "coordinates": [-79.3466113, 43.703229]}, "type": "Feature", "id": 754456854743449600, "properties": {"loc": [-79.3466113, 43.703229], "centroid": [-79.42634064659919, 43.83829891629555], "screen_name": "tofire", "time": 1468729505.0, "tid": 754456854743449600, "text": "UD: Tems Transferred (Read Remarks) - Thorncliffe Park Dr b/w Milepost Pl / West Don River Trail, East York (2 Trucks)", "created_at": "Sat Jul 16 23:25:05 +0000 2016", "klabel": 59}}, {"geometry": {"type": "Point", "coordinates": [-79.3466113, 43.703229]}, "type": "Feature", "id": 754456855552856065, "properties": {"loc": [-79.3466113, 43.703229], "centroid": [-79.42634064659919, 43.83829891629555], "screen_name": "tofireS", "time": 1468729506.0, "tid": 754456855552856065, "text": "UD: Tems Transferred (Read Remarks) - Thorncliffe Park Dr b/w Milepost Pl / West Don River Trail, East York (2 Trucks)", "created_at": "Sat Jul 16 23:25:06 +0000 2016", "klabel": 59}}, {"geometry": {"type": "Point", "coordinates": [-79.3636557, 43.7057243]}, "type": "Feature", "id": 754458862997110785, "properties": {"loc": [-79.3636557, 43.7057243], "centroid": [-79.42634064659919, 43.83829891629555], "screen_name": "tpscalls", "time": 1468729984.0, "tid": 754458862997110785, "text": "Personal Injury Collision | Esandar Dr &amp; Lea Ave [HP] 07/16 19:27 #Leaside #Toronto", "created_at": "Sat Jul 16 23:33:04 +0000 2016", "klabel": 59}}, {"geometry": {"type": "Point", "coordinates": [-79.3616426, 43.7057894]}, "type": "Feature", "id": 754681324590407681, "properties": {"loc": [-79.3616426, 43.7057894], "centroid": [-79.42634064659919, 43.83829891629555], "screen_name": "tmj_gta_retail", "time": 1468783023.0, "tid": 754681324590407681, "text": "We're #hiring! Read about our latest #job opening here: Store Manager - https://t.co/3By6gUaXQH #Retail #Toronto, ON #CareerArc", "created_at": "Sun Jul 17 14:17:03 +0000 2016", "klabel": 59}}, {"geometry": {"type": "Point", "coordinates": [-79.3616426, 43.7057894]}, "type": "Feature", "id": 754713561683726337, "properties": {"loc": [-79.3616426, 43.7057894], "centroid": [-79.42634064659919, 43.83829891629555], "screen_name": "tmj_gta_retail", "time": 1468790709.0, "tid": 754713561683726337, "text": "Want to work in #Toronto, ON? View our latest opening: https://t.co/8gQAlnJ6ur #Job #Retail #Jobs #Hiring #CareerArc", "created_at": "Sun Jul 17 16:25:09 +0000 2016", "klabel": 59}}, {"geometry": {"type": "Point", "coordinates": [-79.3616426, 43.7057894]}, "type": "Feature", "id": 754752591578275840, "properties": {"loc": [-79.3616426, 43.7057894], "centroid": [-79.42634064659919, 43.83829891629555], "screen_name": "VitapathCareers", "time": 1468800015.0, "tid": 754752591578275840, "text": "Can you recommend anyone for this #job? Key Holder - https://t.co/rRnJDWex46 #Retail #Toronto, ON #Hiring", "created_at": "Sun Jul 17 19:00:15 +0000 2016", "klabel": 59}}, {"geometry": {"type": "Point", "coordinates": [-79.3578332, 43.7141732]}, "type": "Feature", "id": 754770960201285632, "properties": {"loc": [-79.3578332, 43.7141732], "centroid": [-79.42634064659919, 43.83829891629555], "screen_name": "tmj_gta_retail", "time": 1468804394.0, "tid": 754770960201285632, "text": "Want to work at TJX Canada? We're #hiring in #EastYork, ON! Click for details: https://t.co/Y9BCcNTegC #Job #Retail #Jobs #CareerArc", "created_at": "Sun Jul 17 20:13:14 +0000 2016", "klabel": 59}}, {"geometry": {"type": "Point", "coordinates": [-79.3616426, 43.7057894]}, "type": "Feature", "id": 754812998573711361, "properties": {"loc": [-79.3616426, 43.7057894], "centroid": [-79.42634064659919, 43.83829891629555], "screen_name": "VitapathCareers", "time": 1468814417.0, "tid": 754812998573711361, "text": "If you're looking for work in #Toronto, ON, check out this #job: https://t.co/a5u7BDSGeG #Retail #Hiring", "created_at": "Sun Jul 17 23:00:17 +0000 2016", "klabel": 59}}, {"geometry": {"type": "Point", "coordinates": [-79.36096867, 43.70517618]}, "type": "Feature", "id": 755015410995593217, "properties": {"loc": [-79.36096867, 43.70517618], "centroid": [-79.42634064659919, 43.83829891629555], "screen_name": "BarryTheBazman", "time": 1468862676.0, "tid": 755015410995593217, "text": "I'm at TELUS in Toronto, ON https://t.co/WxWyDYcACg", "created_at": "Mon Jul 18 12:24:36 +0000 2016", "klabel": 59}}, {"geometry": {"type": "Point", "coordinates": [-79.36122166, 43.70561807]}, "type": "Feature", "id": 755069563323244544, "properties": {"loc": [-79.36122166, 43.70561807], "centroid": [-79.42634064659919, 43.83829891629555], "screen_name": "BarryTheBazman", "time": 1468875587.0, "tid": 755069563323244544, "text": "I'm at @Five_Guys in Toronto, ON https://t.co/hD9YiwFX10", "created_at": "Mon Jul 18 15:59:47 +0000 2016", "klabel": 59}}, {"geometry": {"type": "Point", "coordinates": [-79.3609595, 43.7094195]}, "type": "Feature", "id": 755086925489328128, "properties": {"loc": [-79.3609595, 43.7094195], "centroid": [-79.42634064659919, 43.83829891629555], "screen_name": "tmj_gta_retail", "time": 1468879726.0, "tid": 755086925489328128, "text": "Interested in a #job near #Toronto, ON? This could be a great fit: https://t.co/Oxs3lJj6ku #Retail #Hiring #CareerArc", "created_at": "Mon Jul 18 17:08:46 +0000 2016", "klabel": 59}}, {"geometry": {"type": "Point", "coordinates": [-79.3609595, 43.7094195]}, "type": "Feature", "id": 755140695522803714, "properties": {"loc": [-79.3609595, 43.7094195], "centroid": [-79.42634064659919, 43.83829891629555], "screen_name": "tmj_gta_retail", "time": 1468892546.0, "tid": 755140695522803714, "text": "Join the TJX Canada team! See our latest #job opening here: https://t.co/g19pYI7Chq #Retail #Toronto, ON #Hiring #CareerArc", "created_at": "Mon Jul 18 20:42:26 +0000 2016", "klabel": 59}}, {"geometry": {"type": "Point", "coordinates": [-79.35850302, 43.69688942]}, "type": "Feature", "id": 755225829899177988, "properties": {"loc": [-79.35850302, 43.69688942], "centroid": [-79.42634064659919, 43.83829891629555], "screen_name": "Nyw", "time": 1468912843.0, "tid": 755225829899177988, "text": "Father and son in more ways than one #86vsCamry #frs #mtb #donvalley #fs #hardtail #cannondale\u2026 https://t.co/mRVdhxYjan", "created_at": "Tue Jul 19 02:20:43 +0000 2016", "klabel": 59}}, {"geometry": {"type": "Point", "coordinates": [-79.3605727, 43.70559072]}, "type": "Feature", "id": 755398202371833856, "properties": {"loc": [-79.3605727, 43.70559072], "centroid": [-79.42634064659919, 43.83829891629555], "screen_name": "BarryTheBazman", "time": 1468953940.0, "tid": 755398202371833856, "text": "I'm at Aroma Espresso Bar in Toronto, Ontario https://t.co/5iFQLHG4O0", "created_at": "Tue Jul 19 13:45:40 +0000 2016", "klabel": 59}}, {"geometry": {"type": "Point", "coordinates": [-79.3578332, 43.7141732]}, "type": "Feature", "id": 755402276970168320, "properties": {"loc": [-79.3578332, 43.7141732], "centroid": [-79.42634064659919, 43.83829891629555], "screen_name": "tmj_gta_retail", "time": 1468954912.0, "tid": 755402276970168320, "text": "This #job might be a great fit for you: Coordonnateur au traitement des marchandises - https://t.co/A9OPTBU0ni #Retail #EastYork, ON #Hiring", "created_at": "Tue Jul 19 14:01:52 +0000 2016", "klabel": 59}}, {"geometry": {"type": "Point", "coordinates": [-79.36070804, 43.70577011]}, "type": "Feature", "id": 755404312554143744, "properties": {"loc": [-79.36070804, 43.70577011], "centroid": [-79.42634064659919, 43.83829891629555], "screen_name": "BarryTheBazman", "time": 1468955397.0, "tid": 755404312554143744, "text": "Hi there. Thanks for the tweets. Talk to me :) @AntleCharlene @LeonasSister", "created_at": "Tue Jul 19 14:09:57 +0000 2016", "klabel": 59}}, {"geometry": {"type": "Point", "coordinates": [-79.36066148, 43.70572316]}, "type": "Feature", "id": 755404454271262721, "properties": {"loc": [-79.36066148, 43.70572316], "centroid": [-79.42634064659919, 43.83829891629555], "screen_name": "BarryTheBazman", "time": 1468955431.0, "tid": 755404454271262721, "text": "Hi there. Hope all is great. @swampmusicinfo @cnhuddleston @BluesFoundation", "created_at": "Tue Jul 19 14:10:31 +0000 2016", "klabel": 59}}, {"geometry": {"type": "Point", "coordinates": [-79.36149032, 43.70601218]}, "type": "Feature", "id": 755419399486570496, "properties": {"loc": [-79.36149032, 43.70601218], "centroid": [-79.42634064659919, 43.83829891629555], "screen_name": "stenoodie", "time": 1468958994.0, "tid": 755419399486570496, "text": "[New post] #ontheblog: Wild Mushroom Pizza! \ud83d\ude0d\ud83c\udf55 @ATGLeaside @LiciousTO #stenoodie.com @ Against\u2026 https://t.co/iobLqrypbY", "created_at": "Tue Jul 19 15:09:54 +0000 2016", "klabel": 59}}, {"geometry": {"type": "Point", "coordinates": [-79.364757, 43.7135712]}, "type": "Feature", "id": 755462981777920000, "properties": {"loc": [-79.364757, 43.7135712], "centroid": [-79.42634064659919, 43.83829891629555], "screen_name": "tpscalls", "time": 1468969385.0, "tid": 755462981777920000, "text": "Dispute | Eglinton Ave E &amp; Laird Dr [53 Div.] 07/19 13:59 #Leaside #Toronto", "created_at": "Tue Jul 19 18:03:05 +0000 2016", "klabel": 59}}, {"geometry": {"type": "Point", "coordinates": [-79.3583246, 43.7094815]}, "type": "Feature", "id": 755464488653099008, "properties": {"loc": [-79.3583246, 43.7094815], "centroid": [-79.42634064659919, 43.83829891629555], "screen_name": "tpscalls", "time": 1468969744.0, "tid": 755464488653099008, "text": "Theft Just Occurred | Esandar Dr &amp; Commercial Rd [53 Div.] 07/19 14:04 #Leaside #Toronto", "created_at": "Tue Jul 19 18:09:04 +0000 2016", "klabel": 59}}, {"geometry": {"type": "Point", "coordinates": [-79.3616426, 43.7057894]}, "type": "Feature", "id": 755477373965873152, "properties": {"loc": [-79.3616426, 43.7057894], "centroid": [-79.42634064659919, 43.83829891629555], "screen_name": "VitapathCareers", "time": 1468972816.0, "tid": 755477373965873152, "text": "If you're looking for work in #Toronto, ON, check out this #job: https://t.co/X1SI1wuMY1 #Retail #Hiring", "created_at": "Tue Jul 19 19:00:16 +0000 2016", "klabel": 59}}, {"geometry": {"type": "Point", "coordinates": [-79.3609595, 43.7094195]}, "type": "Feature", "id": 755507242410004481, "properties": {"loc": [-79.3609595, 43.7094195], "centroid": [-79.42634064659919, 43.83829891629555], "screen_name": "tmj_gta_retail", "time": 1468979937.0, "tid": 755507242410004481, "text": "Join the TJX Canada team! See our latest #job opening here: https://t.co/aZ80qxf055 #Retail #Toronto, ON #Hiring #CareerArc", "created_at": "Tue Jul 19 20:58:57 +0000 2016", "klabel": 59}}, {"geometry": {"type": "Point", "coordinates": [-79.3614881, 43.7052813]}, "type": "Feature", "id": 755516333664632832, "properties": {"loc": [-79.3614881, 43.7052813], "centroid": [-79.42634064659919, 43.83829891629555], "screen_name": "tofireS", "time": 1468982105.0, "tid": 755516333664632832, "text": "Vehicle (Personal Injury) - Laird Dr b/w Esandar Dr / Lea Avenue, East York (2 Trucks)", "created_at": "Tue Jul 19 21:35:05 +0000 2016", "klabel": 59}}, {"geometry": {"type": "Point", "coordinates": [-79.3614881, 43.7052813]}, "type": "Feature", "id": 755516332830035972, "properties": {"loc": [-79.3614881, 43.7052813], "centroid": [-79.42634064659919, 43.83829891629555], "screen_name": "tofire", "time": 1468982105.0, "tid": 755516332830035972, "text": "Vehicle (Personal Injury) - Laird Dr b/w Esandar Dr / Lea Avenue, East York (2 Trucks)", "created_at": "Tue Jul 19 21:35:05 +0000 2016", "klabel": 59}}, {"geometry": {"type": "Point", "coordinates": [-79.3616426, 43.7057894]}, "type": "Feature", "id": 755537814528282625, "properties": {"loc": [-79.3616426, 43.7057894], "centroid": [-79.42634064659919, 43.83829891629555], "screen_name": "VitapathCareers", "time": 1468987226.0, "tid": 755537814528282625, "text": "We're #hiring! Read about our latest #job opening here: Nutritionist - https://t.co/1OJ2A737KF #Retail #Toronto, ON", "created_at": "Tue Jul 19 23:00:26 +0000 2016", "klabel": 59}}, {"geometry": {"type": "Point", "coordinates": [-79.3474863, 43.6984421]}, "type": "Feature", "id": 755597612561141760, "properties": {"loc": [-79.3474863, 43.6984421], "centroid": [-79.42634064659919, 43.83829891629555], "screen_name": "tpscalls", "time": 1469001483.0, "tid": 755597612561141760, "text": "Fire | Wynford Dr &amp; East Don River Trl [33 Div.] 07/19 22:53 #Toronto", "created_at": "Wed Jul 20 02:58:03 +0000 2016", "klabel": 59}}, {"geometry": {"type": "Point", "coordinates": [-79.3578332, 43.7141732]}, "type": "Feature", "id": 755772263077523456, "properties": {"loc": [-79.3578332, 43.7141732], "centroid": [-79.42634064659919, 43.83829891629555], "screen_name": "tmj_gta_retail", "time": 1469043123.0, "tid": 755772263077523456, "text": "Want to work in #EastYork, ON? View our latest opening: https://t.co/DNcnjymPRZ #Job #Retail #Jobs #Hiring #CareerArc", "created_at": "Wed Jul 20 14:32:03 +0000 2016", "klabel": 59}}, {"geometry": {"type": "Point", "coordinates": [-79.3578332, 43.7141732]}, "type": "Feature", "id": 755831009627648000, "properties": {"loc": [-79.3578332, 43.7141732], "centroid": [-79.42634064659919, 43.83829891629555], "screen_name": "tmj_gta_retail", "time": 1469057130.0, "tid": 755831009627648000, "text": "We're #hiring! Click to apply: Merchandise Processing Coordinator - https://t.co/OGpmejQQPk #Job #Retail #EastYork, ON #Jobs #CareerArc", "created_at": "Wed Jul 20 18:25:30 +0000 2016", "klabel": 59}}, {"geometry": {"type": "Point", "coordinates": [-79.3597734, 43.7145641]}, "type": "Feature", "id": 755897333888540672, "properties": {"loc": [-79.3597734, 43.7145641], "centroid": [-79.42634064659919, 43.83829891629555], "screen_name": "tpscalls", "time": 1469072942.0, "tid": 755897333888540672, "text": "Hazard | Eglinton Ave E &amp; Brentcliffe Rd [53 Div.] 07/20 18:43 #Leaside #Toronto", "created_at": "Wed Jul 20 22:49:02 +0000 2016", "klabel": 59}}, {"geometry": {"type": "Point", "coordinates": [-79.3607214, 43.710748]}, "type": "Feature", "id": 756098505236549632, "properties": {"loc": [-79.3607214, 43.710748], "centroid": [-79.42634064659919, 43.83829891629555], "screen_name": "tmj_gta_hrta", "time": 1469120905.0, "tid": 756098505236549632, "text": "If you're looking for work in , check out this #job: https://t.co/fSaJTV1p5o #Hospitality #Veterans #Hiring #CareerArc", "created_at": "Thu Jul 21 12:08:25 +0000 2016", "klabel": 59}}, {"geometry": {"type": "Point", "coordinates": [-79.3650212, 43.7137569]}, "type": "Feature", "id": 756104643592069120, "properties": {"loc": [-79.3650212, 43.7137569], "centroid": [-79.42634064659919, 43.83829891629555], "screen_name": "tmj_gta_hrta", "time": 1469122369.0, "tid": 756104643592069120, "text": "See our latest #job and click to apply: Barista (CA) - https://t.co/8lm3Nk3H2J #Hospitality #Veterans #Hiring #CareerArc", "created_at": "Thu Jul 21 12:32:49 +0000 2016", "klabel": 59}}, {"geometry": {"type": "Point", "coordinates": [-79.3615454, 43.7047045]}, "type": "Feature", "id": 756110790151712768, "properties": {"loc": [-79.3615454, 43.7047045], "centroid": [-79.42634064659919, 43.83829891629555], "screen_name": "tmj_gta_hrta", "time": 1469123834.0, "tid": 756110790151712768, "text": "We're #hiring! Click to apply: Shift Supervisor (CA) - https://t.co/XnukeX6yzs #Job #Hospitality 62 LAIRD DRIVE, #TORONTO, ON #Veterans", "created_at": "Thu Jul 21 12:57:14 +0000 2016", "klabel": 59}}, {"geometry": {"type": "Point", "coordinates": [-79.36901093, 43.70611992]}, "type": "Feature", "id": 756125215306940417, "properties": {"loc": [-79.36901093, 43.70611992], "centroid": [-79.42634064659919, 43.83829891629555], "screen_name": "BarryTheBazman", "time": 1469127274.0, "tid": 756125215306940417, "text": "I'm at Leaside in Toronto, ON https://t.co/L4BmUg6uky", "created_at": "Thu Jul 21 13:54:34 +0000 2016", "klabel": 59}}, {"geometry": {"type": "Point", "coordinates": [-79.3605727, 43.70559072]}, "type": "Feature", "id": 756125331359014912, "properties": {"loc": [-79.3605727, 43.70559072], "centroid": [-79.42634064659919, 43.83829891629555], "screen_name": "BarryTheBazman", "time": 1469127301.0, "tid": 756125331359014912, "text": "I'm at Aroma Espresso Bar in Toronto, Ontario https://t.co/U3i5m49zHf", "created_at": "Thu Jul 21 13:55:01 +0000 2016", "klabel": 59}}, {"geometry": {"type": "Point", "coordinates": [-79.36949909, 43.69693634]}, "type": "Feature", "id": 756125720431226884, "properties": {"loc": [-79.36949909, 43.69693634], "centroid": [-79.42634064659919, 43.83829891629555], "screen_name": "BarryTheBazman", "time": 1469127394.0, "tid": 756125720431226884, "text": "I'm at TD Canada Trust in Toronto, ON https://t.co/Rkdqf76OyU", "created_at": "Thu Jul 21 13:56:34 +0000 2016", "klabel": 59}}, {"geometry": {"type": "Point", "coordinates": [-79.35215, 43.70347]}, "type": "Feature", "id": 756140035985010688, "properties": {"loc": [-79.35215, 43.70347], "centroid": [-79.42634064659919, 43.83829891629555], "screen_name": "Gery_C", "time": 1469130807.0, "tid": 756140035985010688, "text": "Sugar rush! #tiramisu #consentimiento \u2764\ufe0f @ March Of Dimes Canada https://t.co/29TF5C1kgV", "created_at": "Thu Jul 21 14:53:27 +0000 2016", "klabel": 59}}, {"geometry": {"type": "Point", "coordinates": [-79.363525, 43.717044]}, "type": "Feature", "id": 756203855365435397, "properties": {"loc": [-79.363525, 43.717044], "centroid": [-79.42634064659919, 43.83829891629555], "screen_name": "tpscalls", "time": 1469146023.0, "tid": 756203855365435397, "text": "Dispute | Don Avon Dr &amp; Brentcliffe Rd [53 Div.] 07/21 15:02 #Leaside #Toronto", "created_at": "Thu Jul 21 19:07:03 +0000 2016", "klabel": 59}}, {"geometry": {"type": "Point", "coordinates": [-79.3608456, 43.7037768]}, "type": "Feature", "id": 756227520308080640, "properties": {"loc": [-79.3608456, 43.7037768], "centroid": [-79.42634064659919, 43.83829891629555], "screen_name": "tofireS", "time": 1469151665.0, "tid": 756227520308080640, "text": "Vehicle (Spill Clean Up) - Laird Dr @ Canvarco Road, East York (2 Trucks)", "created_at": "Thu Jul 21 20:41:05 +0000 2016", "klabel": 59}}, {"geometry": {"type": "Point", "coordinates": [-79.3498863, 43.7050507]}, "type": "Feature", "id": 756237332362190849, "properties": {"loc": [-79.3498863, 43.7050507], "centroid": [-79.42634064659919, 43.83829891629555], "screen_name": "tofireS", "time": 1469154004.0, "tid": 756237332362190849, "text": "Rescue (Elevator) - Thorncliffe Park Dr b/w Overlea Boulevard / Milepost Pl, East York (3 Trucks)", "created_at": "Thu Jul 21 21:20:04 +0000 2016", "klabel": 59}}, {"geometry": {"type": "Point", "coordinates": [-79.3466113, 43.703229]}, "type": "Feature", "id": 756241105197424640, "properties": {"loc": [-79.3466113, 43.703229], "centroid": [-79.42634064659919, 43.83829891629555], "screen_name": "tofireS", "time": 1469154904.0, "tid": 756241105197424640, "text": "Medical (Other) - Thorncliffe Park Dr b/w Milepost Pl / West Don River Trail, East York (2 Trucks)", "created_at": "Thu Jul 21 21:35:04 +0000 2016", "klabel": 59}}, {"geometry": {"type": "Point", "coordinates": [-79.3466113, 43.703229]}, "type": "Feature", "id": 756241104299753472, "properties": {"loc": [-79.3466113, 43.703229], "centroid": [-79.42634064659919, 43.83829891629555], "screen_name": "tofire", "time": 1469154904.0, "tid": 756241104299753472, "text": "Medical (Other) - Thorncliffe Park Dr b/w Milepost Pl / West Don River Trail, East York (2 Trucks)", "created_at": "Thu Jul 21 21:35:04 +0000 2016", "klabel": 59}}, {"geometry": {"type": "Point", "coordinates": [-79.355352, 43.713639]}, "type": "Feature", "id": 756335222237630464, "properties": {"loc": [-79.355352, 43.713639], "centroid": [-79.42634064659919, 43.83829891629555], "screen_name": "tpscalls", "time": 1469177343.0, "tid": 756335222237630464, "text": "Unknown Trouble | Vanderhoof Ave &amp; Aerodrome Cres [53 Div.] 07/21 23:43 #Leaside #Toronto", "created_at": "Fri Jul 22 03:49:03 +0000 2016", "klabel": 59}}, {"geometry": {"type": "Point", "coordinates": [-79.3578332, 43.7141732]}, "type": "Feature", "id": 756474045130874885, "properties": {"loc": [-79.3578332, 43.7141732], "centroid": [-79.42634064659919, 43.83829891629555], "screen_name": "tmj_gta_retail", "time": 1469210441.0, "tid": 756474045130874885, "text": "Can you recommend anyone for this #job? https://t.co/AI8OqTnHjV #Retail #EastYork, ON #Hiring #CareerArc", "created_at": "Fri Jul 22 13:00:41 +0000 2016", "klabel": 59}}, {"geometry": {"type": "Point", "coordinates": [-79.36901093, 43.70611992]}, "type": "Feature", "id": 756477627926515712, "properties": {"loc": [-79.36901093, 43.70611992], "centroid": [-79.42634064659919, 43.83829891629555], "screen_name": "BarryTheBazman", "time": 1469211295.0, "tid": 756477627926515712, "text": "I'm at Leaside in Toronto, ON https://t.co/sMSESsxHKK", "created_at": "Fri Jul 22 13:14:55 +0000 2016", "klabel": 59}}, {"geometry": {"type": "Point", "coordinates": [-79.36096867, 43.70517618]}, "type": "Feature", "id": 756477679512252416, "properties": {"loc": [-79.36096867, 43.70517618], "centroid": [-79.42634064659919, 43.83829891629555], "screen_name": "BarryTheBazman", "time": 1469211308.0, "tid": 756477679512252416, "text": "I'm at TELUS in Toronto, ON https://t.co/6qelpK0VqN", "created_at": "Fri Jul 22 13:15:08 +0000 2016", "klabel": 59}}, {"geometry": {"type": "Point", "coordinates": [-79.3605727, 43.70559072]}, "type": "Feature", "id": 756492352865210371, "properties": {"loc": [-79.3605727, 43.70559072], "centroid": [-79.42634064659919, 43.83829891629555], "screen_name": "BarryTheBazman", "time": 1469214806.0, "tid": 756492352865210371, "text": "I'm at Aroma Espresso Bar in Toronto, Ontario https://t.co/NATfuEvyTi", "created_at": "Fri Jul 22 14:13:26 +0000 2016", "klabel": 59}}, {"geometry": {"type": "Point", "coordinates": [-79.3609595, 43.7094195]}, "type": "Feature", "id": 756499906970345472, "properties": {"loc": [-79.3609595, 43.7094195], "centroid": [-79.42634064659919, 43.83829891629555], "screen_name": "tmj_gta_retail", "time": 1469216607.0, "tid": 756499906970345472, "text": "Join the TJX Canada team! See our latest #job opening here: https://t.co/WgL15LsPOv #Retail #Toronto, ON #Hiring #CareerArc", "created_at": "Fri Jul 22 14:43:27 +0000 2016", "klabel": 59}}, {"geometry": {"type": "Point", "coordinates": [-79.3609595, 43.7094195]}, "type": "Feature", "id": 756509621443923968, "properties": {"loc": [-79.3609595, 43.7094195], "centroid": [-79.42634064659919, 43.83829891629555], "screen_name": "tmj_gta_retail", "time": 1469218923.0, "tid": 756509621443923968, "text": "Join the TJX Canada team! See our latest #job opening here: https://t.co/TLeXWgP4GA #Retail #Toronto, ON #Hiring #CareerArc", "created_at": "Fri Jul 22 15:22:03 +0000 2016", "klabel": 59}}, {"geometry": {"type": "Point", "coordinates": [-79.3589588, 43.7140116]}, "type": "Feature", "id": 756512846096240640, "properties": {"loc": [-79.3589588, 43.7140116], "centroid": [-79.42634064659919, 43.83829891629555], "screen_name": "tmj_gta_retail", "time": 1469219692.0, "tid": 756512846096240640, "text": "Join the TJX Canada team! See our latest #job opening here: https://t.co/qrCegSqzGE #Retail #Toronto, ON #Hiring #CareerArc", "created_at": "Fri Jul 22 15:34:52 +0000 2016", "klabel": 59}}, {"geometry": {"type": "Point", "coordinates": [-79.3589588, 43.7140116]}, "type": "Feature", "id": 756519337716961280, "properties": {"loc": [-79.3589588, 43.7140116], "centroid": [-79.42634064659919, 43.83829891629555], "screen_name": "tmj_gta_retail", "time": 1469221240.0, "tid": 756519337716961280, "text": "Can you recommend anyone for this #job? Merchandise Processing Coordinator - https://t.co/NzESfeKsAS #Retail #Toronto, ON #Hiring", "created_at": "Fri Jul 22 16:00:40 +0000 2016", "klabel": 59}}, {"geometry": {"type": "Point", "coordinates": [-79.35850302, 43.69688942]}, "type": "Feature", "id": 756566502967484416, "properties": {"loc": [-79.35850302, 43.69688942], "centroid": [-79.42634064659919, 43.83829891629555], "screen_name": "JuanMadrigal", "time": 1469232485.0, "tid": 756566502967484416, "text": "Under-bridge art #blackandwhite #toronto #streetart #ride @ Don Valley Trails https://t.co/GlTwqZahiF", "created_at": "Fri Jul 22 19:08:05 +0000 2016", "klabel": 59}}, {"geometry": {"type": "Point", "coordinates": [-79.3514309, 43.7058954]}, "type": "Feature", "id": 756604754348892160, "properties": {"loc": [-79.3514309, 43.7058954], "centroid": [-79.42634064659919, 43.83829891629555], "screen_name": "tofire", "time": 1469241605.0, "tid": 756604754348892160, "text": "Alarm Commercial/industrial - (Banigan Dr @ Thorncliffe Park Dr), East York (6 Trucks)", "created_at": "Fri Jul 22 21:40:05 +0000 2016", "klabel": 59}}, {"geometry": {"type": "Point", "coordinates": [-79.3498863, 43.7050507]}, "type": "Feature", "id": 756847849057480704, "properties": {"loc": [-79.3498863, 43.7050507], "centroid": [-79.42634064659919, 43.83829891629555], "screen_name": "tpscalls", "time": 1469299563.0, "tid": 756847849057480704, "text": "Assault Just Occurred | Thorncliffe Park Dr &amp; Overlea Blvd [53 Div.] 07/23 09:41 #Thorncliffe_Park #Toronto", "created_at": "Sat Jul 23 13:46:03 +0000 2016", "klabel": 59}}, {"geometry": {"type": "Point", "coordinates": [-79.34737, 43.70406]}, "type": "Feature", "id": 756880764411707392, "properties": {"loc": [-79.34737, 43.70406], "centroid": [-79.42634064659919, 43.83829891629555], "screen_name": "paolocase", "time": 1469307411.0, "tid": 756880764411707392, "text": "What should I get? @ St. Edith Stein Church Thorncliffe Park Drive https://t.co/o2YKNJZy5g", "created_at": "Sat Jul 23 15:56:51 +0000 2016", "klabel": 59}}, {"geometry": {"type": "Point", "coordinates": [-79.353576, 43.713336]}, "type": "Feature", "id": 756913494927237120, "properties": {"loc": [-79.353576, 43.713336], "centroid": [-79.42634064659919, 43.83829891629555], "screen_name": "DevinJSize", "time": 1469315214.0, "tid": 756913494927237120, "text": "Was so awesome to #skateboard at a real park today! First time in like 5 years #Toronto\u2026 https://t.co/5x5Dx7tKTZ", "created_at": "Sat Jul 23 18:06:54 +0000 2016", "klabel": 59}}, {"geometry": {"type": "Point", "coordinates": [-79.3616426, 43.7057894]}, "type": "Feature", "id": 756926976267395072, "properties": {"loc": [-79.3616426, 43.7057894], "centroid": [-79.42634064659919, 43.83829891629555], "screen_name": "VitapathCareers", "time": 1469318428.0, "tid": 756926976267395072, "text": "Can you recommend anyone for this #job? Assistant Store Manager - https://t.co/FZMayKQVbn #Retail #Toronto, ON #Hiring", "created_at": "Sat Jul 23 19:00:28 +0000 2016", "klabel": 59}}, {"geometry": {"type": "Point", "coordinates": [-79.3616426, 43.7057894]}, "type": "Feature", "id": 756941047788281856, "properties": {"loc": [-79.3616426, 43.7057894], "centroid": [-79.42634064659919, 43.83829891629555], "screen_name": "tmj_gta_retail", "time": 1469321783.0, "tid": 756941047788281856, "text": "We're #hiring! Click to apply: Health Enthusiast Part-Time - https://t.co/7jKmfjJ529 #Job #Retail #Toronto, ON #Jobs #CareerArc", "created_at": "Sat Jul 23 19:56:23 +0000 2016", "klabel": 59}}, {"geometry": {"type": "Point", "coordinates": [-79.3495542, 43.6966726]}, "type": "Feature", "id": 757096232162557953, "properties": {"loc": [-79.3495542, 43.6966726], "centroid": [-79.42634064659919, 43.83829891629555], "screen_name": "tpscalls", "time": 1469358782.0, "tid": 757096232162557953, "text": "Disorderlies | Pape Ave &amp; Rivercourt Blvd [54 Div.] 07/24 02:08 #Old_East_York #Toronto", "created_at": "Sun Jul 24 06:13:02 +0000 2016", "klabel": 59}}, {"geometry": {"type": "Point", "coordinates": [-79.3598223, 43.7126792]}, "type": "Feature", "id": 757100007883411456, "properties": {"loc": [-79.3598223, 43.7126792], "centroid": [-79.42634064659919, 43.83829891629555], "screen_name": "tpscalls", "time": 1469359682.0, "tid": 757100007883411456, "text": "See Ambulance | Ln S Vanderhoof E Laird &amp; Vanderhoof Ave [53 Div.] 07/24 02:23 #Leaside #Toronto", "created_at": "Sun Jul 24 06:28:02 +0000 2016", "klabel": 59}}, {"geometry": {"type": "Point", "coordinates": [-79.3591, 43.7126499]}, "type": "Feature", "id": 757263085153509381, "properties": {"loc": [-79.3591, 43.7126499], "centroid": [-79.42634064659919, 43.83829891629555], "screen_name": "SandraEMartin", "time": 1469398563.0, "tid": 757263085153509381, "text": "It has my name on it! \ud83d\ude09 #guitar #love #guitagirl #ICanDreamCantI @ St. John's Music Toronto https://t.co/mRss8J1CLL", "created_at": "Sun Jul 24 17:16:03 +0000 2016", "klabel": 59}}, {"geometry": {"type": "Point", "coordinates": [-79.3633959, 43.7099875]}, "type": "Feature", "id": 757269126519947264, "properties": {"loc": [-79.3633959, 43.7099875], "centroid": [-79.42634064659919, 43.83829891629555], "screen_name": "tpscalls", "time": 1469400003.0, "tid": 757269126519947264, "text": "Impaired Driver | Mcrae Dr &amp; Laird Dr [53 Div.] 07/24 13:34 #Leaside #Toronto", "created_at": "Sun Jul 24 17:40:03 +0000 2016", "klabel": 59}}, {"geometry": {"type": "Point", "coordinates": [-79.3590562, 43.7128422]}, "type": "Feature", "id": 757287999034036226, "properties": {"loc": [-79.3590562, 43.7128422], "centroid": [-79.42634064659919, 43.83829891629555], "screen_name": "tofire", "time": 1469404503.0, "tid": 757287999034036226, "text": "Vehicle (Personal Injury) - Brentcliffe Road @ Vanderhoof Avenue, East York (2 Trucks)", "created_at": "Sun Jul 24 18:55:03 +0000 2016", "klabel": 59}}, {"geometry": {"type": "Point", "coordinates": [-79.3590562, 43.7128422]}, "type": "Feature", "id": 757287999889604608, "properties": {"loc": [-79.3590562, 43.7128422], "centroid": [-79.42634064659919, 43.83829891629555], "screen_name": "tofireS", "time": 1469404503.0, "tid": 757287999889604608, "text": "Vehicle (Personal Injury) - Brentcliffe Road @ Vanderhoof Avenue, East York (2 Trucks)", "created_at": "Sun Jul 24 18:55:03 +0000 2016", "klabel": 59}}, {"geometry": {"type": "Point", "coordinates": [-79.3616426, 43.7057894]}, "type": "Feature", "id": 757289319828553728, "properties": {"loc": [-79.3616426, 43.7057894], "centroid": [-79.42634064659919, 43.83829891629555], "screen_name": "VitapathCareers", "time": 1469404818.0, "tid": 757289319828553728, "text": "Interested in a #job near #Toronto, ON? This could be a great fit: https://t.co/X1SI1wuMY1 #Retail #Hiring", "created_at": "Sun Jul 24 19:00:18 +0000 2016", "klabel": 59}}, {"geometry": {"type": "Point", "coordinates": [-79.3616426, 43.7057894]}, "type": "Feature", "id": 757295348058468356, "properties": {"loc": [-79.3616426, 43.7057894], "centroid": [-79.42634064659919, 43.83829891629555], "screen_name": "tmj_gta_retail", "time": 1469406255.0, "tid": 757295348058468356, "text": "We're #hiring! Read about our latest #job opening here: Nutritionist - https://t.co/8gQAlnJ6ur #Retail #Toronto, ON #CareerArc", "created_at": "Sun Jul 24 19:24:15 +0000 2016", "klabel": 59}}, {"geometry": {"type": "Point", "coordinates": [-79.3590562, 43.7128422]}, "type": "Feature", "id": 757306872814825472, "properties": {"loc": [-79.3590562, 43.7128422], "centroid": [-79.42634064659919, 43.83829891629555], "screen_name": "tpscalls", "time": 1469409003.0, "tid": 757306872814825472, "text": "Personal Injury Collision | Brentcliffe Rd &amp; Vanderhoof Ave [HP] 07/24 16:05 #Leaside #Toronto", "created_at": "Sun Jul 24 20:10:03 +0000 2016", "klabel": 59}}, {"geometry": {"type": "Point", "coordinates": [-79.3616426, 43.7057894]}, "type": "Feature", "id": 757349769693978624, "properties": {"loc": [-79.3616426, 43.7057894], "centroid": [-79.42634064659919, 43.83829891629555], "screen_name": "VitapathCareers", "time": 1469419230.0, "tid": 757349769693978624, "text": "Interested in a #job near #Toronto, ON? This could be a great fit: https://t.co/1OJ2A737KF #Retail #Hiring", "created_at": "Sun Jul 24 23:00:30 +0000 2016", "klabel": 59}}, {"geometry": {"type": "Point", "coordinates": [-79.3597734, 43.7145641]}, "type": "Feature", "id": 757377089397981184, "properties": {"loc": [-79.3597734, 43.7145641], "centroid": [-79.42634064659919, 43.83829891629555], "screen_name": "tpscalls", "time": 1469425744.0, "tid": 757377089397981184, "text": "Hazard | Eglinton Ave E &amp; Brentcliffe Rd [53 Div.] 07/24 20:43 #Leaside #Toronto", "created_at": "Mon Jul 25 00:49:04 +0000 2016", "klabel": 59}}, {"geometry": {"type": "Point", "coordinates": [-79.3498863, 43.7050507]}, "type": "Feature", "id": 757467676373618689, "properties": {"loc": [-79.3498863, 43.7050507], "centroid": [-79.42634064659919, 43.83829891629555], "screen_name": "tpscalls", "time": 1469447341.0, "tid": 757467676373618689, "text": "Hazard | Thorncliffe Park Dr &amp; Overlea Blvd [53 Div.] 07/25 02:44 #Thorncliffe_Park #Toronto", "created_at": "Mon Jul 25 06:49:01 +0000 2016", "klabel": 59}}, {"geometry": {"type": "Point", "coordinates": [-79.36901093, 43.70611992]}, "type": "Feature", "id": 757571279763505152, "properties": {"loc": [-79.36901093, 43.70611992], "centroid": [-79.42634064659919, 43.83829891629555], "screen_name": "BarryTheBazman", "time": 1469472042.0, "tid": 757571279763505152, "text": "I'm at Leaside in Toronto, ON https://t.co/gp6N5ar5nP", "created_at": "Mon Jul 25 13:40:42 +0000 2016", "klabel": 59}}, {"geometry": {"type": "Point", "coordinates": [-79.3605727, 43.70559072]}, "type": "Feature", "id": 757571389608062976, "properties": {"loc": [-79.3605727, 43.70559072], "centroid": [-79.42634064659919, 43.83829891629555], "screen_name": "BarryTheBazman", "time": 1469472068.0, "tid": 757571389608062976, "text": "I'm at Aroma Espresso Bar in Toronto, Ontario https://t.co/F8H9yDrFWk", "created_at": "Mon Jul 25 13:41:08 +0000 2016", "klabel": 59}}, {"geometry": {"type": "Point", "coordinates": [-79.36096867, 43.70517618]}, "type": "Feature", "id": 757574016731377664, "properties": {"loc": [-79.36096867, 43.70517618], "centroid": [-79.42634064659919, 43.83829891629555], "screen_name": "BarryTheBazman", "time": 1469472695.0, "tid": 757574016731377664, "text": "I'm at TELUS in Toronto, ON https://t.co/Gi9XsMK1lM", "created_at": "Mon Jul 25 13:51:35 +0000 2016", "klabel": 59}}, {"geometry": {"type": "Point", "coordinates": [-79.3609595, 43.7094195]}, "type": "Feature", "id": 757622973947785216, "properties": {"loc": [-79.3609595, 43.7094195], "centroid": [-79.42634064659919, 43.83829891629555], "screen_name": "tmj_gta_retail", "time": 1469484367.0, "tid": 757622973947785216, "text": "Want to work in #Toronto, ON? View our latest opening: https://t.co/Oxs3lJj6ku #Job #Retail #Jobs #Hiring #CareerArc", "created_at": "Mon Jul 25 17:06:07 +0000 2016", "klabel": 59}}, {"geometry": {"type": "Point", "coordinates": [-79.3609595, 43.7094195]}, "type": "Feature", "id": 757681779889156096, "properties": {"loc": [-79.3609595, 43.7094195], "centroid": [-79.42634064659919, 43.83829891629555], "screen_name": "tmj_gta_retail", "time": 1469498388.0, "tid": 757681779889156096, "text": "We're #hiring! Read about our latest #job opening here: Coordonnateur, Marchandises - https://t.co/g19pYI7Chq #Retail #Toronto, ON", "created_at": "Mon Jul 25 20:59:48 +0000 2016", "klabel": 59}}, {"geometry": {"type": "Point", "coordinates": [-79.3480002, 43.70399]}, "type": "Feature", "id": 757767411806461953, "properties": {"loc": [-79.3480002, 43.70399], "centroid": [-79.42634064659919, 43.83829891629555], "screen_name": "tpscalls", "time": 1469518804.0, "tid": 757767411806461953, "text": "Damage Just Occurred | Leaside Park Dr &amp; Thorncliffe Park Dr [53 Div.] 07/25 22:35 #Thorncliffe_Park #Toronto", "created_at": "Tue Jul 26 02:40:04 +0000 2016", "klabel": 59}}, {"geometry": {"type": "Point", "coordinates": [-79.36901093, 43.70611992]}, "type": "Feature", "id": 757935354309730304, "properties": {"loc": [-79.36901093, 43.70611992], "centroid": [-79.42634064659919, 43.83829891629555], "screen_name": "BarryTheBazman", "time": 1469558844.0, "tid": 757935354309730304, "text": "I'm at Leaside in Toronto, ON https://t.co/wIQPBv7upw", "created_at": "Tue Jul 26 13:47:24 +0000 2016", "klabel": 59}}, {"geometry": {"type": "Point", "coordinates": [-79.36096867, 43.70517618]}, "type": "Feature", "id": 757935403747901441, "properties": {"loc": [-79.36096867, 43.70517618], "centroid": [-79.42634064659919, 43.83829891629555], "screen_name": "BarryTheBazman", "time": 1469558856.0, "tid": 757935403747901441, "text": "I'm at TELUS in Toronto, ON https://t.co/4aDB2qGied", "created_at": "Tue Jul 26 13:47:36 +0000 2016", "klabel": 59}}, {"geometry": {"type": "Point", "coordinates": [-79.3605727, 43.70559072]}, "type": "Feature", "id": 757936189202690048, "properties": {"loc": [-79.3605727, 43.70559072], "centroid": [-79.42634064659919, 43.83829891629555], "screen_name": "BarryTheBazman", "time": 1469559043.0, "tid": 757936189202690048, "text": "I'm at Aroma Espresso Bar in Toronto, Ontario https://t.co/HpzZdqh309", "created_at": "Tue Jul 26 13:50:43 +0000 2016", "klabel": 59}}, {"geometry": {"type": "Point", "coordinates": [-79.361065, 43.703733]}, "type": "Feature", "id": 758002242985291776, "properties": {"loc": [-79.361065, 43.703733], "centroid": [-79.42634064659919, 43.83829891629555], "screen_name": "BarryTheBazman", "time": 1469574792.0, "tid": 758002242985291776, "text": "I'm at San Francesco in Toronto https://t.co/g1iMg1AmWr", "created_at": "Tue Jul 26 18:13:12 +0000 2016", "klabel": 59}}, {"geometry": {"type": "Point", "coordinates": [-79.3622504, 43.7072982]}, "type": "Feature", "id": 758131055077490689, "properties": {"loc": [-79.3622504, 43.7072982], "centroid": [-79.42634064659919, 43.83829891629555], "screen_name": "tpscalls", "time": 1469605503.0, "tid": 758131055077490689, "text": "Fire | Laird Dr &amp; Industrial St [53 Div.] 07/26 22:39 #Leaside #Toronto", "created_at": "Wed Jul 27 02:45:03 +0000 2016", "klabel": 59}}, {"geometry": {"type": "Point", "coordinates": [-79.34781474, 43.70356971]}, "type": "Feature", "id": 758136938859597824, "properties": {"loc": [-79.34781474, 43.70356971], "centroid": [-79.42634064659919, 43.83829891629555], "screen_name": "nina_bonnyta", "time": 1469606906.0, "tid": 758136938859597824, "text": "free baseball. free tachycardia too! \ud83d\ude01 #BlueJays", "created_at": "Wed Jul 27 03:08:26 +0000 2016", "klabel": 59}}, {"geometry": {"type": "Point", "coordinates": [-79.36576, 43.7094604]}, "type": "Feature", "id": 758170566255845376, "properties": {"loc": [-79.36576, 43.7094604], "centroid": [-79.42634064659919, 43.83829891629555], "screen_name": "tpscalls", "time": 1469614923.0, "tid": 758170566255845376, "text": "Noisy Party | Moore Ave &amp; Sutherland Dr [53 Div.] 07/27 01:15 #Toronto", "created_at": "Wed Jul 27 05:22:03 +0000 2016", "klabel": 59}}, {"geometry": {"type": "Point", "coordinates": [-79.36384875, 43.70953239]}, "type": "Feature", "id": 758280691746480128, "properties": {"loc": [-79.36384875, 43.70953239], "centroid": [-79.42634064659919, 43.83829891629555], "screen_name": "JennyLipton_TD", "time": 1469641179.0, "tid": 758280691746480128, "text": "@Amna_TB @ChernoffLuke Now all you need is the grapefruit Perrier \ud83d\udc4c", "created_at": "Wed Jul 27 12:39:39 +0000 2016", "klabel": 59}}, {"geometry": {"type": "Point", "coordinates": [-79.3609595, 43.7094195]}, "type": "Feature", "id": 758291336382459904, "properties": {"loc": [-79.3609595, 43.7094195], "centroid": [-79.42634064659919, 43.83829891629555], "screen_name": "tmj_gta_retail", "time": 1469643717.0, "tid": 758291336382459904, "text": "This #job might be a great fit for you: Assistant Manager of Merchandise - https://t.co/Za0Xp6yCef #Retail #Toronto, ON #Hiring #CareerArc", "created_at": "Wed Jul 27 13:21:57 +0000 2016", "klabel": 59}}, {"geometry": {"type": "Point", "coordinates": [-79.36075969, 43.70544407]}, "type": "Feature", "id": 758298087395827716, "properties": {"loc": [-79.36075969, 43.70544407], "centroid": [-79.42634064659919, 43.83829891629555], "screen_name": "BarryTheBazman", "time": 1469645327.0, "tid": 758298087395827716, "text": "I'm at Leaside Village in Toronto, ON https://t.co/ZqGo1wrRK5", "created_at": "Wed Jul 27 13:48:47 +0000 2016", "klabel": 59}}, {"geometry": {"type": "Point", "coordinates": [-79.3609595, 43.7094195]}, "type": "Feature", "id": 758302340428378112, "properties": {"loc": [-79.3609595, 43.7094195], "centroid": [-79.42634064659919, 43.83829891629555], "screen_name": "tmj_gta_retail", "time": 1469646341.0, "tid": 758302340428378112, "text": "This #job might be a great fit for you: Directeur adjoint, Marchandises - https://t.co/aZ80qxf055 #Retail #Toronto, ON #Hiring #CareerArc", "created_at": "Wed Jul 27 14:05:41 +0000 2016", "klabel": 59}}, {"geometry": {"type": "Point", "coordinates": [-79.3650212, 43.7137569]}, "type": "Feature", "id": 758314745501888512, "properties": {"loc": [-79.3650212, 43.7137569], "centroid": [-79.42634064659919, 43.83829891629555], "screen_name": "tmj_gta_hrta", "time": 1469649298.0, "tid": 758314745501888512, "text": "We're #hiring! Click to apply: Barista (CA) - https://t.co/8lm3Nk3H2J #Job #Hospitality #Veterans #Jobs #CareerArc", "created_at": "Wed Jul 27 14:54:58 +0000 2016", "klabel": 59}}, {"geometry": {"type": "Point", "coordinates": [-79.3578332, 43.7141732]}, "type": "Feature", "id": 758368547630256128, "properties": {"loc": [-79.3578332, 43.7141732], "centroid": [-79.42634064659919, 43.83829891629555], "screen_name": "tmj_gta_retail", "time": 1469662126.0, "tid": 758368547630256128, "text": "Can you recommend anyone for this #job? https://t.co/e8596xDOhW #Retail #EastYork, ON #Hiring #CareerArc", "created_at": "Wed Jul 27 18:28:46 +0000 2016", "klabel": 59}}, {"geometry": {"type": "Point", "coordinates": [-79.3616426, 43.7057894]}, "type": "Feature", "id": 758376497606373377, "properties": {"loc": [-79.3616426, 43.7057894], "centroid": [-79.42634064659919, 43.83829891629555], "screen_name": "VitapathCareers", "time": 1469664021.0, "tid": 758376497606373377, "text": "Interested in a #job near #Toronto, ON? This could be a great fit: https://t.co/rRnJDWex46 #Retail #Hiring", "created_at": "Wed Jul 27 19:00:21 +0000 2016", "klabel": 59}}, {"geometry": {"type": "Point", "coordinates": [-79.36901093, 43.70611992]}, "type": "Feature", "id": 758663977001971712, "properties": {"loc": [-79.36901093, 43.70611992], "centroid": [-79.42634064659919, 43.83829891629555], "screen_name": "BarryTheBazman", "time": 1469732562.0, "tid": 758663977001971712, "text": "I'm at Leaside in Toronto, ON https://t.co/0l7BTh8j50", "created_at": "Thu Jul 28 14:02:42 +0000 2016", "klabel": 59}}, {"geometry": {"type": "Point", "coordinates": [-79.36096867, 43.70517618]}, "type": "Feature", "id": 758664021411323904, "properties": {"loc": [-79.36096867, 43.70517618], "centroid": [-79.42634064659919, 43.83829891629555], "screen_name": "BarryTheBazman", "time": 1469732572.0, "tid": 758664021411323904, "text": "I'm at TELUS in Toronto, ON https://t.co/x70Qrk9uW9", "created_at": "Thu Jul 28 14:02:52 +0000 2016", "klabel": 59}}, {"geometry": {"type": "Point", "coordinates": [-79.36075969, 43.70544407]}, "type": "Feature", "id": 758666443005100032, "properties": {"loc": [-79.36075969, 43.70544407], "centroid": [-79.42634064659919, 43.83829891629555], "screen_name": "BarryTheBazman", "time": 1469733150.0, "tid": 758666443005100032, "text": "I'm at Leaside Village in Toronto, ON https://t.co/5eYG0ZpEff", "created_at": "Thu Jul 28 14:12:30 +0000 2016", "klabel": 59}}, {"geometry": {"type": "Point", "coordinates": [-79.3650212, 43.7137569]}, "type": "Feature", "id": 758690709486514176, "properties": {"loc": [-79.3650212, 43.7137569], "centroid": [-79.42634064659919, 43.83829891629555], "screen_name": "tmj_gta_hrta", "time": 1469738935.0, "tid": 758690709486514176, "text": "See our latest #job and click to apply: Shift Supervisor (CA) - https://t.co/rbN6hZG2Q3 #Hospitality #Veterans #Hiring #CareerArc", "created_at": "Thu Jul 28 15:48:55 +0000 2016", "klabel": 59}}, {"geometry": {"type": "Point", "coordinates": [-79.3537846, 43.712156]}, "type": "Feature", "id": 758706343247314948, "properties": {"loc": [-79.3537846, 43.712156], "centroid": [-79.42634064659919, 43.83829891629555], "screen_name": "tofire", "time": 1469742662.0, "tid": 758706343247314948, "text": "Alarm Commercial/industrial - Wicksteed Avenue b/w Copeland St / Leslie St, East York (6 Trucks)", "created_at": "Thu Jul 28 16:51:02 +0000 2016", "klabel": 59}}, {"geometry": {"type": "Point", "coordinates": [-79.3537846, 43.712156]}, "type": "Feature", "id": 758706344136433664, "properties": {"loc": [-79.3537846, 43.712156], "centroid": [-79.42634064659919, 43.83829891629555], "screen_name": "tofireS", "time": 1469742663.0, "tid": 758706344136433664, "text": "Alarm Commercial/industrial - Wicksteed Avenue b/w Copeland St / Leslie St, East York (6 Trucks)", "created_at": "Thu Jul 28 16:51:03 +0000 2016", "klabel": 59}}, {"geometry": {"type": "Point", "coordinates": [-79.3605727, 43.70559072]}, "type": "Feature", "id": 758726723328479234, "properties": {"loc": [-79.3605727, 43.70559072], "centroid": [-79.42634064659919, 43.83829891629555], "screen_name": "BarryTheBazman", "time": 1469747521.0, "tid": 758726723328479234, "text": "I'm at Aroma Espresso Bar in Toronto, Ontario https://t.co/OBw3c1fxym", "created_at": "Thu Jul 28 18:12:01 +0000 2016", "klabel": 59}}, {"geometry": {"type": "Point", "coordinates": [-79.3498863, 43.7050507]}, "type": "Feature", "id": 758737810580840451, "properties": {"loc": [-79.3498863, 43.7050507], "centroid": [-79.42634064659919, 43.83829891629555], "screen_name": "tofire", "time": 1469750165.0, "tid": 758737810580840451, "text": "Medical (Child/infant) - Overlea Boulevard b/w Thorncliffe Park Dr / Thorncliffe Park Dr, East York (2 Trucks)", "created_at": "Thu Jul 28 18:56:05 +0000 2016", "klabel": 59}}, {"geometry": {"type": "Point", "coordinates": [-79.3622504, 43.7072982]}, "type": "Feature", "id": 758842494767370240, "properties": {"loc": [-79.3622504, 43.7072982], "centroid": [-79.42634064659919, 43.83829891629555], "screen_name": "tpscalls", "time": 1469775124.0, "tid": 758842494767370240, "text": "Assault Just Occurred | Laird Dr &amp; Industrial St [53 Div.] 07/28 21:46 #Leaside #Toronto", "created_at": "Fri Jul 29 01:52:04 +0000 2016", "klabel": 59}}, {"geometry": {"type": "Point", "coordinates": [-79.3622504, 43.7072982]}, "type": "Feature", "id": 758867158264799233, "properties": {"loc": [-79.3622504, 43.7072982], "centroid": [-79.42634064659919, 43.83829891629555], "screen_name": "tpscalls", "time": 1469781004.0, "tid": 758867158264799233, "text": "Assault Just Occurred | Laird Dr &amp; Industrial St [53 Div.] 07/28 23:26 #Leaside #Toronto", "created_at": "Fri Jul 29 03:30:04 +0000 2016", "klabel": 59}}, {"geometry": {"type": "Point", "coordinates": [-79.36145782, 43.70602685]}, "type": "Feature", "id": 758867530085609472, "properties": {"loc": [-79.36145782, 43.70602685], "centroid": [-79.42634064659919, 43.83829891629555], "screen_name": "dantran88", "time": 1469781092.0, "tid": 758867530085609472, "text": "I'm at Against the Grain Urban Tavern Leaside - @atgleaside in Toronto, ON https://t.co/cj9ztEZvC3", "created_at": "Fri Jul 29 03:31:32 +0000 2016", "klabel": 59}}, {"geometry": {"type": "Point", "coordinates": [-79.3583, 43.70476]}, "type": "Feature", "id": 759008727332630529, "properties": {"loc": [-79.3583, 43.70476], "centroid": [-79.42634064659919, 43.83829891629555], "screen_name": "torontomoto", "time": 1469814756.0, "tid": 759008727332630529, "text": "We are working hard to be opened the first week of August. Come by for a visit this weekend and\u2026 https://t.co/SAtIvNeNws", "created_at": "Fri Jul 29 12:52:36 +0000 2016", "klabel": 59}}, {"geometry": {"type": "Point", "coordinates": [-79.3609595, 43.7094195]}, "type": "Feature", "id": 759100578291068928, "properties": {"loc": [-79.3609595, 43.7094195], "centroid": [-79.42634064659919, 43.83829891629555], "screen_name": "tmj_gta_retail", "time": 1469836655.0, "tid": 759100578291068928, "text": "If you're looking for work in #Toronto, ON, check out this #job: https://t.co/KUWrYsfWus #Retail #Hiring #CareerArc", "created_at": "Fri Jul 29 18:57:35 +0000 2016", "klabel": 59}}, {"geometry": {"type": "Point", "coordinates": [-79.3616426, 43.7057894]}, "type": "Feature", "id": 759101280732053504, "properties": {"loc": [-79.3616426, 43.7057894], "centroid": [-79.42634064659919, 43.83829891629555], "screen_name": "VitapathCareers", "time": 1469836823.0, "tid": 759101280732053504, "text": "This #job might be a great fit for you: Health Enthusiast Part-Time - https://t.co/X1SI1wuMY1 #Retail #Toronto, ON #Hiring", "created_at": "Fri Jul 29 19:00:23 +0000 2016", "klabel": 59}}, {"geometry": {"type": "Point", "coordinates": [-79.3615454, 43.7047045]}, "type": "Feature", "id": 759114279253528576, "properties": {"loc": [-79.3615454, 43.7047045], "centroid": [-79.42634064659919, 43.83829891629555], "screen_name": "tmj_gta_hrta", "time": 1469839922.0, "tid": 759114279253528576, "text": "Interested in a #job near 62 LAIRD DRIVE, #TORONTO, ON? This could be a great fit: https://t.co/f7mUyjGuMR #Hospitality #Veterans #Hiring", "created_at": "Fri Jul 29 19:52:02 +0000 2016", "klabel": 59}}, {"geometry": {"type": "Point", "coordinates": [-79.34769782, 43.70359289]}, "type": "Feature", "id": 759202582095130625, "properties": {"loc": [-79.34769782, 43.70359289], "centroid": [-79.42634064659919, 43.83829891629555], "screen_name": "nina_bonnyta", "time": 1469860975.0, "tid": 759202582095130625, "text": "oh my God. @GrillCheese49 is worse than Stroman when it comes to showing emotions on the mound after a strike out! \ud83d\ude44 exaggerated! #BlueJays", "created_at": "Sat Jul 30 01:42:55 +0000 2016", "klabel": 59}}, {"geometry": {"type": "Point", "coordinates": [-79.36576, 43.7094604]}, "type": "Feature", "id": 759301513797890048, "properties": {"loc": [-79.36576, 43.7094604], "centroid": [-79.42634064659919, 43.83829891629555], "screen_name": "tpscalls", "time": 1469884562.0, "tid": 759301513797890048, "text": "Unknown Trouble | Moore Ave &amp; Sutherland Dr [53 Div.] 07/30 04:10 #Toronto", "created_at": "Sat Jul 30 08:16:02 +0000 2016", "klabel": 59}}, {"geometry": {"type": "Point", "coordinates": [-79.368, 43.708]}, "type": "Feature", "id": 759430059946020868, "properties": {"loc": [-79.368, 43.708], "centroid": [-79.42634064659919, 43.83829891629555], "screen_name": "tomtshane", "time": 1469915210.0, "tid": 759430059946020868, "text": "\"What you put out into the world is what you get back, be positive receive positive, be negative\u2026 https://t.co/ZXCdTqTurC", "created_at": "Sat Jul 30 16:46:50 +0000 2016", "klabel": 59}}, {"geometry": {"type": "Point", "coordinates": [-79.3616426, 43.7057894]}, "type": "Feature", "id": 759455606059126785, "properties": {"loc": [-79.3616426, 43.7057894], "centroid": [-79.42634064659919, 43.83829891629555], "screen_name": "tmj_gta_retail", "time": 1469921301.0, "tid": 759455606059126785, "text": "See our latest #Toronto, ON #job and click to apply: Store Manager - https://t.co/3By6gUaXQH #Retail #Hiring #CareerArc", "created_at": "Sat Jul 30 18:28:21 +0000 2016", "klabel": 59}}, {"geometry": {"type": "Point", "coordinates": [-79.3616426, 43.7057894]}, "type": "Feature", "id": 759477621839101952, "properties": {"loc": [-79.3616426, 43.7057894], "centroid": [-79.42634064659919, 43.83829891629555], "screen_name": "tmj_gta_retail", "time": 1469926550.0, "tid": 759477621839101952, "text": "If you're looking for work in #Toronto, ON, check out this #job: https://t.co/8gQAlnJ6ur #Retail #Hiring #CareerArc", "created_at": "Sat Jul 30 19:55:50 +0000 2016", "klabel": 59}}, {"geometry": {"type": "Point", "coordinates": [-79.3609595, 43.7094195]}, "type": "Feature", "id": 759799669987827712, "properties": {"loc": [-79.3609595, 43.7094195], "centroid": [-79.42634064659919, 43.83829891629555], "screen_name": "tmj_gta_retail", "time": 1470003332.0, "tid": 759799669987827712, "text": "Interested in a #job near #Toronto, ON? This could be a great fit: https://t.co/Oxs3lJj6ku #Retail #Hiring #CareerArc", "created_at": "Sun Jul 31 17:15:32 +0000 2016", "klabel": 59}}, {"geometry": {"type": "Point", "coordinates": [-79.3609595, 43.7094195]}, "type": "Feature", "id": 759854615106088961, "properties": {"loc": [-79.3609595, 43.7094195], "centroid": [-79.42634064659919, 43.83829891629555], "screen_name": "tmj_gta_retail", "time": 1470016432.0, "tid": 759854615106088961, "text": "We're #hiring! Read about our latest #job opening here: Coordonnateur, Marchandises - https://t.co/g19pYIpdG0 #Retail #Toronto, ON", "created_at": "Sun Jul 31 20:53:52 +0000 2016", "klabel": 59}}, {"geometry": {"type": "Point", "coordinates": [-79.3607438, 43.7030961]}, "type": "Feature", "id": 759906521362735106, "properties": {"loc": [-79.3607438, 43.7030961], "centroid": [-79.42634064659919, 43.83829891629555], "screen_name": "tofire", "time": 1470028807.0, "tid": 759906521362735106, "text": "Fire (Transformer/pole) - Malcolm Road @ Millwood Road, East York (2 Trucks)", "created_at": "Mon Aug 01 00:20:07 +0000 2016", "klabel": 59}}, {"geometry": {"type": "Point", "coordinates": [-79.3607438, 43.7030961]},