{"type": "FeatureCollection", "features": [{"geometry": {"type": "Point", "coordinates": [-79.47506, 43.656742]}, "type": "Feature", "id": 705080791475183616, "properties": {"loc": [-79.47506, 43.656742], "centroid": [-79.29024273177691, 43.815218832451365], "screen_name": "StudentSchool", "time": 1456957335.0, "tid": 705080791475183616, "text": "Sophie, Amigo, and Ellie spread some love today. #tss #thestudentschool #therapydog #sja @\u2026 https://t.co/bfij6P8OeO", "created_at": "Wed Mar 02 17:22:15 +0000 2016", "klabel": 5}}, {"geometry": {"type": "Point", "coordinates": [-79.47638957, 43.65125331]}, "type": "Feature", "id": 705185203241799680, "properties": {"loc": [-79.47638957, 43.65125331], "centroid": [-79.29024273177691, 43.815218832451365], "screen_name": "neylins", "time": 1456982228.0, "tid": 705185203241799680, "text": "#FreeCoffee #McCafeSelfie (@ McDonald's - @mcd_canada in Toronto, ON) https://t.co/geSpdHVDf4", "created_at": "Thu Mar 03 00:17:08 +0000 2016", "klabel": 5}}, {"geometry": {"type": "Point", "coordinates": [-79.4809799, 43.6600418]}, "type": "Feature", "id": 705201952318218240, "properties": {"loc": [-79.4809799, 43.6600418], "centroid": [-79.29024273177691, 43.815218832451365], "screen_name": "CoagulatedInt", "time": 1456986222.0, "tid": 705201952318218240, "text": "Will #GoblinShark be on the menu tomorrow night at the final #ChefsforChange dinner at\u2026 https://t.co/4DOGNe312k", "created_at": "Thu Mar 03 01:23:42 +0000 2016", "klabel": 5}}, {"geometry": {"type": "Point", "coordinates": [-79.4847585, 43.6491892]}, "type": "Feature", "id": 705203809035878402, "properties": {"loc": [-79.4847585, 43.6491892], "centroid": [-79.29024273177691, 43.815218832451365], "screen_name": "tofire", "time": 1456986664.0, "tid": 705203809035878402, "text": "Medical (Unconscious) - Bloor St b/w C North R / Ruttan St, Toronto (2 Trucks)", "created_at": "Thu Mar 03 01:31:04 +0000 2016", "klabel": 5}}, {"geometry": {"type": "Point", "coordinates": [-79.49011765, 43.63909985]}, "type": "Feature", "id": 705219875162210304, "properties": {"loc": [-79.49011765, 43.63909985], "centroid": [-79.29024273177691, 43.815218832451365], "screen_name": "ilona_vykhrenko", "time": 1456990495.0, "tid": 705219875162210304, "text": "\u041e\u043c\u0433...\u044d\u0442\u043e \u043b\u0443\u0447\u0448\u0438\u0439 \u0432\u0435\u0447\u0435\u0440, \u0441\u043f\u0430\u0441\u0438\u0431\u043e \u0442\u0435\u0431\u0435 \u0431\u043e\u043b\u044c\u0448\u043e\u0435 \u043c\u043e\u044f \u043b\u044e\u0431\u0438\u043c\u0430\u044f \u0414\u0436\u0430\u043d\u0438 \ud83d\udc9e\u041a\u0441\u044e\u0448\u0430 \u041c\u043e\u0441\u0442\u043e\u0432\u0430\u044f \u0441\u0435\u0433\u043e\u0434\u043d\u044f \u0442\u044b \u043c\u0435\u043d\u044f \u0431\u0435\u0437\u0443\u043c\u043d\u043e \u043f\u043e\u0440\u0430.. https://t.co/JE05A6iapZ", "created_at": "Thu Mar 03 02:34:55 +0000 2016", "klabel": 5}}, {"geometry": {"type": "Point", "coordinates": [-79.4750137, 43.6511612]}, "type": "Feature", "id": 705401493273354240, "properties": {"loc": [-79.4750137, 43.6511612], "centroid": [-79.29024273177691, 43.815218832451365], "screen_name": "TheTemp_tress", "time": 1457033796.0, "tid": 705401493273354240, "text": "Glam it up! Lashes, tresses, brows and all! Treat yourself ladies! You will be ready for\u2026 https://t.co/V8R35QK4RA", "created_at": "Thu Mar 03 14:36:36 +0000 2016", "klabel": 5}}, {"geometry": {"type": "Point", "coordinates": [-79.4878311, 43.6580811]}, "type": "Feature", "id": 705442391138963456, "properties": {"loc": [-79.4878311, 43.6580811], "centroid": [-79.29024273177691, 43.815218832451365], "screen_name": "souljourner14", "time": 1457043547.0, "tid": 705442391138963456, "text": "Snowy day pick me up. Kick ass coffee and butter tart to go. #lunchtime #snowyday #treats @\u2026 https://t.co/YwgGPIQF84", "created_at": "Thu Mar 03 17:19:07 +0000 2016", "klabel": 5}}, {"geometry": {"type": "Point", "coordinates": [-79.4845, 43.649]}, "type": "Feature", "id": 705537046589341698, "properties": {"loc": [-79.4845, 43.649], "centroid": [-79.29024273177691, 43.815218832451365], "screen_name": "Crafticus", "time": 1457066114.0, "tid": 705537046589341698, "text": "Drinking a Koru by @beausallnatural @ Bryden's Pub \u2014 https://t.co/XXIwFh5bjU", "created_at": "Thu Mar 03 23:35:14 +0000 2016", "klabel": 5}}, {"geometry": {"type": "Point", "coordinates": [-79.4809799, 43.6600418]}, "type": "Feature", "id": 705807322048831492, "properties": {"loc": [-79.4809799, 43.6600418], "centroid": [-79.29024273177691, 43.815218832451365], "screen_name": "CoagulatedInt", "time": 1457130553.0, "tid": 705807322048831492, "text": "I wonder if sobpedro is endorsing drummers, sign me up! \ud83d\ude1c @ Drum Every Day https://t.co/a2ENGmXeFD", "created_at": "Fri Mar 04 17:29:13 +0000 2016", "klabel": 5}}, {"geometry": {"type": "Point", "coordinates": [-79.4745854, 43.644611]}, "type": "Feature", "id": 705818865469628416, "properties": {"loc": [-79.4745854, 43.644611], "centroid": [-79.29024273177691, 43.815218832451365], "screen_name": "tofire", "time": 1457133305.0, "tid": 705818865469628416, "text": "UD: Medical (Child/infant) - Waller Avenue b/w Rennie Ter / Lavinia Avenue, Toronto (2 Trucks)", "created_at": "Fri Mar 04 18:15:05 +0000 2016", "klabel": 5}}, {"geometry": {"type": "Point", "coordinates": [-79.4745854, 43.644611]}, "type": "Feature", "id": 705818866711195653, "properties": {"loc": [-79.4745854, 43.644611], "centroid": [-79.29024273177691, 43.815218832451365], "screen_name": "tofireW", "time": 1457133305.0, "tid": 705818866711195653, "text": "UD: Medical (Child/infant) - Waller Avenue b/w Rennie Ter / Lavinia Avenue, Toronto (2 Trucks)", "created_at": "Fri Mar 04 18:15:05 +0000 2016", "klabel": 5}}, {"geometry": {"type": "Point", "coordinates": [-79.4895363, 43.6397271]}, "type": "Feature", "id": 705875737774051332, "properties": {"loc": [-79.4895363, 43.6397271], "centroid": [-79.29024273177691, 43.815218832451365], "screen_name": "tofire", "time": 1457146865.0, "tid": 705875737774051332, "text": "Medical (Chest Pains) - Riverwood Pkwy b/w Crown Hill Pl / Humber Valley Road, Etobicoke (2 Trucks)", "created_at": "Fri Mar 04 22:01:05 +0000 2016", "klabel": 5}}, {"geometry": {"type": "Point", "coordinates": [-79.4750137, 43.6511612]}, "type": "Feature", "id": 705917119796477953, "properties": {"loc": [-79.4750137, 43.6511612], "centroid": [-79.29024273177691, 43.815218832451365], "screen_name": "TheTemp_tress", "time": 1457156731.0, "tid": 705917119796477953, "text": "#Repost @bloheartsyou with repostapp.\n\u30fb\u30fb\u30fb\nWhen your hair looks too good to stay home on a Friday\u2026 https://t.co/r35zj79Mjx", "created_at": "Sat Mar 05 00:45:31 +0000 2016", "klabel": 5}}, {"geometry": {"type": "Point", "coordinates": [-79.4809799, 43.6600418]}, "type": "Feature", "id": 706163162761064448, "properties": {"loc": [-79.4809799, 43.6600418], "centroid": [-79.29024273177691, 43.815218832451365], "screen_name": "runsmilerepeat", "time": 1457215392.0, "tid": 706163162761064448, "text": "Such an effective way to discover and work on imbalances in the body. Still working on calming\u2026 https://t.co/R21QknNfpt", "created_at": "Sat Mar 05 17:03:12 +0000 2016", "klabel": 5}}, {"geometry": {"type": "Point", "coordinates": [-79.4847585, 43.6491892]}, "type": "Feature", "id": 749885221219213312, "properties": {"loc": [-79.4847585, 43.6491892], "centroid": [-79.29024273177691, 43.815218832451365], "screen_name": "tpscalls", "time": 1467639543.0, "tid": 749885221219213312, "text": "Found Property | Charles St W &amp; Bloor St W [52 Div.] 07/04 04:33 #Toronto", "created_at": "Mon Jul 04 08:39:03 +0000 2016", "klabel": 5}}, {"geometry": {"type": "Point", "coordinates": [-79.4893, 43.6521]}, "type": "Feature", "id": 749984298825052160, "properties": {"loc": [-79.4893, 43.6521], "centroid": [-79.29024273177691, 43.815218832451365], "screen_name": "courtneypavao", "time": 1467663165.0, "tid": 749984298825052160, "text": "Beautiful wedding \ud83d\udc70\ud83c\udffc We wish you all the best Ryan &amp; Cristiana \u2764\ufe0f @ Old Mill, Toronto https://t.co/da1tM7p3Th", "created_at": "Mon Jul 04 15:12:45 +0000 2016", "klabel": 5}}, {"geometry": {"type": "Point", "coordinates": [-79.4751968, 43.6511192]}, "type": "Feature", "id": 749996992839970816, "properties": {"loc": [-79.4751968, 43.6511192], "centroid": [-79.29024273177691, 43.815218832451365], "screen_name": "generateto", "time": 1467666192.0, "tid": 749996992839970816, "text": "Team Fit +Generate Fitness coming in July! 6 weeks to ultimate fitness - starts July 12th. All\u2026 https://t.co/xd1PnwdehF", "created_at": "Mon Jul 04 16:03:12 +0000 2016", "klabel": 5}}, {"geometry": {"type": "Point", "coordinates": [-79.4843099, 43.6575262]}, "type": "Feature", "id": 749997970528108544, "properties": {"loc": [-79.4843099, 43.6575262], "centroid": [-79.29024273177691, 43.815218832451365], "screen_name": "tpscalls", "time": 1467666425.0, "tid": 749997970528108544, "text": "Personal Injury Collision | Willard Ave &amp; Willard Ave [12 Div.] 07/04 12:01 #Toronto", "created_at": "Mon Jul 04 16:07:05 +0000 2016", "klabel": 5}}, {"geometry": {"type": "Point", "coordinates": [-79.4843099, 43.6575262]}, "type": "Feature", "id": 749997971555713024, "properties": {"loc": [-79.4843099, 43.6575262], "centroid": [-79.29024273177691, 43.815218832451365], "screen_name": "tpscalls", "time": 1467666425.0, "tid": 749997971555713024, "text": "Personal Injury Collision | Willard Ave &amp; Willard Ave [HP] 07/04 12:02 #Toronto", "created_at": "Mon Jul 04 16:07:05 +0000 2016", "klabel": 5}}, {"geometry": {"type": "Point", "coordinates": [-79.475076, 43.651649]}, "type": "Feature", "id": 750002700004290560, "properties": {"loc": [-79.475076, 43.651649], "centroid": [-79.29024273177691, 43.815218832451365], "screen_name": "TheTemp_tress", "time": 1467667552.0, "tid": 750002700004290560, "text": "Say goodbye to stressed out tresses and hello to soft, smooth, and gorgeous! \ud83d\udc4b\ud83c\udffb Stylist\u2026 https://t.co/fb3ntfHGo5", "created_at": "Mon Jul 04 16:25:52 +0000 2016", "klabel": 5}}, {"geometry": {"type": "Point", "coordinates": [-79.4708218, 43.6521306]}, "type": "Feature", "id": 750045061996433412, "properties": {"loc": [-79.4708218, 43.6521306], "centroid": [-79.29024273177691, 43.815218832451365], "screen_name": "tmj_gta_hrta", "time": 1467677652.0, "tid": 750045061996433412, "text": "1997 BLOOR ST W, #TORONTO, ON #Hospitality #Job: Barista (CA) at Starbucks https://t.co/ge3ByZw8jY #Veterans #Jobs #Hiring #CareerArc", "created_at": "Mon Jul 04 19:14:12 +0000 2016", "klabel": 5}}, {"geometry": {"type": "Point", "coordinates": [-79.4859542, 43.6587551]}, "type": "Feature", "id": 750151233026002944, "properties": {"loc": [-79.4859542, 43.6587551], "centroid": [-79.29024273177691, 43.815218832451365], "screen_name": "tofire", "time": 1467702965.0, "tid": 750151233026002944, "text": "Fire (Residential) - Annette St b/w Evans Avenue / Armadale Avenue, Toronto (2 Trucks)", "created_at": "Tue Jul 05 02:16:05 +0000 2016", "klabel": 5}}, {"geometry": {"type": "Point", "coordinates": [-79.4859542, 43.6587551]}, "type": "Feature", "id": 750151234099613696, "properties": {"loc": [-79.4859542, 43.6587551], "centroid": [-79.29024273177691, 43.815218832451365], "screen_name": "tofireW", "time": 1467702966.0, "tid": 750151234099613696, "text": "Fire (Residential) - Annette St b/w Evans Avenue / Armadale Avenue, Toronto (2 Trucks)", "created_at": "Tue Jul 05 02:16:06 +0000 2016", "klabel": 5}}, {"geometry": {"type": "Point", "coordinates": [-79.4859542, 43.6587551]}, "type": "Feature", "id": 750152494676840448, "properties": {"loc": [-79.4859542, 43.6587551], "centroid": [-79.29024273177691, 43.815218832451365], "screen_name": "tofiref", "time": 1467703266.0, "tid": 750152494676840448, "text": "UD: Fire (Residential) - Annette St b/w Evans Avenue / Armadale Avenue, Toronto (7 Trucks)", "created_at": "Tue Jul 05 02:21:06 +0000 2016", "klabel": 5}}, {"geometry": {"type": "Point", "coordinates": [-79.4859542, 43.6587551]}, "type": "Feature", "id": 750152493808713728, "properties": {"loc": [-79.4859542, 43.6587551], "centroid": [-79.29024273177691, 43.815218832451365], "screen_name": "tofireW", "time": 1467703266.0, "tid": 750152493808713728, "text": "UD: Fire (Residential) - Annette St b/w Evans Avenue / Armadale Avenue, Toronto (7 Trucks)", "created_at": "Tue Jul 05 02:21:06 +0000 2016", "klabel": 5}}, {"geometry": {"type": "Point", "coordinates": [-79.4747566, 43.6534419]}, "type": "Feature", "id": 750166331056685057, "properties": {"loc": [-79.4747566, 43.6534419], "centroid": [-79.29024273177691, 43.815218832451365], "screen_name": "tofire", "time": 1467706565.0, "tid": 750166331056685057, "text": "Fire (Residential) - Glendonwynne Road b/w Kennedy Park Road / Norma Crescent, Toronto (7 Trucks)", "created_at": "Tue Jul 05 03:16:05 +0000 2016", "klabel": 5}}, {"geometry": {"type": "Point", "coordinates": [-79.4776332, 43.6508711]}, "type": "Feature", "id": 750189988139114497, "properties": {"loc": [-79.4776332, 43.6508711], "centroid": [-79.29024273177691, 43.815218832451365], "screen_name": "tofiref", "time": 1467712205.0, "tid": 750189988139114497, "text": "Fire (Residential) - Beresford Avenue b/w Bloor St West / Colbeck St, Toronto (7 Trucks)", "created_at": "Tue Jul 05 04:50:05 +0000 2016", "klabel": 5}}, {"geometry": {"type": "Point", "coordinates": [-79.4816304, 43.6539544]}, "type": "Feature", "id": 750191746890563584, "properties": {"loc": [-79.4816304, 43.6539544], "centroid": [-79.29024273177691, 43.815218832451365], "screen_name": "tpscalls", "time": 1467712625.0, "tid": 750191746890563584, "text": "Fire | Bloor St W &amp; Colbeck St [11 Div.] 07/05 00:52 #Old_Toronto", "created_at": "Tue Jul 05 04:57:05 +0000 2016", "klabel": 5}}, {"geometry": {"type": "Point", "coordinates": [-79.4816304, 43.6539544]}, "type": "Feature", "id": 750193255074107392, "properties": {"loc": [-79.4816304, 43.6539544], "centroid": [-79.29024273177691, 43.815218832451365], "screen_name": "tpscalls", "time": 1467712984.0, "tid": 750193255074107392, "text": "Unknown Trouble | Bloor St W &amp; Colbeck St [11 Div.] 07/05 00:58 #Old_Toronto", "created_at": "Tue Jul 05 05:03:04 +0000 2016", "klabel": 5}}, {"geometry": {"type": "Point", "coordinates": [-79.4839249, 43.6592423]}, "type": "Feature", "id": 750298425921503232, "properties": {"loc": [-79.4839249, 43.6592423], "centroid": [-79.29024273177691, 43.815218832451365], "screen_name": "MandaGroup", "time": 1467738059.0, "tid": 750298425921503232, "text": "Can Lit Award Winners &amp; Shortlist Nominees  https://t.co/HCpe3Fgq7r", "created_at": "Tue Jul 05 12:00:59 +0000 2016", "klabel": 5}}, {"geometry": {"type": "Point", "coordinates": [-79.4847585, 43.6491892]}, "type": "Feature", "id": 751222282857672709, "properties": {"loc": [-79.4847585, 43.6491892], "centroid": [-79.29024273177691, 43.815218832451365], "screen_name": "tpscalls", "time": 1467958323.0, "tid": 751222282857672709, "text": "Person With A Knife | Ritchie Ave &amp; Bloor St W [11 Div.] 07/07 21:07 #Toronto", "created_at": "Fri Jul 08 01:12:03 +0000 2016", "klabel": 5}}, {"geometry": {"type": "Point", "coordinates": [-79.49333325, 43.65087892]}, "type": "Feature", "id": 751846189897768960, "properties": {"loc": [-79.49333325, 43.65087892], "centroid": [-79.29024273177691, 43.815218832451365], "screen_name": "steph_gray", "time": 1468107074.0, "tid": 751846189897768960, "text": "Afternoon tea with mom &amp; @Nancy_l_gray \ud83c\udf70\u2615\ufe0f (@ Old Mill Inn in Toronto, ON) https://t.co/YqleNsxlZS", "created_at": "Sat Jul 09 18:31:14 +0000 2016", "klabel": 5}}, {"geometry": {"type": "Point", "coordinates": [-79.4708218, 43.6521306]}, "type": "Feature", "id": 751849629474369536, "properties": {"loc": [-79.4708218, 43.6521306], "centroid": [-79.29024273177691, 43.815218832451365], "screen_name": "tmj_gta_hrta", "time": 1468107895.0, "tid": 751849629474369536, "text": "If you're looking for work in 1997 BLOOR ST W, #TORONTO, ON, check out this #job: https://t.co/B15xVUU103 #Hospitality #Veterans #Hiring", "created_at": "Sat Jul 09 18:44:55 +0000 2016", "klabel": 5}}, {"geometry": {"type": "Point", "coordinates": [-79.4775, 43.6508]}, "type": "Feature", "id": 751854033762185216, "properties": {"loc": [-79.4775, 43.6508], "centroid": [-79.29024273177691, 43.815218832451365], "screen_name": "MarissaBronfman", "time": 1468108945.0, "tid": 751854033762185216, "text": "And then the sky opened. \u2614\ufe0f @ Bloor West Village https://t.co/168vnUrCU0", "created_at": "Sat Jul 09 19:02:25 +0000 2016", "klabel": 5}}, {"geometry": {"type": "Point", "coordinates": [-79.4881019, 43.6477157]}, "type": "Feature", "id": 751889930687766528, "properties": {"loc": [-79.4881019, 43.6477157], "centroid": [-79.29024273177691, 43.815218832451365], "screen_name": "tofire", "time": 1468117503.0, "tid": 751889930687766528, "text": "Carbon Monoxide (Non Medical) - Riverside Dr b/w Bloor St West / Traymore Crescent, York (5 Trucks)", "created_at": "Sat Jul 09 21:25:03 +0000 2016", "klabel": 5}}, {"geometry": {"type": "Point", "coordinates": [-79.48407, 43.64961]}, "type": "Feature", "id": 751898685743570944, "properties": {"loc": [-79.48407, 43.64961], "centroid": [-79.29024273177691, 43.815218832451365], "screen_name": "TheGoodForkTO", "time": 1468119590.0, "tid": 751898685743570944, "text": "this is our sea bream with zucchini. #notjustbrunch #thegoodfork @ the good fork https://t.co/FwpAturQ09", "created_at": "Sat Jul 09 21:59:50 +0000 2016", "klabel": 5}}, {"geometry": {"type": "Point", "coordinates": [-79.48407, 43.64961]}, "type": "Feature", "id": 751902849953439744, "properties": {"loc": [-79.48407, 43.64961], "centroid": [-79.29024273177691, 43.815218832451365], "screen_name": "TheGoodForkTO", "time": 1468120583.0, "tid": 751902849953439744, "text": "this is our crispy baked eggplant with whipped feta. #thegoodfork #goodform @ the good fork https://t.co/MsFIp7E7vM", "created_at": "Sat Jul 09 22:16:23 +0000 2016", "klabel": 5}}, {"geometry": {"type": "Point", "coordinates": [-79.4810177, 43.6578751]}, "type": "Feature", "id": 751988586183028736, "properties": {"loc": [-79.4810177, 43.6578751], "centroid": [-79.29024273177691, 43.815218832451365], "screen_name": "tpscalls", "time": 1468141024.0, "tid": 751988586183028736, "text": "Disorderlies | Runnymede Rd &amp; Beresford Ave [11 Div.] 07/09 23:51 #Runnymede #Toronto", "created_at": "Sun Jul 10 03:57:04 +0000 2016", "klabel": 5}}, {"geometry": {"type": "Point", "coordinates": [-79.4802198, 43.6496573]}, "type": "Feature", "id": 751993869529706496, "properties": {"loc": [-79.4802198, 43.6496573], "centroid": [-79.29024273177691, 43.815218832451365], "screen_name": "tpscalls", "time": 1468142284.0, "tid": 751993869529706496, "text": "Noisy Party | Ellis Gdns &amp; Windermere Ave [11 Div.] 07/10 00:14 #Old_Toronto", "created_at": "Sun Jul 10 04:18:04 +0000 2016", "klabel": 5}}, {"geometry": {"type": "Point", "coordinates": [-79.4934006, 43.6509399]}, "type": "Feature", "id": 752131832435478528, "properties": {"loc": [-79.4934006, 43.6509399], "centroid": [-79.29024273177691, 43.815218832451365], "screen_name": "J_C_Croke", "time": 1468175177.0, "tid": 752131832435478528, "text": "Wedding ready!!! #katherine&amp;callum #wedding #happy @ Old Mill Inn Weddings https://t.co/mr2lrhItW0", "created_at": "Sun Jul 10 13:26:17 +0000 2016", "klabel": 5}}, {"geometry": {"type": "Point", "coordinates": [-79.475076, 43.651649]}, "type": "Feature", "id": 752135902596571136, "properties": {"loc": [-79.475076, 43.651649], "centroid": [-79.29024273177691, 43.815218832451365], "screen_name": "TheTemp_tress", "time": 1468176147.0, "tid": 752135902596571136, "text": "Braids are everything! Perfect summer addition to any Blo! Just ask and our stylist will add one\u2026 https://t.co/3PskcDeWBy", "created_at": "Sun Jul 10 13:42:27 +0000 2016", "klabel": 5}}, {"geometry": {"type": "Point", "coordinates": [-79.4893, 43.6521]}, "type": "Feature", "id": 752138788638322689, "properties": {"loc": [-79.4893, 43.6521], "centroid": [-79.29024273177691, 43.815218832451365], "screen_name": "AndrewJTWood", "time": 1468176835.0, "tid": 752138788638322689, "text": "Wedding number \ud83d\udd90\ud83c\udffc was a BLAST! We love our friends and we love marriage, so nights like this are\u2026 https://t.co/7LUHLdHD2q", "created_at": "Sun Jul 10 13:53:55 +0000 2016", "klabel": 5}}, {"geometry": {"type": "Point", "coordinates": [-79.48399676, 43.64954744]}, "type": "Feature", "id": 752152128081321984, "properties": {"loc": [-79.48399676, 43.64954744], "centroid": [-79.29024273177691, 43.815218832451365], "screen_name": "rrehders", "time": 1468180016.0, "tid": 752152128081321984, "text": "Sunday Ritual @TheGoodForkTO (at @TheGoodForkTo in Toronto, ON) https://t.co/cRwbv5C3oS", "created_at": "Sun Jul 10 14:46:56 +0000 2016", "klabel": 5}}, {"geometry": {"type": "Point", "coordinates": [-79.4934006, 43.6509399]}, "type": "Feature", "id": 752166464732495872, "properties": {"loc": [-79.4934006, 43.6509399], "centroid": [-79.29024273177691, 43.815218832451365], "screen_name": "natekimphoto", "time": 1468183434.0, "tid": 752166464732495872, "text": "Happy Sunday!\nThis bouquet is so beautiful, isn't it?\ud83d\ude0d\n_\n_\n#NateKimPhotography\u2026 https://t.co/UqW79siyxi", "created_at": "Sun Jul 10 15:43:54 +0000 2016", "klabel": 5}}, {"geometry": {"type": "Point", "coordinates": [-79.4934006, 43.6509399]}, "type": "Feature", "id": 752186383540686848, "properties": {"loc": [-79.4934006, 43.6509399], "centroid": [-79.29024273177691, 43.815218832451365], "screen_name": "J_C_Croke", "time": 1468188183.0, "tid": 752186383540686848, "text": "Happy wedding day to this beauty!!! #Katherine&amp;Callum #wedding #happy @ Old Mill Inn Weddings https://t.co/wiJhMJCt4z", "created_at": "Sun Jul 10 17:03:03 +0000 2016", "klabel": 5}}, {"geometry": {"type": "Point", "coordinates": [-79.4934006, 43.6509399]}, "type": "Feature", "id": 752186859841662976, "properties": {"loc": [-79.4934006, 43.6509399], "centroid": [-79.29024273177691, 43.815218832451365], "screen_name": "J_C_Croke", "time": 1468188296.0, "tid": 752186859841662976, "text": "Yay for such a fun group of bridesmaids &amp; a beauty bride!! #katherine&amp;callum #wedding\u2026 https://t.co/uljgUOAGuv", "created_at": "Sun Jul 10 17:04:56 +0000 2016", "klabel": 5}}, {"geometry": {"type": "Point", "coordinates": [-79.48708, 43.65518]}, "type": "Feature", "id": 752193940049240064, "properties": {"loc": [-79.48708, 43.65518], "centroid": [-79.29024273177691, 43.815218832451365], "screen_name": "AlexCarroni", "time": 1468189985.0, "tid": 752193940049240064, "text": "We may have too many local favs lol @ Campo Restaurant https://t.co/3Y98bUHfee", "created_at": "Sun Jul 10 17:33:05 +0000 2016", "klabel": 5}}, {"geometry": {"type": "Point", "coordinates": [-79.4775, 43.6508]}, "type": "Feature", "id": 752199153413828608, "properties": {"loc": [-79.4775, 43.6508], "centroid": [-79.29024273177691, 43.815218832451365], "screen_name": "tashipiet", "time": 1468191228.0, "tid": 752199153413828608, "text": "Having a lovely afternoon hang with this beautiful woman. Her #pink is on point! (As\u2026 https://t.co/owHWZsMZG5", "created_at": "Sun Jul 10 17:53:48 +0000 2016", "klabel": 5}}, {"geometry": {"type": "Point", "coordinates": [-79.4934006, 43.6509399]}, "type": "Feature", "id": 752201905061986304, "properties": {"loc": [-79.4934006, 43.6509399], "centroid": [-79.29024273177691, 43.815218832451365], "screen_name": "natekimphoto", "time": 1468191884.0, "tid": 752201905061986304, "text": "Youngin + Steve's classic and beautiful wedding! \n_\n_\n#NateKimPhotography #weddingphotographer\u2026 https://t.co/zjHncA5TC9", "created_at": "Sun Jul 10 18:04:44 +0000 2016", "klabel": 5}}, {"geometry": {"type": "Point", "coordinates": [-79.490629, 43.639462]}, "type": "Feature", "id": 752280000804651008, "properties": {"loc": [-79.490629, 43.639462], "centroid": [-79.29024273177691, 43.815218832451365], "screen_name": "tpscalls", "time": 1468210503.0, "tid": 752280000804651008, "text": "Disorderlies | Park Lawn Rd &amp; Crown Hill Pl [22 Div.] 07/10 19:11 #Sunnylea #Toronto", "created_at": "Sun Jul 10 23:15:03 +0000 2016", "klabel": 5}}, {"geometry": {"type": "Point", "coordinates": [-79.4802198, 43.6496573]}, "type": "Feature", "id": 752291328525041664, "properties": {"loc": [-79.4802198, 43.6496573], "centroid": [-79.29024273177691, 43.815218832451365], "screen_name": "tpscalls", "time": 1468213204.0, "tid": 752291328525041664, "text": "Robbery | Ellis Gdns &amp; Windermere Ave [11 Div.] 07/10 19:55 #Old_Toronto", "created_at": "Mon Jul 11 00:00:04 +0000 2016", "klabel": 5}}, {"geometry": {"type": "Point", "coordinates": [-79.4752, 43.65112]}, "type": "Feature", "id": 752298070809907201, "properties": {"loc": [-79.4752, 43.65112], "centroid": [-79.29024273177691, 43.815218832451365], "screen_name": "PreetsD", "time": 1468214811.0, "tid": 752298070809907201, "text": "#Ceaser time \ud83d\ude0d#sundayfunday @ The Kennedy Public House https://t.co/kNIwSW0ZBs", "created_at": "Mon Jul 11 00:26:51 +0000 2016", "klabel": 5}}, {"geometry": {"type": "Point", "coordinates": [-79.4708218, 43.6521306]}, "type": "Feature", "id": 752519130838806529, "properties": {"loc": [-79.4708218, 43.6521306], "centroid": [-79.29024273177691, 43.815218832451365], "screen_name": "tmj_gta_hrta", "time": 1468267516.0, "tid": 752519130838806529, "text": "If you're looking for work in 1997 BLOOR ST W, #TORONTO, ON, check out this #job: https://t.co/ge3ByZw8jY #Hospitality #Veterans #Hiring", "created_at": "Mon Jul 11 15:05:16 +0000 2016", "klabel": 5}}, {"geometry": {"type": "Point", "coordinates": [-79.47499213, 43.65056114]}, "type": "Feature", "id": 752555627692580864, "properties": {"loc": [-79.47499213, 43.65056114], "centroid": [-79.29024273177691, 43.815218832451365], "screen_name": "TheTemp_tress", "time": 1468276218.0, "tid": 752555627692580864, "text": "We're werkin' it today! \ud83d\udcaa\ud83c\udffb Stop by for a work day Blo, for only $30; who could say no? Between\u2026 https://t.co/hRp6ekmnnq", "created_at": "Mon Jul 11 17:30:18 +0000 2016", "klabel": 5}}, {"geometry": {"type": "Point", "coordinates": [-79.4934006, 43.6509399]}, "type": "Feature", "id": 752596338945224704, "properties": {"loc": [-79.4934006, 43.6509399], "centroid": [-79.29024273177691, 43.815218832451365], "screen_name": "katherine_yager", "time": 1468285924.0, "tid": 752596338945224704, "text": "Yesterday I got to marry this smart, funny, kind and overall amazing guy surrounded by our\u2026 https://t.co/qY4N4BRWuN", "created_at": "Mon Jul 11 20:12:04 +0000 2016", "klabel": 5}}, {"geometry": {"type": "Point", "coordinates": [-79.47784, 43.64765]}, "type": "Feature", "id": 752620511906111493, "properties": {"loc": [-79.47784, 43.64765], "centroid": [-79.29024273177691, 43.815218832451365], "screen_name": "SwanseaTownHall", "time": 1468291687.0, "tid": 752620511906111493, "text": "Some new faces and more fun again today here with @grooveedge \ud83d\ude0e#dance @ Swansea Town Hall https://t.co/GW0AsVDSvP", "created_at": "Mon Jul 11 21:48:07 +0000 2016", "klabel": 5}}, {"geometry": {"type": "Point", "coordinates": [-79.4802198, 43.6496573]}, "type": "Feature", "id": 752704549023023105, "properties": {"loc": [-79.4802198, 43.6496573], "centroid": [-79.29024273177691, 43.815218832451365], "screen_name": "tpscalls", "time": 1468311723.0, "tid": 752704549023023105, "text": "Sound Of Gunshots | Ellis Gdns &amp; Windermere Ave [11 Div.] 07/11 23:15 #Old_Toronto", "created_at": "Tue Jul 12 03:22:03 +0000 2016", "klabel": 5}}, {"geometry": {"type": "Point", "coordinates": [-79.4954795, 43.6504877]}, "type": "Feature", "id": 752862845017137152, "properties": {"loc": [-79.4954795, 43.6504877], "centroid": [-79.29024273177691, 43.815218832451365], "screen_name": "tpscalls", "time": 1468349464.0, "tid": 752862845017137152, "text": "Fire | Humber River Recreational Trl &amp; Old Mill Trl [22 Div.] 07/12 09:46 #The_Kingsway #Toronto", "created_at": "Tue Jul 12 13:51:04 +0000 2016", "klabel": 5}}, {"geometry": {"type": "Point", "coordinates": [-79.4778, 43.6439]}, "type": "Feature", "id": 753006781614452740, "properties": {"loc": [-79.4778, 43.6439], "centroid": [-79.29024273177691, 43.815218832451365], "screen_name": "breeeathe", "time": 1468383781.0, "tid": 753006781614452740, "text": "#aircooled #ac #leather #couch #pugs #chill #dogs  #twopugschilling @ Swansea, Toronto https://t.co/iHjQiuf9ZC", "created_at": "Tue Jul 12 23:23:01 +0000 2016", "klabel": 5}}, {"geometry": {"type": "Point", "coordinates": [-79.475076, 43.651649]}, "type": "Feature", "id": 753217577153953792, "properties": {"loc": [-79.475076, 43.651649], "centroid": [-79.29024273177691, 43.815218832451365], "screen_name": "TheTemp_tress", "time": 1468434039.0, "tid": 753217577153953792, "text": "Hello gorgeous is right! We love helping you get gorgeous for your summer events, call to book!\u2026 https://t.co/HDqqPos1GE", "created_at": "Wed Jul 13 13:20:39 +0000 2016", "klabel": 5}}, {"geometry": {"type": "Point", "coordinates": [-79.4762421, 43.6484795]}, "type": "Feature", "id": 753282164175806464, "properties": {"loc": [-79.4762421, 43.6484795], "centroid": [-79.29024273177691, 43.815218832451365], "screen_name": "SuahTO", "time": 1468449437.0, "tid": 753282164175806464, "text": "#Varadero, #Tulum, #PuntaCana, #Tamarindo, #Margarita, #Cartagena, #Valpara\u00edso... Fiest\u00f3n de\u2026 https://t.co/Aw9suDj3As", "created_at": "Wed Jul 13 17:37:17 +0000 2016", "klabel": 5}}, {"geometry": {"type": "Point", "coordinates": [-79.48407, 43.64961]}, "type": "Feature", "id": 753303452655190016, "properties": {"loc": [-79.48407, 43.64961], "centroid": [-79.29024273177691, 43.815218832451365], "screen_name": "JessicaSerrao27", "time": 1468454513.0, "tid": 753303452655190016, "text": "sometimes you gotta throw out your tim hortons panini and eat some real food #brunchtime \ud83c\udf1e\ud83c\udf7d @\u2026 https://t.co/LLFkQ0xv6e", "created_at": "Wed Jul 13 19:01:53 +0000 2016", "klabel": 5}}, {"geometry": {"type": "Point", "coordinates": [-79.4849799, 43.65934]}, "type": "Feature", "id": 753342011713982464, "properties": {"loc": [-79.4849799, 43.65934], "centroid": [-79.29024273177691, 43.815218832451365], "screen_name": "maris_c", "time": 1468463706.0, "tid": 753342011713982464, "text": "Strawberry topped ice cream at the market today @AnnetteV_Market #farmersmarket @ Runnymede\u2026 https://t.co/iGauz0mhmf", "created_at": "Wed Jul 13 21:35:06 +0000 2016", "klabel": 5}}, {"geometry": {"type": "Point", "coordinates": [-79.47554916, 43.65118417]}, "type": "Feature", "id": 753354705988882432, "properties": {"loc": [-79.47554916, 43.65118417], "centroid": [-79.29024273177691, 43.815218832451365], "screen_name": "rrehders", "time": 1468466733.0, "tid": 753354705988882432, "text": "Public derive announcement, 5$ pints and air conditioning !!! #staycoolTO (@ The @KennedyPublic House) https://t.co/oDTaqUbj8K", "created_at": "Wed Jul 13 22:25:33 +0000 2016", "klabel": 5}}, {"geometry": {"type": "Point", "coordinates": [-79.4843099, 43.6575262]}, "type": "Feature", "id": 753404158812839936, "properties": {"loc": [-79.4843099, 43.6575262], "centroid": [-79.29024273177691, 43.815218832451365], "screen_name": "tpscalls", "time": 1468478523.0, "tid": 753404158812839936, "text": "Disorderlies | Windermere Ave &amp; Willard Ave [11 Div.] 07/13 21:38 #Toronto", "created_at": "Thu Jul 14 01:42:03 +0000 2016", "klabel": 5}}, {"geometry": {"type": "Point", "coordinates": [-79.4802198, 43.6496573]}, "type": "Feature", "id": 753569749980839936, "properties": {"loc": [-79.4802198, 43.6496573], "centroid": [-79.29024273177691, 43.815218832451365], "screen_name": "tpscalls", "time": 1468518003.0, "tid": 753569749980839936, "text": "Unknown Trouble | Ellis Gdns &amp; Windermere Ave [11 Div.] 07/14 08:35 #Old_Toronto", "created_at": "Thu Jul 14 12:40:03 +0000 2016", "klabel": 5}}, {"geometry": {"type": "Point", "coordinates": [-79.475076, 43.651649]}, "type": "Feature", "id": 753601619552526336, "properties": {"loc": [-79.475076, 43.651649], "centroid": [-79.29024273177691, 43.815218832451365], "screen_name": "TheTemp_tress", "time": 1468525601.0, "tid": 753601619552526336, "text": "We Blo so well we'll make you speechless \ud83d\ude0d Such an amazing transformation done by stylist\u2026 https://t.co/EKsK1iFbVd", "created_at": "Thu Jul 14 14:46:41 +0000 2016", "klabel": 5}}, {"geometry": {"type": "Point", "coordinates": [-79.493434, 43.645513]}, "type": "Feature", "id": 753640466101436416, "properties": {"loc": [-79.493434, 43.645513], "centroid": [-79.29024273177691, 43.815218832451365], "screen_name": "tofire", "time": 1468534863.0, "tid": 753640466101436416, "text": "Medical (Allergy) - The Queensway b/w Humber River Recreational Trail / High St, Etobicoke (2 Trucks)", "created_at": "Thu Jul 14 17:21:03 +0000 2016", "klabel": 5}}, {"geometry": {"type": "Point", "coordinates": [-79.478314, 43.6417839]}, "type": "Feature", "id": 753666385901973504, "properties": {"loc": [-79.478314, 43.6417839], "centroid": [-79.29024273177691, 43.815218832451365], "screen_name": "tpscalls", "time": 1468541043.0, "tid": 753666385901973504, "text": "Wires Down | Ln E South Kingsway N Ormskirk &amp; Worthington Cres [11 Div.] 07/14 14:57 #Swansea #Toronto", "created_at": "Thu Jul 14 19:04:03 +0000 2016", "klabel": 5}}, {"geometry": {"type": "Point", "coordinates": [-79.47563, 43.65101]}, "type": "Feature", "id": 753739347711684608, "properties": {"loc": [-79.47563, 43.65101], "centroid": [-79.29024273177691, 43.815218832451365], "screen_name": "KevinTCraig", "time": 1468558438.0, "tid": 753739347711684608, "text": "#johnnyrotten \"I love being alive so much. When you come out of comas in your childhood, every\u2026 https://t.co/7QqYqi763s", "created_at": "Thu Jul 14 23:53:58 +0000 2016", "klabel": 5}}, {"geometry": {"type": "Point", "coordinates": [-79.481303, 43.65011]}, "type": "Feature", "id": 753741395798683649, "properties": {"loc": [-79.481303, 43.65011], "centroid": [-79.29024273177691, 43.815218832451365], "screen_name": "emmalinnankivi", "time": 1468558927.0, "tid": 753741395798683649, "text": "Tropical vibes @ The Ten Spot https://t.co/SlDcH4uc1n", "created_at": "Fri Jul 15 00:02:07 +0000 2016", "klabel": 5}}, {"geometry": {"type": "Point", "coordinates": [-79.4843099, 43.6575262]}, "type": "Feature", "id": 753836254089707520, "properties": {"loc": [-79.4843099, 43.6575262], "centroid": [-79.29024273177691, 43.815218832451365], "screen_name": "tpscalls", "time": 1468581543.0, "tid": 753836254089707520, "text": "Hazard | Willard Ave &amp; Willard Ave [11 Div.] 07/15 02:14 #Toronto", "created_at": "Fri Jul 15 06:19:03 +0000 2016", "klabel": 5}}, {"geometry": {"type": "Point", "coordinates": [-79.4893, 43.6521]}, "type": "Feature", "id": 753930997524271104, "properties": {"loc": [-79.4893, 43.6521], "centroid": [-79.29024273177691, 43.815218832451365], "screen_name": "e_c_photo", "time": 1468604131.0, "tid": 753930997524271104, "text": "Rest, you're home @ Old Mill, Toronto https://t.co/WFrgBXgrAd", "created_at": "Fri Jul 15 12:35:31 +0000 2016", "klabel": 5}}, {"geometry": {"type": "Point", "coordinates": [-79.4893, 43.6521]}, "type": "Feature", "id": 753961041197993985, "properties": {"loc": [-79.4893, 43.6521], "centroid": [-79.29024273177691, 43.815218832451365], "screen_name": "e_c_photo", "time": 1468611294.0, "tid": 753961041197993985, "text": "Absolutely ADORED the decor for this wedding!!! Dinner by candlelight with fluffy flowers \u2728\ud83d\udcab @\u2026 https://t.co/A0snRNNrtV", "created_at": "Fri Jul 15 14:34:54 +0000 2016", "klabel": 5}}, {"geometry": {"type": "Point", "coordinates": [-79.4838953, 43.65010074]}, "type": "Feature", "id": 753978121083359232, "properties": {"loc": [-79.4838953, 43.65010074], "centroid": [-79.29024273177691, 43.815218832451365], "screen_name": "December_Song", "time": 1468615366.0, "tid": 753978121083359232, "text": "I'm at Jane Subway Station in Toronto, ON https://t.co/6i7UJVvVYH", "created_at": "Fri Jul 15 15:42:46 +0000 2016", "klabel": 5}}, {"geometry": {"type": "Point", "coordinates": [-79.4836826, 43.64980188]}, "type": "Feature", "id": 753978300201111552, "properties": {"loc": [-79.4836826, 43.64980188], "centroid": [-79.29024273177691, 43.815218832451365], "screen_name": "December_Song", "time": 1468615409.0, "tid": 753978300201111552, "text": "I'm at @BoosterJuice in Toronto, ON https://t.co/3P0cXreG5K", "created_at": "Fri Jul 15 15:43:29 +0000 2016", "klabel": 5}}, {"geometry": {"type": "Point", "coordinates": [-79.48367821, 43.64952198]}, "type": "Feature", "id": 753978433869344768, "properties": {"loc": [-79.48367821, 43.64952198], "centroid": [-79.29024273177691, 43.815218832451365], "screen_name": "December_Song", "time": 1468615441.0, "tid": 753978433869344768, "text": "I'm at Pizzaiolo in Toronto, ON https://t.co/roSx5J3SRb", "created_at": "Fri Jul 15 15:44:01 +0000 2016", "klabel": 5}}, {"geometry": {"type": "Point", "coordinates": [-79.4877228, 43.6497936]}, "type": "Feature", "id": 754027939986042880, "properties": {"loc": [-79.4877228, 43.6497936], "centroid": [-79.29024273177691, 43.815218832451365], "screen_name": "tpscalls", "time": 1468627244.0, "tid": 754027939986042880, "text": "Disorderlies | Jane St &amp; Riverview Gdns [11 Div.] 07/15 14:55 #York #Toronto", "created_at": "Fri Jul 15 19:00:44 +0000 2016", "klabel": 5}}, {"geometry": {"type": "Point", "coordinates": [-79.48284152, 43.64969233]}, "type": "Feature", "id": 754033597913374720, "properties": {"loc": [-79.48284152, 43.64969233], "centroid": [-79.29024273177691, 43.815218832451365], "screen_name": "MarissaBronfman", "time": 1468628593.0, "tid": 754033597913374720, "text": "The irresistible #vegan Janina platter with grilled eggplant, lentils and rice, middle eastern\u2026 https://t.co/sYJjnpigRc", "created_at": "Fri Jul 15 19:23:13 +0000 2016", "klabel": 5}}, {"geometry": {"type": "Point", "coordinates": [-79.4708218, 43.6521306]}, "type": "Feature", "id": 754034463286267904, "properties": {"loc": [-79.4708218, 43.6521306], "centroid": [-79.29024273177691, 43.815218832451365], "screen_name": "tmj_gta_hrta", "time": 1468628799.0, "tid": 754034463286267904, "text": "If you're looking for work in 1997 BLOOR ST W, #TORONTO, ON, check out this #job: https://t.co/B15xVUU103 #Hospitality #Veterans #Hiring", "created_at": "Fri Jul 15 19:26:39 +0000 2016", "klabel": 5}}, {"geometry": {"type": "Point", "coordinates": [-79.48497, 43.64863]}, "type": "Feature", "id": 754069827531091968, "properties": {"loc": [-79.48497, 43.64863], "centroid": [-79.29024273177691, 43.815218832451365], "screen_name": "mipupico", "time": 1468637231.0, "tid": 754069827531091968, "text": "Dog walks made easier by @lead_mate \ud83d\udc36\ud83d\udc4f\ud83c\udffc Now available at #mipupico \u2728\u2026 https://t.co/Rbrf90NSFk", "created_at": "Fri Jul 15 21:47:11 +0000 2016", "klabel": 5}}, {"geometry": {"type": "Point", "coordinates": [-79.4837344, 43.6493759]}, "type": "Feature", "id": 754074073060237312, "properties": {"loc": [-79.4837344, 43.6493759], "centroid": [-79.29024273177691, 43.815218832451365], "screen_name": "tpscalls", "time": 1468638243.0, "tid": 754074073060237312, "text": "Arrest | Roncesvalles Ave &amp; Bloor St W [11 Div.] 07/15 18:00 #2425 #Toronto", "created_at": "Fri Jul 15 22:04:03 +0000 2016", "klabel": 5}}, {"geometry": {"type": "Point", "coordinates": [-79.4878733, 43.6578623]}, "type": "Feature", "id": 754125417573969920, "properties": {"loc": [-79.4878733, 43.6578623], "centroid": [-79.29024273177691, 43.815218832451365], "screen_name": "woodys_burgers", "time": 1468650485.0, "tid": 754125417573969920, "text": "Our Jane location has been busy today!\n Back open tomorrow at 11 am! https://t.co/2SViRZWbvG", "created_at": "Sat Jul 16 01:28:05 +0000 2016", "klabel": 5}}, {"geometry": {"type": "Point", "coordinates": [-79.4721086, 43.654315]}, "type": "Feature", "id": 754187827701841922, "properties": {"loc": [-79.4721086, 43.654315], "centroid": [-79.29024273177691, 43.815218832451365], "screen_name": "tpscalls", "time": 1468665364.0, "tid": 754187827701841922, "text": "Noisy Party | Oakview Ave &amp; Elora Rd [11 Div.] 07/16 01:31 #High_Park_North #Toronto", "created_at": "Sat Jul 16 05:36:04 +0000 2016", "klabel": 5}}, {"geometry": {"type": "Point", "coordinates": [-79.48342323, 43.6496385]}, "type": "Feature", "id": 754325504895938560, "properties": {"loc": [-79.48342323, 43.6496385], "centroid": [-79.29024273177691, 43.815218832451365], "screen_name": "HUMsandy", "time": 1468698189.0, "tid": 754325504895938560, "text": "Morning Breakfast time @coffeetreeroast #bloorwest #brunch #foodstagram #toronto #highpark @\u2026 https://t.co/iHEN3Ilkrb", "created_at": "Sat Jul 16 14:43:09 +0000 2016", "klabel": 5}}, {"geometry": {"type": "Point", "coordinates": [-79.4835353, 43.64958563]}, "type": "Feature", "id": 754332065663897600, "properties": {"loc": [-79.4835353, 43.64958563], "centroid": [-79.29024273177691, 43.815218832451365], "screen_name": "Bucky_5000", "time": 1468699753.0, "tid": 754332065663897600, "text": "Time to fix this mess! @ Serenity Nail &amp; Spa https://t.co/9Wuq6LYuay", "created_at": "Sat Jul 16 15:09:13 +0000 2016", "klabel": 5}}, {"geometry": {"type": "Point", "coordinates": [-79.48788, 43.65849]}, "type": "Feature", "id": 754354577311399936, "properties": {"loc": [-79.48788, 43.65849], "centroid": [-79.29024273177691, 43.815218832451365], "screen_name": "jsquaredink", "time": 1468705121.0, "tid": 754354577311399936, "text": "\u2615\ufe0f @ Patisserie 27 https://t.co/w3BPsC4pw8", "created_at": "Sat Jul 16 16:38:41 +0000 2016", "klabel": 5}}, {"geometry": {"type": "Point", "coordinates": [-79.475076, 43.651649]}, "type": "Feature", "id": 754387615344984066, "properties": {"loc": [-79.475076, 43.651649], "centroid": [-79.29024273177691, 43.815218832451365], "screen_name": "TheTemp_tress", "time": 1468712997.0, "tid": 754387615344984066, "text": "Romantic curls pulled back into a beautiful updo. An updo is the perfect way to polish off your\u2026 https://t.co/4JyOrgWXGc", "created_at": "Sat Jul 16 18:49:57 +0000 2016", "klabel": 5}}, {"geometry": {"type": "Point", "coordinates": [-79.4844503, 43.6493271]}, "type": "Feature", "id": 754395190442520576, "properties": {"loc": [-79.4844503, 43.6493271], "centroid": [-79.29024273177691, 43.815218832451365], "screen_name": "tofiref", "time": 1468714804.0, "tid": 754395190442520576, "text": "Fire (Grass/rubbish) - Bloor St West @ Jane St, Toronto (2 Trucks)", "created_at": "Sat Jul 16 19:20:04 +0000 2016", "klabel": 5}}, {"geometry": {"type": "Point", "coordinates": [-79.4844503, 43.6493271]}, "type": "Feature", "id": 754395189423247360, "properties": {"loc": [-79.4844503, 43.6493271], "centroid": [-79.29024273177691, 43.815218832451365], "screen_name": "tofireW", "time": 1468714803.0, "tid": 754395189423247360, "text": "Fire (Grass/rubbish) - Bloor St West @ Jane St, Toronto (2 Trucks)", "created_at": "Sat Jul 16 19:20:03 +0000 2016", "klabel": 5}}, {"geometry": {"type": "Point", "coordinates": [-79.4759902, 43.6513959]}, "type": "Feature", "id": 754423016193265664, "properties": {"loc": [-79.4759902, 43.6513959], "centroid": [-79.29024273177691, 43.815218832451365], "screen_name": "tmj_gta_hrta", "time": 1468721438.0, "tid": 754423016193265664, "text": "Can you recommend anyone for this #job? https://t.co/AW4IKGsFYJ #Hospitality #Veterans #Hiring #CareerArc", "created_at": "Sat Jul 16 21:10:38 +0000 2016", "klabel": 5}}, {"geometry": {"type": "Point", "coordinates": [-79.4778, 43.6439]}, "type": "Feature", "id": 754463067719610368, "properties": {"loc": [-79.4778, 43.6439], "centroid": [-79.29024273177691, 43.815218832451365], "screen_name": "breeeathe", "time": 1468730987.0, "tid": 754463067719610368, "text": "#twopugschilling #best #spot #between #the #couch and #daddy 's #leg #buca #blackpug @ Swansea,\u2026 https://t.co/Z6JmZeIvrS", "created_at": "Sat Jul 16 23:49:47 +0000 2016", "klabel": 5}}, {"geometry": {"type": "Point", "coordinates": [-79.4816304, 43.6539544]}, "type": "Feature", "id": 754529076212359168, "properties": {"loc": [-79.4816304, 43.6539544], "centroid": [-79.29024273177691, 43.815218832451365], "screen_name": "tpscalls", "time": 1468746724.0, "tid": 754529076212359168, "text": "See Ambulance | Bloor St W &amp; Colbeck St [11 Div.] 07/17 00:08 #Old_Toronto", "created_at": "Sun Jul 17 04:12:04 +0000 2016", "klabel": 5}}, {"geometry": {"type": "Point", "coordinates": [-79.486555, 43.648048]}, "type": "Feature", "id": 754533592798224384, "properties": {"loc": [-79.486555, 43.648048], "centroid": [-79.29024273177691, 43.815218832451365], "screen_name": "eTRiTcom", "time": 1468747801.0, "tid": 754533592798224384, "text": "Absolute Health, York, ON, M6S 1R4 - https://t.co/FshTybYkKC\n\n#absolutehealth #chiropractor #reviews", "created_at": "Sun Jul 17 04:30:01 +0000 2016", "klabel": 5}}, {"geometry": {"type": "Point", "coordinates": [-79.47968, 43.65017]}, "type": "Feature", "id": 754542529513525248, "properties": {"loc": [-79.47968, 43.65017], "centroid": [-79.29024273177691, 43.815218832451365], "screen_name": "SugaBabe_14", "time": 1468749932.0, "tid": 754542529513525248, "text": "#Summatime #6 #TO @ Bloom Restaurant https://t.co/RkzIty3ARk", "created_at": "Sun Jul 17 05:05:32 +0000 2016", "klabel": 5}}, {"geometry": {"type": "Point", "coordinates": [-79.48836, 43.658879]}, "type": "Feature", "id": 754544919121842176, "properties": {"loc": [-79.48836, 43.658879], "centroid": [-79.29024273177691, 43.815218832451365], "screen_name": "eTRiTcom", "time": 1468750502.0, "tid": 754544919121842176, "text": "Allied Health Clinic, York, ON, M6S 3Z7 - https://t.co/P7U0L5gKWp\n\n#alliedhealthclinic #chiropractor #reviews", "created_at": "Sun Jul 17 05:15:02 +0000 2016", "klabel": 5}}, {"geometry": {"type": "Point", "coordinates": [-79.484571, 43.649387]}, "type": "Feature", "id": 754560017790099456, "properties": {"loc": [-79.484571, 43.649387], "centroid": [-79.29024273177691, 43.815218832451365], "screen_name": "eTRiTcom", "time": 1468754101.0, "tid": 754560017790099456, "text": "Canadian Institute Of Spinal Health - https://t.co/YBnqaG7TZL\n\n#canadianinstituteofspinalhealth #chiropractor #reviews", "created_at": "Sun Jul 17 06:15:01 +0000 2016", "klabel": 5}}, {"geometry": {"type": "Point", "coordinates": [-79.4708218, 43.6521306]}, "type": "Feature", "id": 754704116736155648, "properties": {"loc": [-79.4708218, 43.6521306], "centroid": [-79.29024273177691, 43.815218832451365], "screen_name": "tmj_gta_hrta", "time": 1468788457.0, "tid": 754704116736155648, "text": "Want to work at Starbucks? We're #hiring in 1997 BLOOR ST W, #TORONTO, ON! Click for details: https://t.co/ge3ByZw8jY #Job #Hospitality", "created_at": "Sun Jul 17 15:47:37 +0000 2016", "klabel": 5}}, {"geometry": {"type": "Point", "coordinates": [-79.474406, 43.651671]}, "type": "Feature", "id": 754739142500741120, "properties": {"loc": [-79.474406, 43.651671], "centroid": [-79.29024273177691, 43.815218832451365], "screen_name": "LongsliceBrews", "time": 1468796808.0, "tid": 754739142500741120, "text": "Grabbing some cold #hopstalavista at the Bloor and Runnymede lcbo!\n#yeahibuymyownbeer #whatever\u2026 https://t.co/uPqHWZhuxW", "created_at": "Sun Jul 17 18:06:48 +0000 2016", "klabel": 5}}, {"geometry": {"type": "Point", "coordinates": [-79.4943254, 43.6383113]}, "type": "Feature", "id": 754790547299131392, "properties": {"loc": [-79.4943254, 43.6383113], "centroid": [-79.29024273177691, 43.815218832451365], "screen_name": "tofire", "time": 1468809064.0, "tid": 754790547299131392, "text": "Medical (Trouble Breathing) - Hill Heights Road b/w Park Lawn Road / Crown Hill Pl, Etobicoke (2 Trucks)", "created_at": "Sun Jul 17 21:31:04 +0000 2016", "klabel": 5}}, {"geometry": {"type": "Point", "coordinates": [-79.4954932, 43.6512812]}, "type": "Feature", "id": 754791807830134784, "properties": {"loc": [-79.4954932, 43.6512812], "centroid": [-79.29024273177691, 43.815218832451365], "screen_name": "tofire", "time": 1468809364.0, "tid": 754791807830134784, "text": "Alarm Highrise Residential - Old Mill Dr b/w Lane North Bloor East Old Mill Dr / Riverside Dr, Toronto (6 Trucks)", "created_at": "Sun Jul 17 21:36:04 +0000 2016", "klabel": 5}}, {"geometry": {"type": "Point", "coordinates": [-79.4893, 43.6521]}, "type": "Feature", "id": 755051644899831808, "properties": {"loc": [-79.4893, 43.6521], "centroid": [-79.29024273177691, 43.815218832451365], "screen_name": "oldmilltoronto", "time": 1468871314.0, "tid": 755051644899831808, "text": "Enjoying the silence! #garden #hotellife #waterfall #cityscape #humberrivertrail #enjoying @ Old\u2026 https://t.co/QHs6LE2Hxk", "created_at": "Mon Jul 18 14:48:34 +0000 2016", "klabel": 5}}, {"geometry": {"type": "Point", "coordinates": [-79.47820907, 43.65073156]}, "type": "Feature", "id": 755054757685800961, "properties": {"loc": [-79.47820907, 43.65073156], "centroid": [-79.29024273177691, 43.815218832451365], "screen_name": "shayman", "time": 1468872057.0, "tid": 755054757685800961, "text": "Here at the dental-industrial complex there are five people just to answer the phones, handle schedules, billing  etc.", "created_at": "Mon Jul 18 15:00:57 +0000 2016", "klabel": 5}}, {"geometry": {"type": "Point", "coordinates": [-79.4771437, 43.6483424]}, "type": "Feature", "id": 755088773675937793, "properties": {"loc": [-79.4771437, 43.6483424], "centroid": [-79.29024273177691, 43.815218832451365], "screen_name": "tofireW", "time": 1468880167.0, "tid": 755088773675937793, "text": "Medical (Allergy) - Deforest Road b/w Durie St / Lavinia Avenue, Toronto (2 Trucks)", "created_at": "Mon Jul 18 17:16:07 +0000 2016", "klabel": 5}}, {"geometry": {"type": "Point", "coordinates": [-79.4771437, 43.6483424]}, "type": "Feature", "id": 755088772539252736, "properties": {"loc": [-79.4771437, 43.6483424], "centroid": [-79.29024273177691, 43.815218832451365], "screen_name": "tofire", "time": 1468880166.0, "tid": 755088772539252736, "text": "Medical (Allergy) - Deforest Road b/w Durie St / Lavinia Avenue, Toronto (2 Trucks)", "created_at": "Mon Jul 18 17:16:06 +0000 2016", "klabel": 5}}, {"geometry": {"type": "Point", "coordinates": [-79.4747566, 43.6534419]}, "type": "Feature", "id": 755130032562049025, "properties": {"loc": [-79.4747566, 43.6534419], "centroid": [-79.29024273177691, 43.815218832451365], "screen_name": "tpscalls", "time": 1468890004.0, "tid": 755130032562049025, "text": "Holding One | Glendonwynne Rd &amp; Kennedy Ave [11 Div.] 07/18 15:55 #High_Park_North #Toronto", "created_at": "Mon Jul 18 20:00:04 +0000 2016", "klabel": 5}}, {"geometry": {"type": "Point", "coordinates": [-79.4740112, 43.6516426]}, "type": "Feature", "id": 755159479579279360, "properties": {"loc": [-79.4740112, 43.6516426], "centroid": [-79.29024273177691, 43.815218832451365], "screen_name": "tpscalls", "time": 1468897024.0, "tid": 755159479579279360, "text": "Holding One With Trouble | Bloor St W &amp; Glendonwynne Rd [11 Div.] 07/18 17:51 #Bloor_West_Village #Toronto", "created_at": "Mon Jul 18 21:57:04 +0000 2016", "klabel": 5}}, {"geometry": {"type": "Point", "coordinates": [-79.4944, 43.6528]}, "type": "Feature", "id": 755234928137269248, "properties": {"loc": [-79.4944, 43.6528], "centroid": [-79.29024273177691, 43.815218832451365], "screen_name": "lockpandorasbox", "time": 1468915013.0, "tid": 755234928137269248, "text": "#nature #trees #etiennebrulepark @ Etienne Brule Park https://t.co/7PtA4oedEH", "created_at": "Tue Jul 19 02:56:53 +0000 2016", "klabel": 5}}, {"geometry": {"type": "Point", "coordinates": [-79.4847585, 43.6491892]}, "type": "Feature", "id": 755385209978249217, "properties": {"loc": [-79.4847585, 43.6491892], "centroid": [-79.29024273177691, 43.815218832451365], "screen_name": "tpscalls", "time": 1468950843.0, "tid": 755385209978249217, "text": "Disorderlies | Hepbourne St &amp; Bloor St W [14 Div.] 07/19 08:49 #Toronto", "created_at": "Tue Jul 19 12:54:03 +0000 2016", "klabel": 5}}, {"geometry": {"type": "Point", "coordinates": [-79.4844503, 43.6493271]}, "type": "Feature", "id": 755467511353708544, "properties": {"loc": [-79.4844503, 43.6493271], "centroid": [-79.29024273177691, 43.815218832451365], "screen_name": "tofiref", "time": 1468970465.0, "tid": 755467511353708544, "text": "Fire (Grass/rubbish) - Jane St b/w Bloor St West / Rivercrest Road, Toronto (2 Trucks)", "created_at": "Tue Jul 19 18:21:05 +0000 2016", "klabel": 5}}, {"geometry": {"type": "Point", "coordinates": [-79.4934006, 43.6509399]}, "type": "Feature", "id": 755593359687909376, "properties": {"loc": [-79.4934006, 43.6509399], "centroid": [-79.29024273177691, 43.815218832451365], "screen_name": "nikilau", "time": 1469000469.0, "tid": 755593359687909376, "text": "Channeling @jimgaffigan \"why don't we pretend we own a kingdom...\" #mrandmrsgazzellone\u2026 https://t.co/9B7Bh0rktb", "created_at": "Wed Jul 20 02:41:09 +0000 2016", "klabel": 5}}, {"geometry": {"type": "Point", "coordinates": [-79.4764299, 43.65093]}, "type": "Feature", "id": 755800673254535168, "properties": {"loc": [-79.4764299, 43.65093], "centroid": [-79.29024273177691, 43.815218832451365], "screen_name": "shannonddooks", "time": 1469049897.0, "tid": 755800673254535168, "text": "It may be the prettiest Shoppers Drug Mart I've seen, but it should have stayed a theatre... \ud83c\udfad\u2026 https://t.co/sHSaijLN6O", "created_at": "Wed Jul 20 16:24:57 +0000 2016", "klabel": 5}}, {"geometry": {"type": "Point", "coordinates": [-79.47876, 43.65034]}, "type": "Feature", "id": 755875314732003328, "properties": {"loc": [-79.47876, 43.65034], "centroid": [-79.29024273177691, 43.815218832451365], "screen_name": "shelaghmurphy", "time": 1469067693.0, "tid": 755875314732003328, "text": "Perfect place to enjoy my supper salad \ud83d\ude0a #summerintoronto #bloorwestvillage #eathealthy\u2026 https://t.co/4t6yvI56rY", "created_at": "Wed Jul 20 21:21:33 +0000 2016", "klabel": 5}}, {"geometry": {"type": "Point", "coordinates": [-79.4787, 43.65035]}, "type": "Feature", "id": 755894989654286336, "properties": {"loc": [-79.4787, 43.65035], "centroid": [-79.29024273177691, 43.815218832451365], "screen_name": "BloorMeatMarket", "time": 1469072384.0, "tid": 755894989654286336, "text": "We are now supplying Bio Organic Thick Style Yogurt from Riviera. Available in 4 packs of 120g\u2026 https://t.co/qqS2eok2aO", "created_at": "Wed Jul 20 22:39:44 +0000 2016", "klabel": 5}}, {"geometry": {"type": "Point", "coordinates": [-79.4847585, 43.6491892]}, "type": "Feature", "id": 755902369020469248, "properties": {"loc": [-79.4847585, 43.6491892], "centroid": [-79.29024273177691, 43.815218832451365], "screen_name": "tpscalls", "time": 1469074143.0, "tid": 755902369020469248, "text": "Assist Ambulance | Hepbourne St &amp; Bloor St W [14 Div.] 07/20 19:03 #Toronto", "created_at": "Wed Jul 20 23:09:03 +0000 2016", "klabel": 5}}, {"geometry": {"type": "Point", "coordinates": [-79.48005615, 43.65024883]}, "type": "Feature", "id": 756014459752181760, "properties": {"loc": [-79.48005615, 43.65024883], "centroid": [-79.29024273177691, 43.815218832451365], "screen_name": "anadusovaXO", "time": 1469100867.0, "tid": 756014459752181760, "text": "Late night Pokemon hunts @ Bloor Street West Village https://t.co/Jjk8nhebjR", "created_at": "Thu Jul 21 06:34:27 +0000 2016", "klabel": 5}}, {"geometry": {"type": "Point", "coordinates": [-79.4775, 43.6508]}, "type": "Feature", "id": 756144151155077124, "properties": {"loc": [-79.4775, 43.6508], "centroid": [-79.29024273177691, 43.815218832451365], "screen_name": "NewBalanceTO", "time": 1469131788.0, "tid": 756144151155077124, "text": "RUNNING ENTRY 5 \u25ab\u25ab\u25ab\nThe crew at our Bloor West Village location shows off the Vazee 2090 in both\u2026 https://t.co/FFgvwN4vah", "created_at": "Thu Jul 21 15:09:48 +0000 2016", "klabel": 5}}, {"geometry": {"type": "Point", "coordinates": [-79.484, 43.6595]}, "type": "Feature", "id": 756220596535656448, "properties": {"loc": [-79.484, 43.6595], "centroid": [-79.29024273177691, 43.815218832451365], "screen_name": "fabiocastro27", "time": 1469150014.0, "tid": 756220596535656448, "text": "Voy cargando la mochila de los recuerdos de momentos con mi familia de aqu\u00ed. Un tesoro del que\u2026 https://t.co/wkEj8aoZZ2", "created_at": "Thu Jul 21 20:13:34 +0000 2016", "klabel": 5}}, {"geometry": {"type": "Point", "coordinates": [-79.484, 43.6595]}, "type": "Feature", "id": 756224048103825408, "properties": {"loc": [-79.484, 43.6595], "centroid": [-79.29024273177691, 43.815218832451365], "screen_name": "fabiocastro27", "time": 1469150837.0, "tid": 756224048103825408, "text": "#Midnight in #Westholme. Rodeado de mapaches que pasean en la #noche y un gato que se rasca con\u2026 https://t.co/CehYzaZJek", "created_at": "Thu Jul 21 20:27:17 +0000 2016", "klabel": 5}}, {"geometry": {"type": "Point", "coordinates": [-79.4708218, 43.6521306]}, "type": "Feature", "id": 756227680870158336, "properties": {"loc": [-79.4708218, 43.6521306], "centroid": [-79.29024273177691, 43.815218832451365], "screen_name": "tmj_gta_hrta", "time": 1469151703.0, "tid": 756227680870158336, "text": "See our latest 1997 BLOOR ST W, #TORONTO, ON #job and click to apply: Shift Supervisor (CA) - https://t.co/B15xVUU103 #Hospitality #Hiring", "created_at": "Thu Jul 21 20:41:43 +0000 2016", "klabel": 5}}, {"geometry": {"type": "Point", "coordinates": [-79.48407, 43.64961]}, "type": "Feature", "id": 756239981916528640, "properties": {"loc": [-79.48407, 43.64961], "centroid": [-79.29024273177691, 43.815218832451365], "screen_name": "TheGoodForkTO", "time": 1469154636.0, "tid": 756239981916528640, "text": "Our first case of @Tawse_Winery cider has come in and its delicious! Nice and dry and quite\u2026 https://t.co/iZAYjz9oUj", "created_at": "Thu Jul 21 21:30:36 +0000 2016", "klabel": 5}}, {"geometry": {"type": "Point", "coordinates": [-79.4754823, 43.6512997]}, "type": "Feature", "id": 756258724528939008, "properties": {"loc": [-79.4754823, 43.6512997], "centroid": [-79.29024273177691, 43.815218832451365], "screen_name": "tofire", "time": 1469159105.0, "tid": 756258724528939008, "text": "Medical (Unconscious) - Bloor St West @ Kennedy Avenue, Toronto (2 Trucks)", "created_at": "Thu Jul 21 22:45:05 +0000 2016", "klabel": 5}}, {"geometry": {"type": "Point", "coordinates": [-79.48497, 43.64863]}, "type": "Feature", "id": 756283819477524480, "properties": {"loc": [-79.48497, 43.64863], "centroid": [-79.29024273177691, 43.815218832451365], "screen_name": "mipupico", "time": 1469165088.0, "tid": 756283819477524480, "text": "Pokemon's Taking Over #mipupico\ud83d\udc36\ud83d\udc31 Gotta Catch 'em All!! \u2728\ud83d\udcaa\ud83c\udffc\u2026 https://t.co/rCqIMQtciH", "created_at": "Fri Jul 22 00:24:48 +0000 2016", "klabel": 5}}, {"geometry": {"type": "Point", "coordinates": [-79.4868275, 43.6477757]}, "type": "Feature", "id": 756372194272215041, "properties": {"loc": [-79.4868275, 43.6477757], "centroid": [-79.29024273177691, 43.815218832451365], "screen_name": "JullyBlack", "time": 1469186158.0, "tid": 756372194272215041, "text": "This is ONLY the last 2 minutes of a 60 Minute @i_ambishop \"Simplified\" cause it's been a while\u2026 https://t.co/ASx6mH2EOC", "created_at": "Fri Jul 22 06:15:58 +0000 2016", "klabel": 5}}, {"geometry": {"type": "Point", "coordinates": [-79.4759902, 43.6513959]}, "type": "Feature", "id": 756496309217923073, "properties": {"loc": [-79.4759902, 43.6513959], "centroid": [-79.29024273177691, 43.815218832451365], "screen_name": "tmj_gta_hrta", "time": 1469215749.0, "tid": 756496309217923073, "text": "Want to work in ? View our latest opening: https://t.co/w9O9n2UcJq #Job #Hospitality #Veterans #Jobs #Hiring #CareerArc", "created_at": "Fri Jul 22 14:29:09 +0000 2016", "klabel": 5}}, {"geometry": {"type": "Point", "coordinates": [-79.4829299, 43.6497014]}, "type": "Feature", "id": 756576064135106560, "properties": {"loc": [-79.4829299, 43.6497014], "centroid": [-79.29024273177691, 43.815218832451365], "screen_name": "tofireW", "time": 1469234764.0, "tid": 756576064135106560, "text": "Medical (Trouble Breathing) - Armadale Avenue b/w Bloor St West / Lane North Bloor East Armadale, Toronto (2 Trucks)", "created_at": "Fri Jul 22 19:46:04 +0000 2016", "klabel": 5}}, {"geometry": {"type": "Point", "coordinates": [-79.4700071, 43.6525023]}, "type": "Feature", "id": 756594938830286848, "properties": {"loc": [-79.4700071, 43.6525023], "centroid": [-79.29024273177691, 43.815218832451365], "screen_name": "tofire", "time": 1469239264.0, "tid": 756594938830286848, "text": "Medical (Trouble Breathing) - Bloor St b/w Clendenan Avenue / Ellis Park Road, Toronto (2 Trucks)", "created_at": "Fri Jul 22 21:01:04 +0000 2016", "klabel": 5}}, {"geometry": {"type": "Point", "coordinates": [-79.4700071, 43.6525023]}, "type": "Feature", "id": 756594939622981632, "properties": {"loc": [-79.4700071, 43.6525023], "centroid": [-79.29024273177691, 43.815218832451365], "screen_name": "tofireW", "time": 1469239265.0, "tid": 756594939622981632, "text": "Medical (Trouble Breathing) - Bloor St b/w Clendenan Avenue / Ellis Park Road, Toronto (2 Trucks)", "created_at": "Fri Jul 22 21:01:05 +0000 2016", "klabel": 5}}, {"geometry": {"type": "Point", "coordinates": [-79.4762483, 43.6511429]}, "type": "Feature", "id": 756627903631224832, "properties": {"loc": [-79.4762483, 43.6511429], "centroid": [-79.29024273177691, 43.815218832451365], "screen_name": "tpscalls", "time": 1469247124.0, "tid": 756627903631224832, "text": "Drunk | Bloor St W &amp; Runnymede Rd [11 Div.] 07/22 19:08 #Bloor_West_Village #Toronto", "created_at": "Fri Jul 22 23:12:04 +0000 2016", "klabel": 5}}, {"geometry": {"type": "Point", "coordinates": [-79.4934006, 43.6509399]}, "type": "Feature", "id": 756655564478902272, "properties": {"loc": [-79.4934006, 43.6509399], "centroid": [-79.29024273177691, 43.815218832451365], "screen_name": "CarpeDiem2nelle", "time": 1469253719.0, "tid": 756655564478902272, "text": "#hostingduties hence the unaligned skirt... \ud83d\ude1d #ootd #weddingreception @ Old Mill Inn Weddings https://t.co/peFB5LQk68", "created_at": "Sat Jul 23 01:01:59 +0000 2016", "klabel": 5}}, {"geometry": {"type": "Point", "coordinates": [-79.4847585, 43.6491892]}, "type": "Feature", "id": 756785184700297216, "properties": {"loc": [-79.4847585, 43.6491892], "centroid": [-79.29024273177691, 43.815218832451365], "screen_name": "tpscalls", "time": 1469284623.0, "tid": 756785184700297216, "text": "Noisy Party | Hepbourne St &amp; Bloor St W [14 Div.] 07/23 05:30 #Toronto", "created_at": "Sat Jul 23 09:37:03 +0000 2016", "klabel": 5}}, {"geometry": {"type": "Point", "coordinates": [-79.4759902, 43.6513959]}, "type": "Feature", "id": 756824815214800896, "properties": {"loc": [-79.4759902, 43.6513959], "centroid": [-79.29024273177691, 43.815218832451365], "screen_name": "tmj_gta_hrta", "time": 1469294071.0, "tid": 756824815214800896, "text": "Want to work at Starbucks? We're #hiring in ! Click for details: https://t.co/AW4IKGsFYJ #Job #Hospitality #Veterans #Jobs #CareerArc", "created_at": "Sat Jul 23 12:14:31 +0000 2016", "klabel": 5}}, {"geometry": {"type": "Point", "coordinates": [-79.475076, 43.651649]}, "type": "Feature", "id": 756867298875568128, "properties": {"loc": [-79.475076, 43.651649], "centroid": [-79.29024273177691, 43.815218832451365], "screen_name": "TheTemp_tress", "time": 1469304200.0, "tid": 756867298875568128, "text": "Sexy and sophisticated \ud83d\udc81\ud83c\udffc Beautiful up do a la carte for her summer event. #hairstyle #hair\u2026 https://t.co/SMTXgNO8I1", "created_at": "Sat Jul 23 15:03:20 +0000 2016", "klabel": 5}}, {"geometry": {"type": "Point", "coordinates": [-79.4752, 43.65112]}, "type": "Feature", "id": 756896825219682304, "properties": {"loc": [-79.4752, 43.65112], "centroid": [-79.29024273177691, 43.815218832451365], "screen_name": "MarissaBronfman", "time": 1469311240.0, "tid": 756896825219682304, "text": "Vegan Avocado and Hummus sandwich \ud83d\ude0d #brunch #bloorwest #Toronto @ The Kennedy Public House https://t.co/tWyZXBdU06", "created_at": "Sat Jul 23 17:00:40 +0000 2016", "klabel": 5}}, {"geometry": {"type": "Point", "coordinates": [-79.4934006, 43.6509399]}, "type": "Feature", "id": 756900166330908672, "properties": {"loc": [-79.4934006, 43.6509399], "centroid": [-79.29024273177691, 43.815218832451365], "screen_name": "nikilau", "time": 1469312036.0, "tid": 756900166330908672, "text": "Wedding cake weddingchicks @marthaweddings #caketopper #weddingday #weddingcake #weddingdetails\u2026 https://t.co/kgGsSYOzO1", "created_at": "Sat Jul 23 17:13:56 +0000 2016", "klabel": 5}}, {"geometry": {"type": "Point", "coordinates": [-79.4810177, 43.6578751]}, "type": "Feature", "id": 756925612917460993, "properties": {"loc": [-79.4810177, 43.6578751], "centroid": [-79.29024273177691, 43.815218832451365], "screen_name": "tpscalls", "time": 1469318103.0, "tid": 756925612917460993, "text": "Disorderlies | Runnymede Rd &amp; Beresford Ave [11 Div.] 07/23 14:48 #Runnymede #Toronto", "created_at": "Sat Jul 23 18:55:03 +0000 2016", "klabel": 5}}, {"geometry": {"type": "Point", "coordinates": [-79.49330787, 43.65099604]}, "type": "Feature", "id": 756951922431692800, "properties": {"loc": [-79.49330787, 43.65099604], "centroid": [-79.29024273177691, 43.815218832451365], "screen_name": "LauraR907", "time": 1469324376.0, "tid": 756951922431692800, "text": "33 years of marriage // cheers to the most amazing role models.\nI love you both so much!\u2026 https://t.co/W7SxUY7Wtp", "created_at": "Sat Jul 23 20:39:36 +0000 2016", "klabel": 5}}, {"geometry": {"type": "Point", "coordinates": [-79.4775, 43.6508]}, "type": "Feature", "id": 757085006984536064, "properties": {"loc": [-79.4775, 43.6508], "centroid": [-79.29024273177691, 43.815218832451365], "screen_name": "AlexCarroni", "time": 1469356106.0, "tid": 757085006984536064, "text": "It's #watomelon time with my boo\ud83d\ude04\ud83c\udf49\ud83c\udf49\ud83c\udf49 #summerdelights @ Bloor West\u2026 https://t.co/XwetNDYH79", "created_at": "Sun Jul 24 05:28:26 +0000 2016", "klabel": 5}}, {"geometry": {"type": "Point", "coordinates": [-79.4844503, 43.6493271]}, "type": "Feature", "id": 757140021124235264, "properties": {"loc": [-79.4844503, 43.6493271], "centroid": [-79.29024273177691, 43.815218832451365], "screen_name": "tpscalls", "time": 1469369222.0, "tid": 757140021124235264, "text": "Hazard | Bloor St W &amp; Jane St [11 Div.] 07/24 05:00 #Swansea #Toronto", "created_at": "Sun Jul 24 09:07:02 +0000 2016", "klabel": 5}}, {"geometry": {"type": "Point", "coordinates": [-79.481025, 43.6630788]}, "type": "Feature", "id": 757155877518540800, "properties": {"loc": [-79.481025, 43.6630788], "centroid": [-79.29024273177691, 43.815218832451365], "screen_name": "tpscalls", "time": 1469373003.0, "tid": 757155877518540800, "text": "Fire | Maher Ave &amp; Vernon St [11 Div.] 07/24 06:04 #The_Junction #Toronto", "created_at": "Sun Jul 24 10:10:03 +0000 2016", "klabel": 5}}, {"geometry": {"type": "Point", "coordinates": [-79.4934006, 43.6509399]}, "type": "Feature", "id": 757174361568768000, "properties": {"loc": [-79.4934006, 43.6509399], "centroid": [-79.29024273177691, 43.815218832451365], "screen_name": "CarpeDiem2nelle", "time": 1469377410.0, "tid": 757174361568768000, "text": "That time alone with the #weddinggown tho'. \ud83d\udc70\ud83c\udffb #everygirlsdream #hostingduties #hostess #emcee\u2026 https://t.co/LIbKg8JAyZ", "created_at": "Sun Jul 24 11:23:30 +0000 2016", "klabel": 5}}, {"geometry": {"type": "Point", "coordinates": [-79.49330787, 43.65099604]}, "type": "Feature", "id": 757243402882805761, "properties": {"loc": [-79.49330787, 43.65099604], "centroid": [-79.29024273177691, 43.815218832451365], "screen_name": "nazsyed", "time": 1469393870.0, "tid": 757243402882805761, "text": "Gorgeous afternoon with gorgeous ladies for our soon to be gorgeous\u2026 https://t.co/4UyXa0GLCS", "created_at": "Sun Jul 24 15:57:50 +0000 2016", "klabel": 5}}, {"geometry": {"type": "Point", "coordinates": [-79.4837344, 43.6493759]}, "type": "Feature", "id": 757246478117134336, "properties": {"loc": [-79.4837344, 43.6493759], "centroid": [-79.29024273177691, 43.815218832451365], "screen_name": "tpscalls", "time": 1469394603.0, "tid": 757246478117134336, "text": "Theft Just Occurred | Roncesvalles Ave &amp; Bloor St W [11 Div.] 07/24 12:03 #2425 #Toronto", "created_at": "Sun Jul 24 16:10:03 +0000 2016", "klabel": 5}}, {"geometry": {"type": "Point", "coordinates": [-79.4934006, 43.6509399]}, "type": "Feature", "id": 757262101287010304, "properties": {"loc": [-79.4934006, 43.6509399], "centroid": [-79.29024273177691, 43.815218832451365], "screen_name": "OkRohan", "time": 1469398328.0, "tid": 757262101287010304, "text": "Cleaned up a bit for Meggan and Gerald's big day!\n\n#yyz #toronto #flynnwedding2016\u2026 https://t.co/1M1I7SMcCS", "created_at": "Sun Jul 24 17:12:08 +0000 2016", "klabel": 5}}, {"geometry": {"type": "Point", "coordinates": [-79.4934006, 43.6509399]}, "type": "Feature", "id": 757285346937802752, "properties": {"loc": [-79.4934006, 43.6509399], "centroid": [-79.29024273177691, 43.815218832451365], "screen_name": "mstreeterphoto", "time": 1469403871.0, "tid": 757285346937802752, "text": "\"All I did was sit\" #nicoleandmo2016 @ Old Mill Inn Weddings https://t.co/YF9M3HSd9R", "created_at": "Sun Jul 24 18:44:31 +0000 2016", "klabel": 5}}, {"geometry": {"type": "Point", "coordinates": [-79.48407, 43.64961]}, "type": "Feature", "id": 757297588349526016, "properties": {"loc": [-79.48407, 43.64961], "centroid": [-79.29024273177691, 43.815218832451365], "screen_name": "_anikaaaaaa", "time": 1469406789.0, "tid": 757297588349526016, "text": "I went for the Mac and cheese @ the good fork https://t.co/9FwPkbBQta", "created_at": "Sun Jul 24 19:33:09 +0000 2016", "klabel": 5}}, {"geometry": {"type": "Point", "coordinates": [-79.4716403, 43.6461272]}, "type": "Feature", "id": 757327031285780481, "properties": {"loc": [-79.4716403, 43.6461272], "centroid": [-79.29024273177691, 43.815218832451365], "screen_name": "tofire", "time": 1469413809.0, "tid": 757327031285780481, "text": "Medical (Personal Injury) - Ellis Park Road b/w Grenadier Ravine Dr / Valleymede Road, Toronto (2 Trucks)", "created_at": "Sun Jul 24 21:30:09 +0000 2016", "klabel": 5}}, {"geometry": {"type": "Point", "coordinates": [-79.4716403, 43.6461272]}, "type": "Feature", "id": 757327032179195905, "properties": {"loc": [-79.4716403, 43.6461272], "centroid": [-79.29024273177691, 43.815218832451365], "screen_name": "tofireW", "time": 1469413809.0, "tid": 757327032179195905, "text": "Medical (Personal Injury) - Ellis Park Road b/w Grenadier Ravine Dr / Valleymede Road, Toronto (2 Trucks)", "created_at": "Sun Jul 24 21:30:09 +0000 2016", "klabel": 5}}, {"geometry": {"type": "Point", "coordinates": [-79.4837344, 43.6493759]}, "type": "Feature", "id": 757327260504428545, "properties": {"loc": [-79.4837344, 43.6493759], "centroid": [-79.29024273177691, 43.815218832451365], "screen_name": "tpscalls", "time": 1469413864.0, "tid": 757327260504428545, "text": "Theft In Progress | Roncesvalles Ave &amp; Bloor St W [11 Div.] 07/24 17:25 #2425 #Toronto", "created_at": "Sun Jul 24 21:31:04 +0000 2016", "klabel": 5}}, {"geometry": {"type": "Point", "coordinates": [-79.4725882, 43.6461883]}, "type": "Feature", "id": 757327262207340545, "properties": {"loc": [-79.4725882, 43.6461883], "centroid": [-79.29024273177691, 43.815218832451365], "screen_name": "tpscalls", "time": 1469413864.0, "tid": 757327262207340545, "text": "Personal Injury Collision | Ellis Ave &amp; Morningside Ave [1GRP] 07/24 17:26 #Swansea #Toronto", "created_at": "Sun Jul 24 21:31:04 +0000 2016", "klabel": 5}}, {"geometry": {"type": "Point", "coordinates": [-79.49451538, 43.65248415]}, "type": "Feature", "id": 757354305003331585, "properties": {"loc": [-79.49451538, 43.65248415], "centroid": [-79.29024273177691, 43.815218832451365], "screen_name": "BeckyBeckyBecca", "time": 1469420311.0, "tid": 757354305003331585, "text": "\u2764\ufe0f @ Humber River near Old Mill https://t.co/vB2jKjd7DN", "created_at": "Sun Jul 24 23:18:31 +0000 2016", "klabel": 5}}, {"geometry": {"type": "Point", "coordinates": [-79.49451538, 43.65248415]}, "type": "Feature", "id": 757451681835745280, "properties": {"loc": [-79.49451538, 43.65248415], "centroid": [-79.29024273177691, 43.815218832451365], "screen_name": "BeckyBeckyBecca", "time": 1469443528.0, "tid": 757451681835745280, "text": "Just posted a photo @ Humber River near Old Mill https://t.co/AW2jnJSA5x", "created_at": "Mon Jul 25 05:45:28 +0000 2016", "klabel": 5}}, {"geometry": {"type": "Point", "coordinates": [-79.47088563, 43.65230084]}, "type": "Feature", "id": 757557496991080449, "properties": {"loc": [-79.47088563, 43.65230084], "centroid": [-79.29024273177691, 43.815218832451365], "screen_name": "rrehders", "time": 1469468756.0, "tid": 757557496991080449, "text": "I'm at @Starbucks in Toronto, ON https://t.co/nnr4MAar5y", "created_at": "Mon Jul 25 12:45:56 +0000 2016", "klabel": 5}}, {"geometry": {"type": "Point", "coordinates": [-79.49451538, 43.65248415]}, "type": "Feature", "id": 757712257446977536, "properties": {"loc": [-79.49451538, 43.65248415], "centroid": [-79.29024273177691, 43.815218832451365], "screen_name": "BeckyBeckyBecca", "time": 1469505654.0, "tid": 757712257446977536, "text": "Quack! @ Humber River near Old Mill https://t.co/gD4MtwwtCG", "created_at": "Mon Jul 25 23:00:54 +0000 2016", "klabel": 5}}, {"geometry": {"type": "Point", "coordinates": [-79.4762483, 43.6511429]}, "type": "Feature", "id": 757838372081573888, "properties": {"loc": [-79.4762483, 43.6511429], "centroid": [-79.29024273177691, 43.815218832451365], "screen_name": "tpscalls", "time": 1469535722.0, "tid": 757838372081573888, "text": "Disorderlies | Bloor St W &amp; Runnymede Rd [11 Div.] 07/26 03:16 #Bloor_West_Village #Toronto", "created_at": "Tue Jul 26 07:22:02 +0000 2016", "klabel": 5}}, {"geometry": {"type": "Point", "coordinates": [-79.4847585, 43.6491892]}, "type": "Feature", "id": 757931986820489216, "properties": {"loc": [-79.4847585, 43.6491892], "centroid": [-79.29024273177691, 43.815218832451365], "screen_name": "tpscalls", "time": 1469558042.0, "tid": 757931986820489216, "text": "Break &amp; Enter Just Occurred | Ln S Bloor E Ellis Park &amp; Bloor St W [11 Div.] 07/26 09:27 #Toronto", "created_at": "Tue Jul 26 13:34:02 +0000 2016", "klabel": 5}}, {"geometry": {"type": "Point", "coordinates": [-79.475076, 43.651649]}, "type": "Feature", "id": 757933139306086400, "properties": {"loc": [-79.475076, 43.651649], "centroid": [-79.29024273177691, 43.815218832451365], "screen_name": "TheTemp_tress", "time": 1469558316.0, "tid": 757933139306086400, "text": "Long locks; what's not to love! \ud83d\ude0d Add some length with our Hidden Assets!\u2026 https://t.co/ovGSPqVatz", "created_at": "Tue Jul 26 13:38:36 +0000 2016", "klabel": 5}}, {"geometry": {"type": "Point", "coordinates": [-79.4740112, 43.6516426]}, "type": "Feature", "id": 757956150482599936, "properties": {"loc": [-79.4740112, 43.6516426], "centroid": [-79.29024273177691, 43.815218832451365], "screen_name": "tpscalls", "time": 1469563803.0, "tid": 757956150482599936, "text": "Personal Injury Collision | Bloor St W &amp; Glendonwynne Rd [HP] 07/26 11:05 #Bloor_West_Village #Toronto", "created_at": "Tue Jul 26 15:10:03 +0000 2016", "klabel": 5}}, {"geometry": {"type": "Point", "coordinates": [-79.4810177, 43.6578751]}, "type": "Feature", "id": 757994657938804736, "properties": {"loc": [-79.4810177, 43.6578751], "centroid": [-79.29024273177691, 43.815218832451365], "screen_name": "tpscalls", "time": 1469572983.0, "tid": 757994657938804736, "text": "Disorderlies | Runnymede Rd &amp; Beresford Ave [11 Div.] 07/26 13:38 #Runnymede #Toronto", "created_at": "Tue Jul 26 17:43:03 +0000 2016", "klabel": 5}}, {"geometry": {"type": "Point", "coordinates": [-79.4844503, 43.6493271]}, "type": "Feature", "id": 758035429782421504, "properties": {"loc": [-79.4844503, 43.6493271], "centroid": [-79.29024273177691, 43.815218832451365], "screen_name": "tofireW", "time": 1469582704.0, "tid": 758035429782421504, "text": "Vehicle (Personal Injury) - Jane St b/w Bloor St West / Rivercrest Road, Toronto (2 Trucks)", "created_at": "Tue Jul 26 20:25:04 +0000 2016", "klabel": 5}}, {"geometry": {"type": "Point", "coordinates": [-79.4872213, 43.651298]}, "type": "Feature", "id": 758058829494022145, "properties": {"loc": [-79.4872213, 43.651298], "centroid": [-79.29024273177691, 43.815218832451365], "screen_name": "tpscalls", "time": 1469588283.0, "tid": 758058829494022145, "text": "Personal Injury Collision | Bloor St W &amp; Rivercrest Rd [HP] 07/26 17:51 #Lambton_Baby_Point #Toronto", "created_at": "Tue Jul 26 21:58:03 +0000 2016", "klabel": 5}}, {"geometry": {"type": "Point", "coordinates": [-79.49451538, 43.65248415]}, "type": "Feature", "id": 758329410734788610, "properties": {"loc": [-79.49451538, 43.65248415], "centroid": [-79.29024273177691, 43.815218832451365], "screen_name": "zunaid", "time": 1469652795.0, "tid": 758329410734788610, "text": "Beautiful bird. #river #bird #summer #toronto #humberriver #humberrivertrail #nature\u2026 https://t.co/TWGTZTytX1", "created_at": "Wed Jul 27 15:53:15 +0000 2016", "klabel": 5}}, {"geometry": {"type": "Point", "coordinates": [-79.4934006, 43.6509399]}, "type": "Feature", "id": 758341359044526080, "properties": {"loc": [-79.4934006, 43.6509399], "centroid": [-79.29024273177691, 43.815218832451365], "screen_name": "natekimphoto", "time": 1469655643.0, "tid": 758341359044526080, "text": "Youngin + Steve's wedding photos are coming soon! \ud83d\ude0a\n_\n_\n#NateKimPhotography #wedding @ Old Mill\u2026 https://t.co/JzGGPg5Ygl", "created_at": "Wed Jul 27 16:40:43 +0000 2016", "klabel": 5}}, {"geometry": {"type": "Point", "coordinates": [-79.4868275, 43.6477757]}, "type": "Feature", "id": 758379156975476736, "properties": {"loc": [-79.4868275, 43.6477757], "centroid": [-79.29024273177691, 43.815218832451365], "screen_name": "JullyBlack", "time": 1469664655.0, "tid": 758379156975476736, "text": "If you're ever feeling \"Uninspired\" or frankly you're just having a shitty day try exercising a\u2026 https://t.co/FhUxN1NvYE", "created_at": "Wed Jul 27 19:10:55 +0000 2016", "klabel": 5}}, {"geometry": {"type": "Point", "coordinates": [-79.48497, 43.64863]}, "type": "Feature", "id": 758439012356857856, "properties": {"loc": [-79.48497, 43.64863], "centroid": [-79.29024273177691, 43.815218832451365], "screen_name": "mipupico", "time": 1469678926.0, "tid": 758439012356857856, "text": "Tomorrow it's Senior's Day at #mipupico \ud83d\udc74\ud83c\udffc\ud83d\udc75\ud83c\udffc Young Seniors Are Just As Welcome! \u2728\ud83d\udc4d\ud83c\udffc\u2026 https://t.co/CJBRhWK7nJ", "created_at": "Wed Jul 27 23:08:46 +0000 2016", "klabel": 5}}, {"geometry": {"type": "Point", "coordinates": [-79.4747566, 43.6534419]}, "type": "Feature", "id": 758442354013532160, "properties": {"loc": [-79.4747566, 43.6534419], "centroid": [-79.29024273177691, 43.815218832451365], "screen_name": "tpscalls", "time": 1469679723.0, "tid": 758442354013532160, "text": "See Ambulance | Glendonwynne Rd &amp; Kennedy Ave [11 Div.] 07/27 19:17 #High_Park_North #Toronto", "created_at": "Wed Jul 27 23:22:03 +0000 2016", "klabel": 5}}, {"geometry": {"type": "Point", "coordinates": [-79.475076, 43.651649]}, "type": "Feature", "id": 758652313099726848, "properties": {"loc": [-79.475076, 43.651649], "centroid": [-79.29024273177691, 43.815218832451365], "screen_name": "TheTemp_tress", "time": 1469729781.0, "tid": 758652313099726848, "text": "Don't forget about braids! We still love them added to any summer style! This Blo babes working\u2026 https://t.co/bexsDcv4rm", "created_at": "Thu Jul 28 13:16:21 +0000 2016", "klabel": 5}}, {"geometry": {"type": "Point", "coordinates": [-79.48182341, 43.64962275]}, "type": "Feature", "id": 758759536039636993, "properties": {"loc": [-79.48182341, 43.64962275], "centroid": [-79.29024273177691, 43.815218832451365], "screen_name": "DonnaBulika", "time": 1469755345.0, "tid": 758759536039636993, "text": "Congratulations to my clients/buyers who are extremely happy today! They underpaid IMAGINE THAT\u2026 https://t.co/UonnnuGAPV", "created_at": "Thu Jul 28 20:22:25 +0000 2016", "klabel": 5}}, {"geometry": {"type": "Point", "coordinates": [-79.4747566, 43.6534419]}, "type": "Feature", "id": 758763973571440640, "properties": {"loc": [-79.4747566, 43.6534419], "centroid": [-79.29024273177691, 43.815218832451365], "screen_name": "tpscalls", "time": 1469756403.0, "tid": 758763973571440640, "text": "Arrest | Glendonwynne Rd &amp; Kennedy Ave [11 Div.] 07/28 16:35 #High_Park_North #Toronto", "created_at": "Thu Jul 28 20:40:03 +0000 2016", "klabel": 5}}, {"geometry": {"type": "Point", "coordinates": [-79.48388889, 43.64991667]}, "type": "Feature", "id": 758785547850682368, "properties": {"loc": [-79.48388889, 43.64991667], "centroid": [-79.29024273177691, 43.815218832451365], "screen_name": "cvirtueskirts", "time": 1469761546.0, "tid": 758785547850682368, "text": "@znakdesigns are you showcasing your work? @ Jane (TTC) https://t.co/KIdcWqaQo2", "created_at": "Thu Jul 28 22:05:46 +0000 2016", "klabel": 5}}, {"geometry": {"type": "Point", "coordinates": [-79.48997, 43.65847]}, "type": "Feature", "id": 759031227806523392, "properties": {"loc": [-79.48997, 43.65847], "centroid": [-79.29024273177691, 43.815218832451365], "screen_name": "eatspecialk", "time": 1469820121.0, "tid": 759031227806523392, "text": "Fri-Yay is the best yay of the week, y'all! \u270c\ud83c\udffb\ufe0f\n*\nPlease also check out kristincamp's latest\u2026 https://t.co/5m6bBxaGNR", "created_at": "Fri Jul 29 14:22:01 +0000 2016", "klabel": 5}}, {"geometry": {"type": "Point", "coordinates": [-79.48407, 43.64961]}, "type": "Feature", "id": 759071872487129090, "properties": {"loc": [-79.48407, 43.64961], "centroid": [-79.29024273177691, 43.815218832451365], "screen_name": "arezoonia", "time": 1469829811.0, "tid": 759071872487129090, "text": "Start your long weekend right!\nBiked for an hour for our breakfast! #civicholiday @ the good fork https://t.co/BfOAjo8Prr", "created_at": "Fri Jul 29 17:03:31 +0000 2016", "klabel": 5}}, {"geometry": {"type": "Point", "coordinates": [-79.4872213, 43.651298]}, "type": "Feature", "id": 759080306464919556, "properties": {"loc": [-79.4872213, 43.651298], "centroid": [-79.29024273177691, 43.815218832451365], "screen_name": "tpscalls", "time": 1469831822.0, "tid": 759080306464919556, "text": "See Ambulance | Bloor St W &amp; Rivercrest Rd [11 Div.] 07/29 13:30 #Lambton_Baby_Point #Toronto", "created_at": "Fri Jul 29 17:37:02 +0000 2016", "klabel": 5}}, {"geometry": {"type": "Point", "coordinates": [-79.49327662, 43.65086174]}, "type": "Feature", "id": 759080943143575552, "properties": {"loc": [-79.49327662, 43.65086174], "centroid": [-79.29024273177691, 43.815218832451365], "screen_name": "mattdebat", "time": 1469831974.0, "tid": 759080943143575552, "text": "July 12 - moms bday! @ The Old Mill Restaurant https://t.co/vNPi8qKP2j", "created_at": "Fri Jul 29 17:39:34 +0000 2016", "klabel": 5}}, {"geometry": {"type": "Point", "coordinates": [-79.4747566, 43.6534419]}, "type": "Feature", "id": 759099182590357508, "properties": {"loc": [-79.4747566, 43.6534419], "centroid": [-79.29024273177691, 43.815218832451365], "screen_name": "tpscalls", "time": 1469836323.0, "tid": 759099182590357508, "text": "Dispute | Glendonwynne Rd &amp; Kennedy Ave [11 Div.] 07/29 14:45 #High_Park_North #Toronto", "created_at": "Fri Jul 29 18:52:03 +0000 2016", "klabel": 5}}, {"geometry": {"type": "Point", "coordinates": [-79.47883829, 43.65058533]}, "type": "Feature", "id": 759108466887778304, "properties": {"loc": [-79.47883829, 43.65058533], "centroid": [-79.29024273177691, 43.815218832451365], "screen_name": "BloorMeatMarket", "time": 1469838536.0, "tid": 759108466887778304, "text": "Brand new Beef Kofta Sausages with Onion, Mild Curry and Cilantro in time for your long weekend\u2026 https://t.co/dYtmxyhkmy", "created_at": "Fri Jul 29 19:28:56 +0000 2016", "klabel": 5}}, {"geometry": {"type": "Point", "coordinates": [-79.49327662, 43.65086174]}, "type": "Feature", "id": 759131368404033536, "properties": {"loc": [-79.49327662, 43.65086174], "centroid": [-79.29024273177691, 43.815218832451365], "screen_name": "melyssamoniz", "time": 1469843996.0, "tid": 759131368404033536, "text": "No filter. \n\nWhom do you wish to become? I aspired to be Jennifer Lopez and Oprah mixed with\u2026 https://t.co/T2ROEovyVE", "created_at": "Fri Jul 29 20:59:56 +0000 2016", "klabel": 5}}, {"geometry": {"type": "Point", "coordinates": [-79.4934006, 43.6509399]}, "type": "Feature", "id": 759155285416091649, "properties": {"loc": [-79.4934006, 43.6509399], "centroid": [-79.29024273177691, 43.815218832451365], "screen_name": "djrondomingo", "time": 1469849699.0, "tid": 759155285416091649, "text": "With the crew. @ianliwanag @ianliwanag lulu777ann @ Old Mill Inn\u2026 https://t.co/0GMispWhRb", "created_at": "Fri Jul 29 22:34:59 +0000 2016", "klabel": 5}}, {"geometry": {"type": "Point", "coordinates": [-79.47576339, 43.65126323]}, "type": "Feature", "id": 759167343612362752, "properties": {"loc": [-79.47576339, 43.65126323], "centroid": [-79.29024273177691, 43.815218832451365], "screen_name": "sevgiicoskun", "time": 1469852574.0, "tid": 759167343612362752, "text": "I'm at CN Tower https://t.co/j6pBQBuSdT", "created_at": "Fri Jul 29 23:22:54 +0000 2016", "klabel": 5}}, {"geometry": {"type": "Point", "coordinates": [-79.48480289, 43.65899838]}, "type": "Feature", "id": 759179134757208065, "properties": {"loc": [-79.48480289, 43.65899838], "centroid": [-79.29024273177691, 43.815218832451365], "screen_name": "krystlereyes_", "time": 1469855385.0, "tid": 759179134757208065, "text": "Black bean burger topped with pickled onions and cabbage wrapped in collard greens from\u2026 https://t.co/3kYRJUxm4n", "created_at": "Sat Jul 30 00:09:45 +0000 2016", "klabel": 5}}, {"geometry": {"type": "Point", "coordinates": [-79.475076, 43.651649]}, "type": "Feature", "id": 759381849378619392, "properties": {"loc": [-79.475076, 43.651649], "centroid": [-79.29024273177691, 43.815218832451365], "screen_name": "TheTemp_tress", "time": 1469903716.0, "tid": 759381849378619392, "text": "Happy long weekend babes! Whatever you may be getting up to this weekend we hope you'll make us\u2026 https://t.co/33UfeRUiJu", "created_at": "Sat Jul 30 13:35:16 +0000 2016", "klabel": 5}}, {"geometry": {"type": "Point", "coordinates": [-79.479404, 43.650497]}, "type": "Feature", "id": 759414326344224769, "properties": {"loc": [-79.479404, 43.650497], "centroid": [-79.29024273177691, 43.815218832451365], "screen_name": "JaylixPorter", "time": 1469911459.0, "tid": 759414326344224769, "text": "I'm at @Diapereez in Toronto, Ontario https://t.co/YBiOnq0m5Y", "created_at": "Sat Jul 30 15:44:19 +0000 2016", "klabel": 5}}, {"geometry": {"type": "Point", "coordinates": [-79.4947012, 43.6537474]}, "type": "Feature", "id": 759468630560169984, "properties": {"loc": [-79.4947012, 43.6537474], "centroid": [-79.29024273177691, 43.815218832451365], "screen_name": "tofireW", "time": 1469924406.0, "tid": 759468630560169984, "text": "Medical (Personal Injury) - Orchard Crest Road @ Humberview Road, York (2 Trucks)", "created_at": "Sat Jul 30 19:20:06 +0000 2016", "klabel": 5}}, {"geometry": {"type": "Point", "coordinates": [-79.48719, 43.65731]}, "type": "Feature", "id": 759477320155561984, "properties": {"loc": [-79.48719, 43.65731], "centroid": [-79.29024273177691, 43.815218832451365], "screen_name": "jsquaredink", "time": 1469926478.0, "tid": 759477320155561984, "text": "We did ENJOY the little things at ourfarmbreads today! #chocolate #croissant @Balzacs #coffee\u2026 https://t.co/28rggs5eFt", "created_at": "Sat Jul 30 19:54:38 +0000 2016", "klabel": 5}}, {"geometry": {"type": "Point", "coordinates": [-79.48791493, 43.65823869]}, "type": "Feature", "id": 759551798264918016, "properties": {"loc": [-79.48791493, 43.65823869], "centroid": [-79.29024273177691, 43.815218832451365], "screen_name": "coryleemusic", "time": 1469944235.0, "tid": 759551798264918016, "text": "Discovered @qmpizza tonight!!! Mmmmmmmm I'll be back! \ud83d\ude0d\ud83c\udf89\ud83c\udf55\ud83c\udf77 @ Queen Margherita Pizza https://t.co/tA5EEYDsOj", "created_at": "Sun Jul 31 00:50:35 +0000 2016", "klabel": 5}}, {"geometry": {"type": "Point", "coordinates": [-79.475076, 43.651649]}, "type": "Feature", "id": 759742056851992576, "properties": {"loc": [-79.475076, 43.651649], "centroid": [-79.29024273177691, 43.815218832451365], "screen_name": "TheTemp_tress", "time": 1469989596.0, "tid": 759742056851992576, "text": "Loving the combo of a fishtail braid and PillowTalk waves! Stylist megboss__  making more babes\u2026 https://t.co/rQBMwEF7TB", "created_at": "Sun Jul 31 13:26:36 +0000 2016", "klabel": 5}}, {"geometry": {"type": "Point", "coordinates": [-79.4872213, 43.651298]}, "type": "Feature", "id": 759792755489013760, "properties": {"loc": [-79.4872213, 43.651298], "centroid": [-79.29024273177691, 43.815218832451365], "screen_name": "tpscalls", "time": 1470001683.0, "tid": 759792755489013760, "text": "Assault Just Occurred | Bloor St W &amp; Rivercrest Rd [11 Div.] 07/31 12:43 #Lambton_Baby_Point #Toronto", "created_at": "Sun Jul 31 16:48:03 +0000 2016", "klabel": 5}}, {"geometry": {"type": "Point", "coordinates": [-79.4810177, 43.6578751]}, "type": "Feature", "id": 760042147269713921, "properties": {"loc": [-79.4810177, 43.6578751], "centroid": [-79.29024273177691, 43.815218832451365], "screen_name": "tpscalls", "time": 1470061143.0, "tid": 760042147269713921, "text": "Theft Just Occurred | Runnymede Rd &amp; Beresford Ave [11 Div.] 08/01 05:14 #Runnymede #Toronto", "created_at": "Mon Aug 01 09:19:03 +0000 2016", "klabel": 5}}, {"geometry": {"type": "Point", "coordinates": [-79.475076, 43.651649]}, "type": "Feature", "id": 760104331697946625, "properties": {"loc": [-79.475076, 43.651649], "centroid": [-79.29024273177691, 43.815218832451365], "screen_name": "TheTemp_tress", "time": 1470075969.0, "tid": 760104331697946625, "text": "What a sweetheart. Check out this pretty PillowTalk blow out for this Blo cutie. Styled by\u2026 https://t.co/TAR7YbOtYr", "created_at": "Mon Aug 01 13:26:09 +0000 2016", "klabel": 5}}, {"geometry": {"type": "Point", "coordinates": [-79.47597742, 43.65138551]}, "type": "Feature", "id": 760143584024793088, "properties": {"loc": [-79.47597742, 43.65138551], "centroid": [-79.29024273177691, 43.815218832451365], "screen_name": "rrehders", "time": 1470085327.0, "tid": 760143584024793088, "text": "Stalking the Pok\u00e9stop across the street ;) (@ Starbucks in Toronto, ON) https://t.co/3cm6SQI9Nq", "created_at": "Mon Aug 01 16:02:07 +0000 2016", "klabel": 5}}, {"geometry": {"type": "Point", "coordinates": [-79.47756, 43.65109]}, "type": "Feature", "id": 760170973836476416, "properties": {"loc": [-79.47756, 43.65109], "centroid": [-79.29024273177691, 43.815218832451365], "screen_name": "Mangiapf", "time": 1470091858.0, "tid": 760170973836476416, "text": "Ham and gruyere scone and americano #americano #bakagallerycafe #scone #bloorwestvillage\u2026 https://t.co/iLqoHqlgIT", "created_at": "Mon Aug 01 17:50:58 +0000 2016", "klabel": 5}}, {"geometry": {"type": "Point", "coordinates": [-79.4775, 43.6508]}, "type": "Feature", "id": 760191721833496580, "properties": {"loc": [-79.4775, 43.6508], "centroid": [-79.29024273177691, 43.815218832451365], "screen_name": "TheDragonOnline", "time": 1470096804.0, "tid": 760191721833496580, "text": "#Squirtle was spotted at our Bloor West Village location! pop by to see what's around on your\u2026 https://t.co/BR7DViaiQZ", "created_at": "Mon Aug 01 19:13:24 +0000 2016", "klabel": 5}}, {"geometry": {"type": "Point", "coordinates": [-79.490629, 43.639462]}, "type": "Feature", "id": 760247501874225156, "properties": {"loc": [-79.490629, 43.639462], "centroid": [-79.29024273177691, 43.815218832451365], "screen_name": "tpscalls", "time": 1470110103.0, "tid": 760247501874225156, "text": "Dispute | Stephen Dr &amp; Crown Hill Pl [22 Div.] 08/01 18:50 #Sunnylea #Toronto", "created_at": "Mon Aug 01 22:55:03 +0000 2016", "klabel": 5}}, {"geometry": {"type": "Point", "coordinates": [-79.4944, 43.6528]}, "type": "Feature", "id": 760289751375220736, "properties": {"loc": [-79.4944, 43.6528], "centroid": [-79.29024273177691, 43.815218832451365], "screen_name": "lockpandorasbox", "time": 1470120176.0, "tid": 760289751375220736, "text": "#bunny @ Etienne Brule Park https://t.co/by0CKLedkd", "created_at": "Tue Aug 02 01:42:56 +0000 2016", "klabel": 5}}, {"geometry": {"type": "Point", "coordinates": [-79.4816304, 43.6539544]}, "type": "Feature", "id": 760334328115101697, "properties": {"loc": [-79.4816304, 43.6539544], "centroid": [-79.29024273177691, 43.815218832451365], "screen_name": "tpscalls", "time": 1470130804.0, "tid": 760334328115101697, "text": "Unknown Trouble | Bloor St W &amp; Colbeck St [11 Div.] 08/02 00:35 #Old_Toronto", "created_at": "Tue Aug 02 04:40:04 +0000 2016", "klabel": 5}}, {"geometry": {"type": "Point", "coordinates": [-79.47756, 43.65109]}, "type": "Feature", "id": 760390935809187840, "properties": {"loc": [-79.47756, 43.65109], "centroid": [-79.29024273177691, 43.815218832451365], "screen_name": "saminaesha", "time": 1470144301.0, "tid": 760390935809187840, "text": "Summer evening @bakagallerycafe #latte #toronto #bloor #bloorwestvillage #bloorvillage #ontario\u2026 https://t.co/zfIX2QTknN", "created_at": "Tue Aug 02 08:25:01 +0000 2016", "klabel": 5}}, {"geometry": {"type": "Point", "coordinates": [-79.4872195, 43.6375168]}, "type": "Feature", "id": 760545974632742912, "properties": {"loc": [-79.4872195, 43.6375168], "centroid": [-79.29024273177691, 43.815218832451365], "screen_name": "tofireW", "time": 1470181265.0, "tid": 760545974632742912, "text": "Medical (Check Call) - Stephen Dr b/w Berry Road / Riverwood Pkwy, Etobicoke (2 Trucks)", "created_at": "Tue Aug 02 18:41:05 +0000 2016", "klabel": 5}}, {"geometry": {"type": "Point", "coordinates": [-79.4872195, 43.6375168]}, "type": "Feature", "id": 760545973609308160, "properties": {"loc": [-79.4872195, 43.6375168], "centroid": [-79.29024273177691, 43.815218832451365], "screen_name": "tofire", "time": 1470181265.0, "tid": 760545973609308160, "text": "Medical (Check Call) - Stephen Dr b/w Berry Road / Riverwood Pkwy, Etobicoke (2 Trucks)", "created_at": "Tue Aug 02 18:41:05 +0000 2016", "klabel": 5}}, {"geometry": {"type": "Point", "coordinates": [-79.49327662, 43.65086174]}, "type": "Feature", "id": 760662476933337092, "properties": {"loc": [-79.49327662, 43.65086174], "centroid": [-79.29024273177691, 43.815218832451365], "screen_name": "weddingdecors", "time": 1470209041.0, "tid": 760662476933337092, "text": "After a great day of tennis. Showing off all her new learned move. We enjoy a beautiful garden\u2026 https://t.co/FMJPzpYeCN", "created_at": "Wed Aug 03 02:24:01 +0000 2016", "klabel": 5}}, {"geometry": {"type": "Point", "coordinates": [-79.4789205, 43.659803]}, "type": "Feature", "id": 760670402909704192, "properties": {"loc": [-79.4789205, 43.659803], "centroid": [-79.29024273177691, 43.815218832451365], "screen_name": "wyldbloom", "time": 1470210931.0, "tid": 760670402909704192, "text": "No mud, no lotus!! - Thich Nhat Hanh #letsdothis #herewego #mondaymotivation #wednesdaywisdom #believe #receive #achieve", "created_at": "Wed Aug 03 02:55:31 +0000 2016", "klabel": 5}}, {"geometry": {"type": "Point", "coordinates": [-79.4849, 43.64888881]}, "type": "Feature", "id": 760701724004941824, "properties": {"loc": [-79.4849, 43.64888881], "centroid": [-79.29024273177691, 43.815218832451365], "screen_name": "Maria_Believes", "time": 1470218398.0, "tid": 760701724004941824, "text": "We can live life with little meaning or with great meaning! I like to play with life, so here's\u2026 https://t.co/l4UEOYpR95", "created_at": "Wed Aug 03 04:59:58 +0000 2016", "klabel": 5}}, {"geometry": {"type": "Point", "coordinates": [-79.475076, 43.651649]}, "type": "Feature", "id": 760840330308624384, "properties": {"loc": [-79.475076, 43.651649], "centroid": [-79.29024273177691, 43.815218832451365], "screen_name": "TheTemp_tress", "time": 1470251445.0, "tid": 760840330308624384, "text": "Happy Hump Day ladies! \ud83d\ude18 We're blo'ving this detailed go fish blowout! Try something new next\u2026 https://t.co/iKSVm0QetW", "created_at": "Wed Aug 03 14:10:45 +0000 2016", "klabel": 5}}, {"geometry": {"type": "Point", "coordinates": [-79.482781, 43.6567021]}, "type": "Feature", "id": 760894510465441792, "properties": {"loc": [-79.482781, 43.6567021], "centroid": [-79.29024273177691, 43.815218832451365], "screen_name": "tpscalls", "time": 1470264362.0, "tid": 760894510465441792, "text": "Dispute | Harshaw Ave &amp; Ardagh St [11 Div.] 08/03 13:40 #Old_Toronto", "created_at": "Wed Aug 03 17:46:02 +0000 2016", "klabel": 5}}, {"geometry": {"type": "Point", "coordinates": [-79.4759902, 43.6513959]}, "type": "Feature", "id": 760896351748042752, "properties": {"loc": [-79.4759902, 43.6513959], "centroid": [-79.29024273177691, 43.815218832451365], "screen_name": "tmj_gta_hrta", "time": 1470264801.0, "tid": 760896351748042752, "text": "Can you recommend anyone for this #job? Shift Supervisor (CA) - https://t.co/w9O9n2UcJq #Hospitality #Veterans #Hiring #CareerArc", "created_at": "Wed Aug 03 17:53:21 +0000 2016", "klabel": 5}}, {"geometry": {"type": "Point", "coordinates": [-79.4810177, 43.6578751]}, "type": "Feature", "id": 760939058549886976, "properties": {"loc": [-79.4810177, 43.6578751], "centroid": [-79.29024273177691, 43.815218832451365], "screen_name": "tpscalls", "time": 1470274983.0, "tid": 760939058549886976, "text": "Dispute | Runnymede Rd &amp; Beresford Ave [11 Div.] 08/03 16:38 #Runnymede #Toronto", "created_at": "Wed Aug 03 20:43:03 +0000 2016", "klabel": 5}}, {"geometry": {"type": "Point", "coordinates": [-79.4810177, 43.6578751]}, "type": "Feature", "id": 760959440279527425, "properties": {"loc": [-79.4810177, 43.6578751], "centroid": [-79.29024273177691, 43.815218832451365], "screen_name": "tpscalls", "time": 1470279843.0, "tid": 760959440279527425, "text": "Dispute | Runnymede Rd &amp; Beresford Ave [11 Div.] 08/03 17:57 #Runnymede #Toronto", "created_at": "Wed Aug 03 22:04:03 +0000 2016", "klabel": 5}}, {"geometry": {"type": "Point", "coordinates": [-79.4778, 43.6439]}, "type": "Feature", "id": 760971022162165762, "properties": {"loc": [-79.4778, 43.6439], "centroid": [-79.29024273177691, 43.815218832451365], "screen_name": "riamercuri", "time": 1470282604.0, "tid": 760971022162165762, "text": "#father #son #junglegym @ Swansea, Toronto https://t.co/Fk7Z17Iznd", "created_at": "Wed Aug 03 22:50:04 +0000 2016", "klabel": 5}}, {"geometry": {"type": "Point", "coordinates": [-79.4872213, 43.651298]}, "type": "Feature", "id": 761007004185948162, "properties": {"loc": [-79.4872213, 43.651298], "centroid": [-79.29024273177691, 43.815218832451365], "screen_name": "tpscalls", "time": 1470291183.0, "tid": 761007004185948162, "text": "Unknown Trouble | Bloor St W &amp; Rivercrest Rd [11 Div.] 08/03 21:06 #Lambton_Baby_Point #Toronto", "created_at": "Thu Aug 04 01:13:03 +0000 2016", "klabel": 5}}, {"geometry": {"type": "Point", "coordinates": [-79.47738219, 43.64844872]},