{"type": "FeatureCollection", "features": [{"geometry": {"type": "Point", "coordinates": [-79.45233808, 43.72582527]}, "type": "Feature", "id": 705075274535321601, "properties": {"loc": [-79.45233808, 43.72582527], "centroid": [-79.3747620547255, 43.667219976186274], "screen_name": "OriginalApache", "time": 1456956019.0, "tid": 705075274535321601, "text": "Fun with Isa &amp; Daddy #ThankYouJesus @ Yorkdale Shopping Centre https://t.co/GSUDmQ0udZ", "created_at": "Wed Mar 02 17:00:19 +0000 2016", "klabel": 79}}, {"geometry": {"type": "Point", "coordinates": [-79.45218515, 43.72606505]}, "type": "Feature", "id": 705096045211086848, "properties": {"loc": [-79.45218515, 43.72606505], "centroid": [-79.3747620547255, 43.667219976186274], "screen_name": "tylerhhan", "time": 1456960971.0, "tid": 705096045211086848, "text": "I'm at Dine On 3 in Toronto, ON https://t.co/oiPZZzKH0U", "created_at": "Wed Mar 02 18:22:51 +0000 2016", "klabel": 79}}, {"geometry": {"type": "Point", "coordinates": [-79.4528087, 43.7251083]}, "type": "Feature", "id": 705132257489457152, "properties": {"loc": [-79.4528087, 43.7251083], "centroid": [-79.3747620547255, 43.667219976186274], "screen_name": "tmj_gta_mgmt", "time": 1456969605.0, "tid": 705132257489457152, "text": "Interested in a #BusinessMgmt #job near #Toronto, ON? This could be a great fit: https://t.co/976JUiQIKo #Hiring #CareerArc", "created_at": "Wed Mar 02 20:46:45 +0000 2016", "klabel": 79}}, {"geometry": {"type": "Point", "coordinates": [-79.452168, 43.7256702]}, "type": "Feature", "id": 705152948624445440, "properties": {"loc": [-79.452168, 43.7256702], "centroid": [-79.3747620547255, 43.667219976186274], "screen_name": "tmj_gta_retail", "time": 1456974538.0, "tid": 705152948624445440, "text": "This #Retail #job might be a great fit for you: Key Holder - https://t.co/c71LraWgHZ #TORONTO, ON #Hiring #CareerArc", "created_at": "Wed Mar 02 22:08:58 +0000 2016", "klabel": 79}}, {"geometry": {"type": "Point", "coordinates": [-79.4529768, 43.7264831]}, "type": "Feature", "id": 705160933870403584, "properties": {"loc": [-79.4529768, 43.7264831], "centroid": [-79.3747620547255, 43.667219976186274], "screen_name": "tmj_vets", "time": 1456976442.0, "tid": 705160933870403584, "text": "We're #hiring! Read about our latest #job opening here: Financial Consultant - Toronto Yorkdale Office - https://t.co/aduamGhIsp #Sales", "created_at": "Wed Mar 02 22:40:42 +0000 2016", "klabel": 79}}, {"geometry": {"type": "Point", "coordinates": [-79.4529754, 43.7264661]}, "type": "Feature", "id": 705191917407997952, "properties": {"loc": [-79.4529754, 43.7264661], "centroid": [-79.3747620547255, 43.667219976186274], "screen_name": "LEGO_Careers", "time": 1456983829.0, "tid": 705191917407997952, "text": "Want to work in #Toronto, ON? View our latest opening: https://t.co/rjlGs0bSJQ #Retail #LEGO #Job #Jobs #Hiring https://t.co/XnrQAymBzj", "created_at": "Thu Mar 03 00:43:49 +0000 2016", "klabel": 79}}, {"geometry": {"type": "Point", "coordinates": [-79.45080735, 43.72693517]}, "type": "Feature", "id": 705198989763878912, "properties": {"loc": [-79.45080735, 43.72693517], "centroid": [-79.3747620547255, 43.667219976186274], "screen_name": "SocaDread", "time": 1456985515.0, "tid": 705198989763878912, "text": "My little Princess \ud83d\ude0a\ud83d\udc96\n\n#DaddyDaughter #MovieDate #KungFuPanda3 \ud83d\udc3e\ud83d\udc09 @ SilverCity Yorkdale Cinemas https://t.co/G1eLmRmYeE", "created_at": "Thu Mar 03 01:11:55 +0000 2016", "klabel": 79}}, {"geometry": {"type": "Point", "coordinates": [-79.455685, 43.7182209]}, "type": "Feature", "id": 705242955238481920, "properties": {"loc": [-79.455685, 43.7182209], "centroid": [-79.3747620547255, 43.667219976186274], "screen_name": "ManongJobert", "time": 1456995997.0, "tid": 705242955238481920, "text": "\"@HugotDre: I miss you more than anything.\" Taga mo sa bato \ud83d\ude22", "created_at": "Thu Mar 03 04:06:37 +0000 2016", "klabel": 79}}, {"geometry": {"type": "Point", "coordinates": [-79.4442416, 43.71609816]}, "type": "Feature", "id": 705280884639924225, "properties": {"loc": [-79.4442416, 43.71609816], "centroid": [-79.3747620547255, 43.667219976186274], "screen_name": "OreosInMyPants", "time": 1457005041.0, "tid": 705280884639924225, "text": "S\u00dcBWAY\n+\n#vsco #ttc @ Lawrence West Subway Station https://t.co/MhzfIhWM1z", "created_at": "Thu Mar 03 06:37:21 +0000 2016", "klabel": 79}}, {"geometry": {"type": "Point", "coordinates": [-79.45233808, 43.72582527]}, "type": "Feature", "id": 705326006089883649, "properties": {"loc": [-79.45233808, 43.72582527], "centroid": [-79.3747620547255, 43.667219976186274], "screen_name": "Keith_Lowrie", "time": 1457015798.0, "tid": 705326006089883649, "text": "Sight seeing trip to the new mall, Toronto 1964. #streetphotography #travel #travelgram\u2026 https://t.co/lbBeoFYDP8", "created_at": "Thu Mar 03 09:36:38 +0000 2016", "klabel": 79}}, {"geometry": {"type": "Point", "coordinates": [-79.45102829, 43.72569041]}, "type": "Feature", "id": 705416383731863552, "properties": {"loc": [-79.45102829, 43.72569041], "centroid": [-79.3747620547255, 43.667219976186274], "screen_name": "missgo2girl", "time": 1457037346.0, "tid": 705416383731863552, "text": "Thank you zara \ud83d\udc99\ud83d\udc99\ud83d\udc99\ud83d\udc99\ud83d\udc99 #highheelstrappysandals #blueshoes #fashion #stylish #mine #lovethese #zara\u2026 https://t.co/IdPXCrhuwp", "created_at": "Thu Mar 03 15:35:46 +0000 2016", "klabel": 79}}, {"geometry": {"type": "Point", "coordinates": [-79.45294626, 43.72511828]}, "type": "Feature", "id": 705490415173156864, "properties": {"loc": [-79.45294626, 43.72511828], "centroid": [-79.3747620547255, 43.667219976186274], "screen_name": "apchrist", "time": 1457054997.0, "tid": 705490415173156864, "text": "A #henchman stealing the 1960's #batman #lego set #76052 batlabels @ Lego Store Yorkdale https://t.co/MrMhBr4NEE", "created_at": "Thu Mar 03 20:29:57 +0000 2016", "klabel": 79}}, {"geometry": {"type": "Point", "coordinates": [-79.45384989, 43.72472446]}, "type": "Feature", "id": 705503923327660032, "properties": {"loc": [-79.45384989, 43.72472446], "centroid": [-79.3747620547255, 43.667219976186274], "screen_name": "jheckbert", "time": 1457058217.0, "tid": 705503923327660032, "text": "Meeting with an old client to help them along the way to mortgage free home ownership. #lovemyjob (at @Starbucks) https://t.co/d8GEboIQrI", "created_at": "Thu Mar 03 21:23:37 +0000 2016", "klabel": 79}}, {"geometry": {"type": "Point", "coordinates": [-79.4517161, 43.7150728]}, "type": "Feature", "id": 705523913137061890, "properties": {"loc": [-79.4517161, 43.7150728], "centroid": [-79.3747620547255, 43.667219976186274], "screen_name": "CIBCcareers", "time": 1457062983.0, "tid": 705523913137061890, "text": "If you're a #IT professional in #Toronto, Ontario, check out this #job: https://t.co/CR50e9gphm #cibc #cibcjobs #Hiring", "created_at": "Thu Mar 03 22:43:03 +0000 2016", "klabel": 79}}, {"geometry": {"type": "Point", "coordinates": [-79.44616, 43.73518]}, "type": "Feature", "id": 705541315036114944, "properties": {"loc": [-79.44616, 43.73518], "centroid": [-79.3747620547255, 43.667219976186274], "screen_name": "DancewearCentre", "time": 1457067132.0, "tid": 705541315036114944, "text": "We know what your Thursday needs - high waisted briefs, spray tans, and deep scoop neck onsies.\u2026 https://t.co/XaUX6qlIT0", "created_at": "Thu Mar 03 23:52:12 +0000 2016", "klabel": 79}}, {"geometry": {"type": "Point", "coordinates": [-79.45102215, 43.72688636]}, "type": "Feature", "id": 705549645779496960, "properties": {"loc": [-79.45102215, 43.72688636], "centroid": [-79.3747620547255, 43.667219976186274], "screen_name": "will_uzzi", "time": 1457069118.0, "tid": 705549645779496960, "text": "I'm at SilverCity Yorkdale Cinemas - @cineplexmovies for Deadpool in Toronto, ON https://t.co/MtnZo9iqks", "created_at": "Fri Mar 04 00:25:18 +0000 2016", "klabel": 79}}, {"geometry": {"type": "Point", "coordinates": [-79.45174011, 43.72596034]}, "type": "Feature", "id": 705557625371492353, "properties": {"loc": [-79.45174011, 43.72596034], "centroid": [-79.3747620547255, 43.667219976186274], "screen_name": "axiomezz", "time": 1457071021.0, "tid": 705557625371492353, "text": "I'm at Yorkdale Shopping Centre - @yorkdalestyle in Toronto, ON https://t.co/G4V8Dq30WA", "created_at": "Fri Mar 04 00:57:01 +0000 2016", "klabel": 79}}, {"geometry": {"type": "Point", "coordinates": [-79.4581, 43.7104]}, "type": "Feature", "id": 705614311528517632, "properties": {"loc": [-79.4581, 43.7104], "centroid": [-79.3747620547255, 43.667219976186274], "screen_name": "VictoriaB_XOX", "time": 1457084536.0, "tid": 705614311528517632, "text": "They finally came in...\ud83c\udf93 This year is passing by so fast, I don't\u2026 https://t.co/Ca3mbyI6F6", "created_at": "Fri Mar 04 04:42:16 +0000 2016", "klabel": 79}}, {"geometry": {"type": "Point", "coordinates": [-79.44419861, 43.7163412]}, "type": "Feature", "id": 705788562046885889, "properties": {"loc": [-79.44419861, 43.7163412], "centroid": [-79.3747620547255, 43.667219976186274], "screen_name": "tylerhhan", "time": 1457126080.0, "tid": 705788562046885889, "text": "I'm at Lawrence West Subway Station in Toronto, ON https://t.co/CM5D7jejpD", "created_at": "Fri Mar 04 16:14:40 +0000 2016", "klabel": 79}}, {"geometry": {"type": "Point", "coordinates": [-79.45174011, 43.72596034]}, "type": "Feature", "id": 705791275748954113, "properties": {"loc": [-79.45174011, 43.72596034], "centroid": [-79.3747620547255, 43.667219976186274], "screen_name": "tylerhhan", "time": 1457126727.0, "tid": 705791275748954113, "text": "I'm at Yorkdale Shopping Centre - @yorkdalestyle in Toronto, ON https://t.co/XEBIVBl8qJ", "created_at": "Fri Mar 04 16:25:27 +0000 2016", "klabel": 79}}, {"geometry": {"type": "Point", "coordinates": [-79.4517161, 43.7150728]}, "type": "Feature", "id": 705809671878103040, "properties": {"loc": [-79.4517161, 43.7150728], "centroid": [-79.3747620547255, 43.667219976186274], "screen_name": "tmj_gta_sales", "time": 1457131113.0, "tid": 705809671878103040, "text": "Interested in a #Sales #job near #Toronto, Ontario? This could be a great fit: https://t.co/OcpWNVYUEu #cibc #cibcjobs #cibccareers #Hiring", "created_at": "Fri Mar 04 17:38:33 +0000 2016", "klabel": 79}}, {"geometry": {"type": "Point", "coordinates": [-79.45218515, 43.72606505]}, "type": "Feature", "id": 705812605168918528, "properties": {"loc": [-79.45218515, 43.72606505], "centroid": [-79.3747620547255, 43.667219976186274], "screen_name": "tylerhhan", "time": 1457131813.0, "tid": 705812605168918528, "text": "I'm at Dine On 3 in Toronto, ON https://t.co/ZdAYpePmb7", "created_at": "Fri Mar 04 17:50:13 +0000 2016", "klabel": 79}}, {"geometry": {"type": "Point", "coordinates": [-79.45234448, 43.7261109]}, "type": "Feature", "id": 705813151518957568, "properties": {"loc": [-79.45234448, 43.7261109], "centroid": [-79.3747620547255, 43.667219976186274], "screen_name": "tylerhhan", "time": 1457131943.0, "tid": 705813151518957568, "text": "I'm at Chipotle Mexican Grill in Toronto, ON https://t.co/0eeXtK2uQC https://t.co/rCzealVcRk", "created_at": "Fri Mar 04 17:52:23 +0000 2016", "klabel": 79}}, {"geometry": {"type": "Point", "coordinates": [-79.45384989, 43.72472446]}, "type": "Feature", "id": 705819706268196866, "properties": {"loc": [-79.45384989, 43.72472446], "centroid": [-79.3747620547255, 43.667219976186274], "screen_name": "tylerhhan", "time": 1457133506.0, "tid": 705819706268196866, "text": "I'm at @Starbucks in Toronto, ON https://t.co/3PyUIt9nON", "created_at": "Fri Mar 04 18:18:26 +0000 2016", "klabel": 79}}, {"geometry": {"type": "Point", "coordinates": [-79.45503112, 43.72608456]}, "type": "Feature", "id": 705821603272269824, "properties": {"loc": [-79.45503112, 43.72608456], "centroid": [-79.3747620547255, 43.667219976186274], "screen_name": "CaseP", "time": 1457133958.0, "tid": 705821603272269824, "text": "The place you go looking like a hot mess because you took the subway in carrying a box of a dozen dresses,... https://t.co/7FyV3LhH2E", "created_at": "Fri Mar 04 18:25:58 +0000 2016", "klabel": 79}}, {"geometry": {"type": "Point", "coordinates": [-79.4560638, 43.7204968]}, "type": "Feature", "id": 705826417460834304, "properties": {"loc": [-79.4560638, 43.7204968], "centroid": [-79.3747620547255, 43.667219976186274], "screen_name": "tofireN", "time": 1457135106.0, "tid": 705826417460834304, "text": "Medical (Unconscious) - Orfus Road b/w Dufferin St / Paul David St, North York (2 Trucks)", "created_at": "Fri Mar 04 18:45:06 +0000 2016", "klabel": 79}}, {"geometry": {"type": "Point", "coordinates": [-79.4517161, 43.7150728]}, "type": "Feature", "id": 705839788377509888, "properties": {"loc": [-79.4517161, 43.7150728], "centroid": [-79.3747620547255, 43.667219976186274], "screen_name": "tmj_gta_sales", "time": 1457138294.0, "tid": 705839788377509888, "text": "Can you recommend anyone for this #job? Credit Counsellor - RES - https://t.co/8vGMvqoWi9 #cibc #cibcjobs #cibccareers #Toronto, Ontario", "created_at": "Fri Mar 04 19:38:14 +0000 2016", "klabel": 79}}, {"geometry": {"type": "Point", "coordinates": [-79.4539937, 43.7107209]}, "type": "Feature", "id": 705860636501266433, "properties": {"loc": [-79.4539937, 43.7107209], "centroid": [-79.3747620547255, 43.667219976186274], "screen_name": "tofireN", "time": 1457143264.0, "tid": 705860636501266433, "text": "Medical (Trouble Breathing) - Playfair Avenue b/w Dufferin St / Ennerdale St, North York (2 Trucks)", "created_at": "Fri Mar 04 21:01:04 +0000 2016", "klabel": 79}}, {"geometry": {"type": "Point", "coordinates": [-79.4433228, 43.7235385]}, "type": "Feature", "id": 705860642570412032, "properties": {"loc": [-79.4433228, 43.7235385], "centroid": [-79.3747620547255, 43.667219976186274], "screen_name": "tofirep", "time": 1457143266.0, "tid": 705860642570412032, "text": "Medical (Crime Related) - Cather Crescent b/w Polaris Lane / Trafford Lane, North York (2 Trucks)", "created_at": "Fri Mar 04 21:01:06 +0000 2016", "klabel": 79}}, {"geometry": {"type": "Point", "coordinates": [-79.4556217, 43.7265546]}, "type": "Feature", "id": 705864787561836544, "properties": {"loc": [-79.4556217, 43.7265546], "centroid": [-79.3747620547255, 43.667219976186274], "screen_name": "tmj_gta_acct", "time": 1457144254.0, "tid": 705864787561836544, "text": "Join the Robert Half Finance &amp; Accounting team! See our latest #Accounting #job opening here: https://t.co/PGImT0KBLk #Toronto, ON #Hiring", "created_at": "Fri Mar 04 21:17:34 +0000 2016", "klabel": 79}}, {"geometry": {"type": "Point", "coordinates": [-79.4523835, 43.714325]}, "type": "Feature", "id": 705871721354698752, "properties": {"loc": [-79.4523835, 43.714325], "centroid": [-79.3747620547255, 43.667219976186274], "screen_name": "tofire", "time": 1457145907.0, "tid": 705871721354698752, "text": "Alarm Highrise Residential - Lawrence Avenue b/w Corona St / Dufferin St, North York (2 Trucks)", "created_at": "Fri Mar 04 21:45:07 +0000 2016", "klabel": 79}}, {"geometry": {"type": "Point", "coordinates": [-79.4523835, 43.714325]}, "type": "Feature", "id": 705871722411642880, "properties": {"loc": [-79.4523835, 43.714325], "centroid": [-79.3747620547255, 43.667219976186274], "screen_name": "tofireN", "time": 1457145907.0, "tid": 705871722411642880, "text": "Alarm Highrise Residential - Lawrence Avenue b/w Corona St / Dufferin St, North York (2 Trucks)", "created_at": "Fri Mar 04 21:45:07 +0000 2016", "klabel": 79}}, {"geometry": {"type": "Point", "coordinates": [-79.4523835, 43.714325]}, "type": "Feature", "id": 705874227623235584, "properties": {"loc": [-79.4523835, 43.714325], "centroid": [-79.3747620547255, 43.667219976186274], "screen_name": "tofire", "time": 1457146505.0, "tid": 705874227623235584, "text": "UD: Alarm Highrise Residential - Lawrence Avenue b/w Corona St / Dufferin St, North York (6 Trucks)", "created_at": "Fri Mar 04 21:55:05 +0000 2016", "klabel": 79}}, {"geometry": {"type": "Point", "coordinates": [-79.4523835, 43.714325]}, "type": "Feature", "id": 705874228856430592, "properties": {"loc": [-79.4523835, 43.714325], "centroid": [-79.3747620547255, 43.667219976186274], "screen_name": "tofireN", "time": 1457146505.0, "tid": 705874228856430592, "text": "UD: Alarm Highrise Residential - Lawrence Avenue b/w Corona St / Dufferin St, North York (6 Trucks)", "created_at": "Fri Mar 04 21:55:05 +0000 2016", "klabel": 79}}, {"geometry": {"type": "Point", "coordinates": [-79.4517161, 43.7150728]}, "type": "Feature", "id": 705884448881901568, "properties": {"loc": [-79.4517161, 43.7150728], "centroid": [-79.3747620547255, 43.667219976186274], "screen_name": "CIBCcareers", "time": 1457148941.0, "tid": 705884448881901568, "text": "Interested in a #Sales #job near #Toronto, Ontario? This could be a great fit: https://t.co/VLn2DVcK1g #cibc #cibcjobs #Hiring", "created_at": "Fri Mar 04 22:35:41 +0000 2016", "klabel": 79}}, {"geometry": {"type": "Point", "coordinates": [-79.45094705, 43.7345382]}, "type": "Feature", "id": 705886692545327104, "properties": {"loc": [-79.45094705, 43.7345382], "centroid": [-79.3747620547255, 43.667219976186274], "screen_name": "tylerhhan", "time": 1457149476.0, "tid": 705886692545327104, "text": "I'm at Wilson Subway Station in Toronto, ON https://t.co/krA3P4vUBy", "created_at": "Fri Mar 04 22:44:36 +0000 2016", "klabel": 79}}, {"geometry": {"type": "Point", "coordinates": [-79.4620735, 43.7364019]}, "type": "Feature", "id": 705897128246251520, "properties": {"loc": [-79.4620735, 43.7364019], "centroid": [-79.3747620547255, 43.667219976186274], "screen_name": "tofireN", "time": 1457151964.0, "tid": 705897128246251520, "text": "Medical (Check Call) - Gilley Road b/w Keswick Road / Maniza Road, North York (2 Trucks)", "created_at": "Fri Mar 04 23:26:04 +0000 2016", "klabel": 79}}, {"geometry": {"type": "Point", "coordinates": [-79.45233808, 43.72582527]}, "type": "Feature", "id": 705914740783054848, "properties": {"loc": [-79.45233808, 43.72582527], "centroid": [-79.3747620547255, 43.667219976186274], "screen_name": "Iamdjsnoopy", "time": 1457156164.0, "tid": 705914740783054848, "text": "Today is my baby boys 6 birthday \ud83d\ude18\ud83d\udc99\ud83c\udfc6\ud83d\ude4f\ud83c\udffe @ Yorkdale Shopping Centre https://t.co/xVXRHpZRvS", "created_at": "Sat Mar 05 00:36:04 +0000 2016", "klabel": 79}}, {"geometry": {"type": "Point", "coordinates": [-79.45233808, 43.72582527]}, "type": "Feature", "id": 705918703007825920, "properties": {"loc": [-79.45233808, 43.72582527], "centroid": [-79.3747620547255, 43.667219976186274], "screen_name": "Iamdjsnoopy", "time": 1457157108.0, "tid": 705918703007825920, "text": "I don't know how some guys can go months with out seeing there kids #SMH THATS CRAZY \ud83d\ude4f\ud83c\udffe But\u2026 https://t.co/zbDtS38fFK", "created_at": "Sat Mar 05 00:51:48 +0000 2016", "klabel": 79}}, {"geometry": {"type": "Point", "coordinates": [-79.4585349, 43.7133113]}, "type": "Feature", "id": 705929595107807232, "properties": {"loc": [-79.4585349, 43.7133113], "centroid": [-79.3747620547255, 43.667219976186274], "screen_name": "tofire", "time": 1457159705.0, "tid": 705929595107807232, "text": "Medical (Unconscious) - Lawrence Avenue West @ Apex Road, North York (2 Trucks)", "created_at": "Sat Mar 05 01:35:05 +0000 2016", "klabel": 79}}, {"geometry": {"type": "Point", "coordinates": [-79.4517161, 43.7150728]}, "type": "Feature", "id": 705935341199294464, "properties": {"loc": [-79.4517161, 43.7150728], "centroid": [-79.3747620547255, 43.667219976186274], "screen_name": "CIBCcareers", "time": 1457161075.0, "tid": 705935341199294464, "text": "See our latest #Toronto, Ontario #job and click to apply: Manager, Signing Authorities and Business Account... - https://t.co/Bj7XpRASMH", "created_at": "Sat Mar 05 01:57:55 +0000 2016", "klabel": 79}}, {"geometry": {"type": "Point", "coordinates": [-79.45102215, 43.72688636]}, "type": "Feature", "id": 706130839109804032, "properties": {"loc": [-79.45102215, 43.72688636], "centroid": [-79.3747620547255, 43.667219976186274], "screen_name": "kiki_BFF", "time": 1457207685.0, "tid": 706130839109804032, "text": "I'm at SilverCity Yorkdale Cinemas - @cineplexmovies in Toronto, ON https://t.co/VIbVxhOdAs", "created_at": "Sat Mar 05 14:54:45 +0000 2016", "klabel": 79}}, {"geometry": {"type": "Point", "coordinates": [-79.4520651, 43.7240726]}, "type": "Feature", "id": 707590782295867394, "properties": {"loc": [-79.4520651, 43.7240726], "centroid": [-79.3747620547255, 43.667219976186274], "screen_name": "tpscalls", "time": 1457555763.0, "tid": 707590782295867394, "text": "Property Damage Collision | Jane Osler Blvd &amp; Yorkdale Rd [32 Div.] 03/09 10:31 #North_York #Toronto", "created_at": "Wed Mar 09 15:36:03 +0000 2016", "klabel": 79}}, {"geometry": {"type": "Point", "coordinates": [-79.4517161, 43.7150728]}, "type": "Feature", "id": 707621066777071616, "properties": {"loc": [-79.4517161, 43.7150728], "centroid": [-79.3747620547255, 43.667219976186274], "screen_name": "CIBCcareers", "time": 1457562983.0, "tid": 707621066777071616, "text": "Customer Service Contact Centre Representative - CIBC: (#Toronto, Ontario) https://t.co/w2brTspB3S #Sales #cibc #cibcjobs #Job #Jobs #Hiring", "created_at": "Wed Mar 09 17:36:23 +0000 2016", "klabel": 79}}, {"geometry": {"type": "Point", "coordinates": [-79.45524, 43.71846]}, "type": "Feature", "id": 749786426183602176, "properties": {"loc": [-79.45524, 43.71846], "centroid": [-79.3747620547255, 43.667219976186274], "screen_name": "bakingzen", "time": 1467615989.0, "tid": 749786426183602176, "text": "Only a few more days of my giveaway for a year's worth of Big Mary's Chicken Sandwich! Go to my\u2026 https://t.co/YtPeYc5NS5", "created_at": "Mon Jul 04 02:06:29 +0000 2016", "klabel": 79}}, {"geometry": {"type": "Point", "coordinates": [-79.455288, 43.7208412]}, "type": "Feature", "id": 750031705856237569, "properties": {"loc": [-79.455288, 43.7208412], "centroid": [-79.3747620547255, 43.667219976186274], "screen_name": "DarioDmusic1", "time": 1467674468.0, "tid": 750031705856237569, "text": "All u salty cav fans need to hush Cuz the min wade signs with cavs y'all ain't gonna say nun", "created_at": "Mon Jul 04 18:21:08 +0000 2016", "klabel": 79}}, {"geometry": {"type": "Point", "coordinates": [-79.455301, 43.7208208]}, "type": "Feature", "id": 750031953399844864, "properties": {"loc": [-79.455301, 43.7208208], "centroid": [-79.3747620547255, 43.667219976186274], "screen_name": "DarioDmusic1", "time": 1467674527.0, "tid": 750031953399844864, "text": "@paugasol come to the north side!! #Raptors", "created_at": "Mon Jul 04 18:22:07 +0000 2016", "klabel": 79}}, {"geometry": {"type": "Point", "coordinates": [-79.4552683, 43.720863]}, "type": "Feature", "id": 750036003130208256, "properties": {"loc": [-79.4552683, 43.720863], "centroid": [-79.3747620547255, 43.667219976186274], "screen_name": "DarioDmusic1", "time": 1467675492.0, "tid": 750036003130208256, "text": "I'm soo cheesed pau is signing with the spurs smh", "created_at": "Mon Jul 04 18:38:12 +0000 2016", "klabel": 79}}, {"geometry": {"type": "Point", "coordinates": [-79.455278, 43.7208385]}, "type": "Feature", "id": 750039562290798592, "properties": {"loc": [-79.455278, 43.7208385], "centroid": [-79.3747620547255, 43.667219976186274], "screen_name": "DarioDmusic1", "time": 1467676341.0, "tid": 750039562290798592, "text": "I'm salty", "created_at": "Mon Jul 04 18:52:21 +0000 2016", "klabel": 79}}, {"geometry": {"type": "Point", "coordinates": [-79.455248, 43.7208605]}, "type": "Feature", "id": 750040130983976961, "properties": {"loc": [-79.455248, 43.7208605], "centroid": [-79.3747620547255, 43.667219976186274], "screen_name": "DarioDmusic1", "time": 1467676476.0, "tid": 750040130983976961, "text": "It's just one of those off seasons for Raptors where u just can't pick up anybody smh", "created_at": "Mon Jul 04 18:54:36 +0000 2016", "klabel": 79}}, {"geometry": {"type": "Point", "coordinates": [-79.4552385, 43.7208785]}, "type": "Feature", "id": 750063516653002752, "properties": {"loc": [-79.4552385, 43.7208785], "centroid": [-79.3747620547255, 43.667219976186274], "screen_name": "DarioDmusic1", "time": 1467682052.0, "tid": 750063516653002752, "text": "@1TaySp at this point yes lol", "created_at": "Mon Jul 04 20:27:32 +0000 2016", "klabel": 79}}, {"geometry": {"type": "Point", "coordinates": [-79.4536913, 43.709296]}, "type": "Feature", "id": 750087558110056448, "properties": {"loc": [-79.4536913, 43.709296], "centroid": [-79.3747620547255, 43.667219976186274], "screen_name": "tpscalls", "time": 1467687784.0, "tid": 750087558110056448, "text": "Fail To Remain Property Damage Collision | Ln 2 E Dufferin N Peel &amp; Dufferin St [HP] 07/04 17:57 #Toronto", "created_at": "Mon Jul 04 22:03:04 +0000 2016", "klabel": 79}}, {"geometry": {"type": "Point", "coordinates": [-79.452168, 43.7256702]}, "type": "Feature", "id": 750093219510136832, "properties": {"loc": [-79.452168, 43.7256702], "centroid": [-79.3747620547255, 43.667219976186274], "screen_name": "SRGRetailJobs", "time": 1467689134.0, "tid": 750093219510136832, "text": "#Retail #Job in #TORONTO, ON: Key Holder at PAPYRUS/ Cherry Blossom https://t.co/I5Ez6YRSTc #Jobs #Hiring", "created_at": "Mon Jul 04 22:25:34 +0000 2016", "klabel": 79}}, {"geometry": {"type": "Point", "coordinates": [-79.45697138, 43.72480149]}, "type": "Feature", "id": 750093587463938048, "properties": {"loc": [-79.45697138, 43.72480149], "centroid": [-79.3747620547255, 43.667219976186274], "screen_name": "makeupbymelo", "time": 1467689221.0, "tid": 750093587463938048, "text": "\ud83d\udcab\ud83d\udc40 @ Melomakeup https://t.co/42rPvHNUp3", "created_at": "Mon Jul 04 22:27:01 +0000 2016", "klabel": 79}}, {"geometry": {"type": "Point", "coordinates": [-79.4488408, 43.717116]}, "type": "Feature", "id": 750102654634889216, "properties": {"loc": [-79.4488408, 43.717116], "centroid": [-79.3747620547255, 43.667219976186274], "screen_name": "tpscalls", "time": 1467691383.0, "tid": 750102654634889216, "text": "Arrest | Marlee Ave &amp; Blossomfield Dr [32 Div.] 07/04 18:58 #Lawrence_Heights #Toronto", "created_at": "Mon Jul 04 23:03:03 +0000 2016", "klabel": 79}}, {"geometry": {"type": "Point", "coordinates": [-79.4638383, 43.7297244]}, "type": "Feature", "id": 750102655847071744, "properties": {"loc": [-79.4638383, 43.7297244], "centroid": [-79.3747620547255, 43.667219976186274], "screen_name": "tpscalls", "time": 1467691384.0, "tid": 750102655847071744, "text": "Found Property | Maniza Rd &amp; Lady York Ave [32 Div.] 07/04 18:58 #Winston_Park #Toronto", "created_at": "Mon Jul 04 23:03:04 +0000 2016", "klabel": 79}}, {"geometry": {"type": "Point", "coordinates": [-79.45087671, 43.72566051]}, "type": "Feature", "id": 750110786874322944, "properties": {"loc": [-79.45087671, 43.72566051], "centroid": [-79.3747620547255, 43.667219976186274], "screen_name": "liivtaylorr", "time": 1467693322.0, "tid": 750110786874322944, "text": "one of those I wish I bought this moments\ud83d\ude44 @ Zara https://t.co/XJIN33WWPA", "created_at": "Mon Jul 04 23:35:22 +0000 2016", "klabel": 79}}, {"geometry": {"type": "Point", "coordinates": [-79.4502744, 43.7280168]}, "type": "Feature", "id": 750111716311203840, "properties": {"loc": [-79.4502744, 43.7280168], "centroid": [-79.3747620547255, 43.667219976186274], "screen_name": "tpscalls", "time": 1467693544.0, "tid": 750111716311203840, "text": "Arrest | Jane Osler Blvd &amp; Yorkdale Rd [32 Div.] 07/04 19:35 #North_York #Toronto", "created_at": "Mon Jul 04 23:39:04 +0000 2016", "klabel": 79}}, {"geometry": {"type": "Point", "coordinates": [-79.4618298, 43.7260538]}, "type": "Feature", "id": 750117662290743297, "properties": {"loc": [-79.4618298, 43.7260538], "centroid": [-79.3747620547255, 43.667219976186274], "screen_name": "madeline_dm", "time": 1467694961.0, "tid": 750117662290743297, "text": "This past weekend, we made our own wine! \ud83c\udf47\ud83c\udf77\ud83d\udc6b\ud83d\udc95\ud83c\uddee\ud83c\uddf9 #winebutler.ca #groupon #pinotnoir @ The Wine\u2026 https://t.co/dkCFexkIkj", "created_at": "Tue Jul 05 00:02:41 +0000 2016", "klabel": 79}}, {"geometry": {"type": "Point", "coordinates": [-79.4552805, 43.7207678]}, "type": "Feature", "id": 750153133163241473, "properties": {"loc": [-79.4552805, 43.7207678], "centroid": [-79.3747620547255, 43.667219976186274], "screen_name": "DarioDmusic1", "time": 1467703418.0, "tid": 750153133163241473, "text": "@1TaySp I'm salty", "created_at": "Tue Jul 05 02:23:38 +0000 2016", "klabel": 79}}, {"geometry": {"type": "Point", "coordinates": [-79.45395544, 43.72629779]}, "type": "Feature", "id": 750153582297681921, "properties": {"loc": [-79.45395544, 43.72629779], "centroid": [-79.3747620547255, 43.667219976186274], "screen_name": "chernyshov", "time": 1467703525.0, "tid": 750153582297681921, "text": "I am definitely not an artist. #paintnite @ Pickle Barrel Yorkdale Mall https://t.co/CzhJvj1XFw", "created_at": "Tue Jul 05 02:25:25 +0000 2016", "klabel": 79}}, {"geometry": {"type": "Point", "coordinates": [-79.446416, 43.7346996]}, "type": "Feature", "id": 750179666208620544, "properties": {"loc": [-79.446416, 43.7346996], "centroid": [-79.3747620547255, 43.667219976186274], "screen_name": "tpscalls", "time": 1467709744.0, "tid": 750179666208620544, "text": "Fire | Faywood Blvd &amp; Wilson Heights Blvd [32 Div.] 07/05 00:03 #Wilson_Heights #Toronto", "created_at": "Tue Jul 05 04:09:04 +0000 2016", "klabel": 79}}, {"geometry": {"type": "Point", "coordinates": [-79.4536913, 43.709296]}, "type": "Feature", "id": 750179669350215680, "properties": {"loc": [-79.4536913, 43.709296], "centroid": [-79.3747620547255, 43.667219976186274], "screen_name": "tpscalls", "time": 1467709745.0, "tid": 750179669350215680, "text": "See Ambulance | Ln W Bristol N Geary &amp; Dufferin St [13 Div.] 07/05 00:04 #Toronto", "created_at": "Tue Jul 05 04:09:05 +0000 2016", "klabel": 79}}, {"geometry": {"type": "Point", "coordinates": [-79.4435559, 43.7165762]}, "type": "Feature", "id": 750309772965056512, "properties": {"loc": [-79.4435559, 43.7165762], "centroid": [-79.3747620547255, 43.667219976186274], "screen_name": "tofire", "time": 1467740764.0, "tid": 750309772965056512, "text": "Hazmat Level 1 - William R Allen Road North @ Lawrence Avenue West, North York (2 Trucks)", "created_at": "Tue Jul 05 12:46:04 +0000 2016", "klabel": 79}}, {"geometry": {"type": "Point", "coordinates": [-79.446645, 43.7189031]}, "type": "Feature", "id": 750312286649188353, "properties": {"loc": [-79.446645, 43.7189031], "centroid": [-79.3747620547255, 43.667219976186274], "screen_name": "tofire", "time": 1467741363.0, "tid": 750312286649188353, "text": "UD: Natural Gas Leak - Flemington Road @ Dynasty Lane, North York (2 Trucks)", "created_at": "Tue Jul 05 12:56:03 +0000 2016", "klabel": 79}}, {"geometry": {"type": "Point", "coordinates": [-79.4483369, 43.7222506]}, "type": "Feature", "id": 750318070032367618, "properties": {"loc": [-79.4483369, 43.7222506], "centroid": [-79.3747620547255, 43.667219976186274], "screen_name": "tpscalls", "time": 1467742742.0, "tid": 750318070032367618, "text": "Natural Gas Leak | Flemington Rd &amp; Javelin Lane [32 Div.] 07/05 09:14 #Lawrence_Heights #Toronto", "created_at": "Tue Jul 05 13:19:02 +0000 2016", "klabel": 79}}, {"geometry": {"type": "Point", "coordinates": [-79.457092, 43.724736]}, "type": "Feature", "id": 750365248570462208, "properties": {"loc": [-79.457092, 43.724736], "centroid": [-79.3747620547255, 43.667219976186274], "screen_name": "blushdaisies", "time": 1467753991.0, "tid": 750365248570462208, "text": "Rawr\ud83e\udd81 \n\nSKIN: @hourglassmakeup Vanish Foundation Stick in Alabaster (ps: IN LOVE) \nEYES:\u2026 https://t.co/D3GGeUnBCR", "created_at": "Tue Jul 05 16:26:31 +0000 2016", "klabel": 79}}, {"geometry": {"type": "Point", "coordinates": [-79.4491782, 43.7251234]}, "type": "Feature", "id": 750371298115670016, "properties": {"loc": [-79.4491782, 43.7251234], "centroid": [-79.3747620547255, 43.667219976186274], "screen_name": "tmj_gta_hrta", "time": 1467755433.0, "tid": 750371298115670016, "text": "Starbucks #Hospitality #Job: Barista (CA) (1 YORKDALE ROAD STE 1, #TORONTO, ON) https://t.co/HZX2EDinEP #Veterans #Jobs #Hiring #CareerArc", "created_at": "Tue Jul 05 16:50:33 +0000 2016", "klabel": 79}}, {"geometry": {"type": "Point", "coordinates": [-79.4618298, 43.7260538]}, "type": "Feature", "id": 750372947672563712, "properties": {"loc": [-79.4618298, 43.7260538], "centroid": [-79.3747620547255, 43.667219976186274], "screen_name": "DamonMahon", "time": 1467755826.0, "tid": 750372947672563712, "text": "My stress free zone. @ Atlas Boxing &amp; Fitness Club https://t.co/5YQapqFt8u", "created_at": "Tue Jul 05 16:57:06 +0000 2016", "klabel": 79}}, {"geometry": {"type": "Point", "coordinates": [-79.4536913, 43.709296]}, "type": "Feature", "id": 751215484922634240, "properties": {"loc": [-79.4536913, 43.709296], "centroid": [-79.3747620547255, 43.667219976186274], "screen_name": "tpscalls", "time": 1467956703.0, "tid": 751215484922634240, "text": "Robbery | Locksley Ave &amp; Dufferin St [13 Div.] 07/07 20:39 #Toronto", "created_at": "Fri Jul 08 00:45:03 +0000 2016", "klabel": 79}}, {"geometry": {"type": "Point", "coordinates": [-79.45311061, 43.72657589]}, "type": "Feature", "id": 751222546637393920, "properties": {"loc": [-79.45311061, 43.72657589], "centroid": [-79.3747620547255, 43.667219976186274], "screen_name": "lindaa00", "time": 1467958386.0, "tid": 751222546637393920, "text": "jamiesitalianca @yorkdalestyle\nRigatoni Pomodoro \ud83c\udf45\ud83c\udf5d\nSweet tomato sauce with garlic, basil,\u2026 https://t.co/BIpg0hN4iD", "created_at": "Fri Jul 08 01:13:06 +0000 2016", "klabel": 79}}, {"geometry": {"type": "Point", "coordinates": [-79.45311061, 43.72657589]}, "type": "Feature", "id": 751224739838984192, "properties": {"loc": [-79.45311061, 43.72657589], "centroid": [-79.3747620547255, 43.667219976186274], "screen_name": "lindaa00", "time": 1467958909.0, "tid": 751224739838984192, "text": "jamiesitalianca @yorkdalestyle\nPorcini Fettuccine \ud83c\udf44\ud83c\udf5d\ud83c\udf74\nWith wild &amp; field mushrooms, mascarpone,\u2026 https://t.co/lfOM1jWuCt", "created_at": "Fri Jul 08 01:21:49 +0000 2016", "klabel": 79}}, {"geometry": {"type": "Point", "coordinates": [-79.46397, 43.73157]}, "type": "Feature", "id": 751224837784215552, "properties": {"loc": [-79.46397, 43.73157], "centroid": [-79.3747620547255, 43.667219976186274], "screen_name": "4everArjoon", "time": 1467958933.0, "tid": 751224837784215552, "text": "enzo.salon.inc got me feeling myself on a #thursday #freshcut #longhair #blowout\u2026 https://t.co/DybBOl22K9", "created_at": "Fri Jul 08 01:22:13 +0000 2016", "klabel": 79}}, {"geometry": {"type": "Point", "coordinates": [-79.4491782, 43.7251234]}, "type": "Feature", "id": 751728471777218561, "properties": {"loc": [-79.4491782, 43.7251234], "centroid": [-79.3747620547255, 43.667219976186274], "screen_name": "LEGO_Careers", "time": 1468079008.0, "tid": 751728471777218561, "text": "Want to work at LEGO Group? We're #hiring in #Toronto, ON! Click for details: https://t.co/NBAhXglE7S #Job #Jobs https://t.co/Fi1uJNBPqO", "created_at": "Sat Jul 09 10:43:28 +0000 2016", "klabel": 79}}, {"geometry": {"type": "Point", "coordinates": [-79.4540783, 43.7279155]}, "type": "Feature", "id": 751747958866112512, "properties": {"loc": [-79.4540783, 43.7279155], "centroid": [-79.3747620547255, 43.667219976186274], "screen_name": "itsAfeeling", "time": 1468083654.0, "tid": 751747958866112512, "text": "Not a bad morning... Got my macchiato and morning walk with thus pretty boy \ud83d\ude0a @ West Toronto\u2026 https://t.co/u4gSIspM9w", "created_at": "Sat Jul 09 12:00:54 +0000 2016", "klabel": 79}}, {"geometry": {"type": "Point", "coordinates": [-79.4540783, 43.7279155]}, "type": "Feature", "id": 751754436716982272, "properties": {"loc": [-79.4540783, 43.7279155], "centroid": [-79.3747620547255, 43.667219976186274], "screen_name": "itsAfeeling", "time": 1468085199.0, "tid": 751754436716982272, "text": "#GoodMorning! @ West Toronto Railpath https://t.co/XUcrWyvt3G", "created_at": "Sat Jul 09 12:26:39 +0000 2016", "klabel": 79}}, {"geometry": {"type": "Point", "coordinates": [-79.4491782, 43.7251234]}, "type": "Feature", "id": 751760913871417344, "properties": {"loc": [-79.4491782, 43.7251234], "centroid": [-79.3747620547255, 43.667219976186274], "screen_name": "LEGO_Careers", "time": 1468086743.0, "tid": 751760913871417344, "text": "We're #hiring! Click to apply: Temporary Sales Associate (Brick Specialist) -... - https://t.co/rjlGs0bSJQ #Job https://t.co/lL9L7ol8Eo", "created_at": "Sat Jul 09 12:52:23 +0000 2016", "klabel": 79}}, {"geometry": {"type": "Point", "coordinates": [-79.452168, 43.7256702]}, "type": "Feature", "id": 751811468564107264, "properties": {"loc": [-79.452168, 43.7256702], "centroid": [-79.3747620547255, 43.667219976186274], "screen_name": "tmj_gta_retail", "time": 1468098796.0, "tid": 751811468564107264, "text": "Want to work at bebe? We're #hiring in #Toronto, ON! Click for details: https://t.co/ZtPHK4uM7I #Job #Retail #Jobs #CareerArc", "created_at": "Sat Jul 09 16:13:16 +0000 2016", "klabel": 79}}, {"geometry": {"type": "Point", "coordinates": [-79.461698, 43.719171]}, "type": "Feature", "id": 751871563163701252, "properties": {"loc": [-79.461698, 43.719171], "centroid": [-79.3747620547255, 43.667219976186274], "screen_name": "tpscalls", "time": 1468113124.0, "tid": 751871563163701252, "text": "Arrest | Samor Rd &amp; Orfus Rd [32 Div.] 07/09 16:07 #Yorkdale #Toronto", "created_at": "Sat Jul 09 20:12:04 +0000 2016", "klabel": 79}}, {"geometry": {"type": "Point", "coordinates": [-79.4491782, 43.7251234]}, "type": "Feature", "id": 751887861478154240, "properties": {"loc": [-79.4491782, 43.7251234], "centroid": [-79.3747620547255, 43.667219976186274], "screen_name": "tmj_gta_hrta", "time": 1468117010.0, "tid": 751887861478154240, "text": "Interested in a #job near 1 YORKDALE ROAD STE 1, #TORONTO, ON? This could be a great fit: https://t.co/GiLb2Vouia #Hospitality #Veterans", "created_at": "Sat Jul 09 21:16:50 +0000 2016", "klabel": 79}}, {"geometry": {"type": "Point", "coordinates": [-79.4502744, 43.7280168]}, "type": "Feature", "id": 751905536715743233, "properties": {"loc": [-79.4502744, 43.7280168], "centroid": [-79.3747620547255, 43.667219976186274], "screen_name": "tpscalls", "time": 1468121224.0, "tid": 751905536715743233, "text": "Arrest | Jane Osler Blvd &amp; Yorkdale Rd [32 Div.] 07/09 18:23 #North_York #Toronto", "created_at": "Sat Jul 09 22:27:04 +0000 2016", "klabel": 79}}, {"geometry": {"type": "Point", "coordinates": [-79.45703, 43.72474]}, "type": "Feature", "id": 751921450643255296, "properties": {"loc": [-79.45703, 43.72474], "centroid": [-79.3747620547255, 43.667219976186274], "screen_name": "IamJonahMicah", "time": 1468125018.0, "tid": 751921450643255296, "text": "A ten over ten rate for this one \u263a your service is awesome \u263a\u2606\ud83d\udc4d\ud83d\udc4f .\u2026 https://t.co/6ytnYO5fM3", "created_at": "Sat Jul 09 23:30:18 +0000 2016", "klabel": 79}}, {"geometry": {"type": "Point", "coordinates": [-79.45311061, 43.72657589]}, "type": "Feature", "id": 751941419250528256, "properties": {"loc": [-79.45311061, 43.72657589], "centroid": [-79.3747620547255, 43.667219976186274], "screen_name": "Alex_Cooper89", "time": 1468129779.0, "tid": 751941419250528256, "text": "At Jamie Olivers Italian at Yorkdale having a lovely but filling meal @ Jamie's Italian Canada https://t.co/JmsaMPLUvB", "created_at": "Sun Jul 10 00:49:39 +0000 2016", "klabel": 79}}, {"geometry": {"type": "Point", "coordinates": [-79.448889, 43.725278]}, "type": "Feature", "id": 751979102777868288, "properties": {"loc": [-79.448889, 43.725278], "centroid": [-79.3747620547255, 43.667219976186274], "screen_name": "DonnaxAnna", "time": 1468138763.0, "tid": 751979102777868288, "text": "Traveling from North York. #yorkdale #ontario @ Yorkdale Bus Terminal https://t.co/RB9ilZCt0i", "created_at": "Sun Jul 10 03:19:23 +0000 2016", "klabel": 79}}, {"geometry": {"type": "Point", "coordinates": [-79.4540783, 43.7279155]}, "type": "Feature", "id": 752093146281078784, "properties": {"loc": [-79.4540783, 43.7279155], "centroid": [-79.3747620547255, 43.667219976186274], "screen_name": "itsAfeeling", "time": 1468165953.0, "tid": 752093146281078784, "text": "#GoodMorning #Toronto ...taking a break from running on the railpathto and it's lovely outside!\u2026 https://t.co/HKRBxGu1l6", "created_at": "Sun Jul 10 10:52:33 +0000 2016", "klabel": 79}}, {"geometry": {"type": "Point", "coordinates": [-79.4542157, 43.7230045]}, "type": "Feature", "id": 752138063510376448, "properties": {"loc": [-79.4542157, 43.7230045], "centroid": [-79.3747620547255, 43.667219976186274], "screen_name": "tpscalls", "time": 1468176663.0, "tid": 752138063510376448, "text": "Assault Just Occurred | Bentworth Ave &amp; Glen Belle Cres [32 Div.] 07/10 09:47 #North_York #Toronto", "created_at": "Sun Jul 10 13:51:03 +0000 2016", "klabel": 79}}, {"geometry": {"type": "Point", "coordinates": [-79.45388834, 43.72436562]}, "type": "Feature", "id": 752159108271312897, "properties": {"loc": [-79.45388834, 43.72436562], "centroid": [-79.3747620547255, 43.667219976186274], "screen_name": "joeymanuguid", "time": 1468181680.0, "tid": 752159108271312897, "text": "I'm at Southwest Parking https://t.co/haTIJXZUU7", "created_at": "Sun Jul 10 15:14:40 +0000 2016", "klabel": 79}}, {"geometry": {"type": "Point", "coordinates": [-79.45218515, 43.72606505]}, "type": "Feature", "id": 752163076854677505, "properties": {"loc": [-79.45218515, 43.72606505], "centroid": [-79.3747620547255, 43.667219976186274], "screen_name": "joeymanuguid", "time": 1468182626.0, "tid": 752163076854677505, "text": "I'm at Dine On 3 in Toronto, ON https://t.co/owoLBQSsnd", "created_at": "Sun Jul 10 15:30:26 +0000 2016", "klabel": 79}}, {"geometry": {"type": "Point", "coordinates": [-79.4537802, 43.7097384]}, "type": "Feature", "id": 752174309116940289, "properties": {"loc": [-79.4537802, 43.7097384], "centroid": [-79.3747620547255, 43.667219976186274], "screen_name": "tpscalls", "time": 1468185304.0, "tid": 752174309116940289, "text": "Unknown Trouble | Dufferin St &amp; Glenbrook Ave [13 Div.] 07/10 12:10 #Glen_Park #Toronto", "created_at": "Sun Jul 10 16:15:04 +0000 2016", "klabel": 79}}, {"geometry": {"type": "Point", "coordinates": [-79.4529768, 43.7264831]}, "type": "Feature", "id": 752192745423286272, "properties": {"loc": [-79.4529768, 43.7264831], "centroid": [-79.3747620547255, 43.667219976186274], "screen_name": "tmj_vets", "time": 1468189700.0, "tid": 752192745423286272, "text": "If you're looking for work in #Toronto, Ontario, check out this #job: https://t.co/aduamGhIsp #Sales #Veterans #Hiring #CareerArc", "created_at": "Sun Jul 10 17:28:20 +0000 2016", "klabel": 79}}, {"geometry": {"type": "Point", "coordinates": [-79.4502744, 43.7280168]}, "type": "Feature", "id": 752200224769187844, "properties": {"loc": [-79.4502744, 43.7280168], "centroid": [-79.3747620547255, 43.667219976186274], "screen_name": "tpscalls", "time": 1468191483.0, "tid": 752200224769187844, "text": "Arrest | Jane Osler Blvd &amp; Yorkdale Rd [32 Div.] 07/10 13:52 #North_York #Toronto", "created_at": "Sun Jul 10 17:58:03 +0000 2016", "klabel": 79}}, {"geometry": {"type": "Point", "coordinates": [-79.45561121, 43.73081473]}, "type": "Feature", "id": 752269986840784899, "properties": {"loc": [-79.45561121, 43.73081473], "centroid": [-79.3747620547255, 43.667219976186274], "screen_name": "TheProjectMaria", "time": 1468208116.0, "tid": 752269986840784899, "text": "Look what I saw in the lunch room \ud83d\udc48\ud83d\udc48\ud83d\ude01\ud83d\ude01\ud83d\ude01 #PokemonGO #pokemon #Costco @ Costco Downsview https://t.co/rRsKZkPcSE", "created_at": "Sun Jul 10 22:35:16 +0000 2016", "klabel": 79}}, {"geometry": {"type": "Point", "coordinates": [-79.45088664, 43.72694274]}, "type": "Feature", "id": 752300055718158336, "properties": {"loc": [-79.45088664, 43.72694274], "centroid": [-79.3747620547255, 43.667219976186274], "screen_name": "ajamal1211", "time": 1468215284.0, "tid": 752300055718158336, "text": "Just seen #secretlifeofpets , funniest movie this year!! \ud83d\ude03 #lovedit\u2026 https://t.co/xRLNb1V01L", "created_at": "Mon Jul 11 00:34:44 +0000 2016", "klabel": 79}}, {"geometry": {"type": "Point", "coordinates": [-79.45697138, 43.72480149]}, "type": "Feature", "id": 752318994439237632, "properties": {"loc": [-79.45697138, 43.72480149], "centroid": [-79.3747620547255, 43.667219976186274], "screen_name": "iAndrewLim", "time": 1468219800.0, "tid": 752318994439237632, "text": "Tried the HTC VIVE today. I'm completely sold on VR now. It is AMAZING!\ud83d\ude31 So much better than\u2026 https://t.co/rRwMTSaTSo", "created_at": "Mon Jul 11 01:50:00 +0000 2016", "klabel": 79}}, {"geometry": {"type": "Point", "coordinates": [-79.4536913, 43.709296]}, "type": "Feature", "id": 752399533989036033, "properties": {"loc": [-79.4536913, 43.709296], "centroid": [-79.3747620547255, 43.667219976186274], "screen_name": "tpscalls", "time": 1468239002.0, "tid": 752399533989036033, "text": "Disorderlies | Westmount Ave &amp; Dufferin St [13 Div.] 07/11 03:03 #Toronto", "created_at": "Mon Jul 11 07:10:02 +0000 2016", "klabel": 79}}, {"geometry": {"type": "Point", "coordinates": [-79.45697138, 43.72480149]}, "type": "Feature", "id": 752472677466705920, "properties": {"loc": [-79.45697138, 43.72480149], "centroid": [-79.3747620547255, 43.667219976186274], "screen_name": "Mrbrightside_RR", "time": 1468256441.0, "tid": 752472677466705920, "text": "And the day begins.... .. \ud83c\udde8\ud83c\udde6I got my eyes on you ! \ud83d\ude0e\ud83c\udfa4\ud83c\udfa7\ud83c\udfb6 #drake\u2026 https://t.co/wjUx3OQNqw", "created_at": "Mon Jul 11 12:00:41 +0000 2016", "klabel": 79}}, {"geometry": {"type": "Point", "coordinates": [-79.4491782, 43.7251234]}, "type": "Feature", "id": 752510112208527360, "properties": {"loc": [-79.4491782, 43.7251234], "centroid": [-79.3747620547255, 43.667219976186274], "screen_name": "tmj_gta_retail", "time": 1468265366.0, "tid": 752510112208527360, "text": "If you're looking for work in #Toronto, ON, check out this #job: https://t.co/C8EvGA03ET #LEGO #Hiring", "created_at": "Mon Jul 11 14:29:26 +0000 2016", "klabel": 79}}, {"geometry": {"type": "Point", "coordinates": [-79.4560133, 43.7305161]}, "type": "Feature", "id": 752512599179145216, "properties": {"loc": [-79.4560133, 43.7305161], "centroid": [-79.3747620547255, 43.667219976186274], "screen_name": "AvivRestaurant", "time": 1468265959.0, "tid": 752512599179145216, "text": "@LiciousTO @eskawater @INTERAC  tonight #Summerlicious pre fixe and #HomeRunDerby on TV @mlb #goyard #annex #toronto #welcomehome #patio", "created_at": "Mon Jul 11 14:39:19 +0000 2016", "klabel": 79}}, {"geometry": {"type": "Point", "coordinates": [-79.456374, 43.7217437]}, "type": "Feature", "id": 752529896866476033, "properties": {"loc": [-79.456374, 43.7217437], "centroid": [-79.3747620547255, 43.667219976186274], "screen_name": "tpscalls", "time": 1468270083.0, "tid": 752529896866476033, "text": "Animal Comp | Dufferin St &amp; Ranee Ave [32 Div.] 07/11 11:44 #Yorkdale #Toronto", "created_at": "Mon Jul 11 15:48:03 +0000 2016", "klabel": 79}}, {"geometry": {"type": "Point", "coordinates": [-79.4491782, 43.7251234]}, "type": "Feature", "id": 752592509209939969, "properties": {"loc": [-79.4491782, 43.7251234], "centroid": [-79.3747620547255, 43.667219976186274], "screen_name": "tmj_gta_hrta", "time": 1468285011.0, "tid": 752592509209939969, "text": "Want to work in 1 YORKDALE ROAD STE 1, #TORONTO, ON? View our latest opening: https://t.co/HZX2EDinEP #Job #Hospitality #Veterans #Jobs", "created_at": "Mon Jul 11 19:56:51 +0000 2016", "klabel": 79}}, {"geometry": {"type": "Point", "coordinates": [-79.4464852, 43.7155683]}, "type": "Feature", "id": 752626290826547204, "properties": {"loc": [-79.4464852, 43.7155683], "centroid": [-79.3747620547255, 43.667219976186274], "screen_name": "tofireN", "time": 1468293065.0, "tid": 752626290826547204, "text": "Tems Transferred (Read Remarks) - Marlee Avenue @ Lawrence Avenue West, North York (2 Trucks)", "created_at": "Mon Jul 11 22:11:05 +0000 2016", "klabel": 79}}, {"geometry": {"type": "Point", "coordinates": [-79.4581957, 43.7126593]}, "type": "Feature", "id": 752723173590831104, "properties": {"loc": [-79.4581957, 43.7126593], "centroid": [-79.3747620547255, 43.667219976186274], "screen_name": "tpscalls", "time": 1468316164.0, "tid": 752723173590831104, "text": "Unknown Trouble | Dufferin St &amp; Good Shepherd Crt [32 Div.] 07/12 00:32 #North_York #Toronto", "created_at": "Tue Jul 12 04:36:04 +0000 2016", "klabel": 79}}, {"geometry": {"type": "Point", "coordinates": [-79.4517161, 43.7150728]}, "type": "Feature", "id": 752833647732858880, "properties": {"loc": [-79.4517161, 43.7150728], "centroid": [-79.3747620547255, 43.667219976186274], "screen_name": "tmj_gta_sales", "time": 1468342503.0, "tid": 752833647732858880, "text": "Interested in a #job near #Toronto, Ontario? This could be a great fit: https://t.co/aW0RJ5YBJK #cibc #cibcjobs #cibccareers #Hiring", "created_at": "Tue Jul 12 11:55:03 +0000 2016", "klabel": 79}}, {"geometry": {"type": "Point", "coordinates": [-79.456374, 43.7217437]}, "type": "Feature", "id": 752851010788462593, "properties": {"loc": [-79.456374, 43.7217437], "centroid": [-79.3747620547255, 43.667219976186274], "screen_name": "tpscalls", "time": 1468346642.0, "tid": 752851010788462593, "text": "Personal Injury Collision | Ranee Ave &amp; Dufferin St [32 Div.] 07/12 08:58 #Yorkdale #Toronto", "created_at": "Tue Jul 12 13:04:02 +0000 2016", "klabel": 79}}, {"geometry": {"type": "Point", "coordinates": [-79.456374, 43.7217437]}, "type": "Feature", "id": 752851011899973632, "properties": {"loc": [-79.456374, 43.7217437], "centroid": [-79.3747620547255, 43.667219976186274], "screen_name": "tpscalls", "time": 1468346643.0, "tid": 752851011899973632, "text": "Personal Injury Collision | Ranee Ave &amp; Dufferin St [HP] 07/12 08:58 #Yorkdale #Toronto", "created_at": "Tue Jul 12 13:04:03 +0000 2016", "klabel": 79}}, {"geometry": {"type": "Point", "coordinates": [-79.4584526, 43.7299424]}, "type": "Feature", "id": 752851513865830400, "properties": {"loc": [-79.4584526, 43.7299424], "centroid": [-79.3747620547255, 43.667219976186274], "screen_name": "tpscalls", "time": 1468346762.0, "tid": 752851513865830400, "text": "Trespass | Billy Bishop Way &amp; Dufferin St [32 Div.] 07/12 09:00 #Winston_Park #Toronto", "created_at": "Tue Jul 12 13:06:02 +0000 2016", "klabel": 79}}, {"geometry": {"type": "Point", "coordinates": [-79.45524, 43.71846]}, "type": "Feature", "id": 752917290677600256, "properties": {"loc": [-79.45524, 43.71846], "centroid": [-79.3747620547255, 43.667219976186274], "screen_name": "Johndang3r", "time": 1468362445.0, "tid": 752917290677600256, "text": "Gotta use those vouchers \u263a\ufe0f #bigmary #friedchicken #nomnomnom #torontoeats @ Mary Brown's Chicken https://t.co/V6rR60fI8h", "created_at": "Tue Jul 12 17:27:25 +0000 2016", "klabel": 79}}, {"geometry": {"type": "Point", "coordinates": [-79.453459, 43.708148]}, "type": "Feature", "id": 752921737029939200, "properties": {"loc": [-79.453459, 43.708148], "centroid": [-79.3747620547255, 43.667219976186274], "screen_name": "tofireN", "time": 1468363505.0, "tid": 752921737029939200, "text": "Vehicle (Personal Injury) - Dufferin St b/w Glen Park Avenue / Glengrove Avenue, North York (2 Trucks)", "created_at": "Tue Jul 12 17:45:05 +0000 2016", "klabel": 79}}, {"geometry": {"type": "Point", "coordinates": [-79.450474, 43.7104207]}, "type": "Feature", "id": 752941355786264576, "properties": {"loc": [-79.450474, 43.7104207], "centroid": [-79.3747620547255, 43.667219976186274], "screen_name": "tpscalls", "time": 1468368182.0, "tid": 752941355786264576, "text": "Arrest | Glengrove Ave &amp; Glenbrook Ave [13 Div.] 07/12 14:58 #Briar_Hill_Belgravia #Toronto", "created_at": "Tue Jul 12 19:03:02 +0000 2016", "klabel": 79}}, {"geometry": {"type": "Point", "coordinates": [-79.45697138, 43.72480149]}, "type": "Feature", "id": 752964800108433408, "properties": {"loc": [-79.45697138, 43.72480149], "centroid": [-79.3747620547255, 43.667219976186274], "screen_name": "makeupbymelo", "time": 1468373772.0, "tid": 752964800108433408, "text": "#melosnaps \ud83d\udcf8 @ Melomakeup https://t.co/Ux8JpSSheq", "created_at": "Tue Jul 12 20:36:12 +0000 2016", "klabel": 79}}, {"geometry": {"type": "Point", "coordinates": [-79.4502744, 43.7280168]}, "type": "Feature", "id": 753005531934105605, "properties": {"loc": [-79.4502744, 43.7280168], "centroid": [-79.3747620547255, 43.667219976186274], "screen_name": "tpscalls", "time": 1468383483.0, "tid": 753005531934105605, "text": "Animal Comp | Jane Osler Blvd &amp; Yorkdale Rd [32 Div.] 07/12 19:12 #North_York #Toronto", "created_at": "Tue Jul 12 23:18:03 +0000 2016", "klabel": 79}}, {"geometry": {"type": "Point", "coordinates": [-79.4536913, 43.709296]}, "type": "Feature", "id": 753016108869877760, "properties": {"loc": [-79.4536913, 43.709296], "centroid": [-79.3747620547255, 43.667219976186274], "screen_name": "tpscalls", "time": 1468386005.0, "tid": 753016108869877760, "text": "Hazard | Gardiner Xwy W &amp; Dufferin St [HP] 07/12 19:55 #Toronto", "created_at": "Wed Jul 13 00:00:05 +0000 2016", "klabel": 79}}, {"geometry": {"type": "Point", "coordinates": [-79.4488408, 43.717116]}, "type": "Feature", "id": 753071969269059585, "properties": {"loc": [-79.4488408, 43.717116], "centroid": [-79.3747620547255, 43.667219976186274], "screen_name": "tpscalls", "time": 1468399323.0, "tid": 753071969269059585, "text": "Arrest | Marlee Ave &amp; Blossomfield Dr [32 Div.] 07/12 23:37 #Lawrence_Heights #Toronto", "created_at": "Wed Jul 13 03:42:03 +0000 2016", "klabel": 79}}, {"geometry": {"type": "Point", "coordinates": [-79.4665917, 43.7335608]}, "type": "Feature", "id": 753073483437989888, "properties": {"loc": [-79.4665917, 43.7335608], "centroid": [-79.3747620547255, 43.667219976186274], "screen_name": "tpscalls", "time": 1468399684.0, "tid": 753073483437989888, "text": "Unknown Trouble | Katherine Rd &amp; Spalding Rd [32 Div.] 07/12 23:43 #Downsview #Toronto", "created_at": "Wed Jul 13 03:48:04 +0000 2016", "klabel": 79}}, {"geometry": {"type": "Point", "coordinates": [-79.4546226, 43.7140185]}, "type": "Feature", "id": 753095374571790336, "properties": {"loc": [-79.4546226, 43.7140185], "centroid": [-79.3747620547255, 43.667219976186274], "screen_name": "tpscalls", "time": 1468404903.0, "tid": 753095374571790336, "text": "Fire | Dufferin St &amp; Lawrence Ave W [32 Div.] 07/13 01:10 #Glen_Park #Toronto", "created_at": "Wed Jul 13 05:15:03 +0000 2016", "klabel": 79}}, {"geometry": {"type": "Point", "coordinates": [-79.4537802, 43.7097384]}, "type": "Feature", "id": 753253412800720900, "properties": {"loc": [-79.4537802, 43.7097384], "centroid": [-79.3747620547255, 43.667219976186274], "screen_name": "tpscalls", "time": 1468442583.0, "tid": 753253412800720900, "text": "Theft | Glenbrook Ave &amp; Dufferin St [SRU] 07/13 11:38 #Glen_Park #Toronto", "created_at": "Wed Jul 13 15:43:03 +0000 2016", "klabel": 79}}, {"geometry": {"type": "Point", "coordinates": [-79.45218515, 43.72606505]}, "type": "Feature", "id": 753275771700084740, "properties": {"loc": [-79.45218515, 43.72606505], "centroid": [-79.3747620547255, 43.667219976186274], "screen_name": "tylerhhan", "time": 1468447913.0, "tid": 753275771700084740, "text": "I'm at Dine On 3 in Toronto, ON https://t.co/nhvOG2llyx", "created_at": "Wed Jul 13 17:11:53 +0000 2016", "klabel": 79}}, {"geometry": {"type": "Point", "coordinates": [-79.4491782, 43.7251234]}, "type": "Feature", "id": 753300008917610496, "properties": {"loc": [-79.4491782, 43.7251234], "centroid": [-79.3747620547255, 43.667219976186274], "screen_name": "LEGO_Careers", "time": 1468453692.0, "tid": 753300008917610496, "text": "Interested in a #job near #Toronto, ON? This could be a great fit: https://t.co/MZF9LWwFog #BringYourCareerToLife https://t.co/dMEhtFtKAz", "created_at": "Wed Jul 13 18:48:12 +0000 2016", "klabel": 79}}, {"geometry": {"type": "Point", "coordinates": [-79.4483645, 43.7151665]}, "type": "Feature", "id": 753349046677475332, "properties": {"loc": [-79.4483645, 43.7151665], "centroid": [-79.3747620547255, 43.667219976186274], "screen_name": "tpscalls", "time": 1468465383.0, "tid": 753349046677475332, "text": "Hazard | Lawrence Ave W &amp; Blossomfield Dr [32 Div.] 07/13 17:58 #Glen_Park #Toronto", "created_at": "Wed Jul 13 22:03:03 +0000 2016", "klabel": 79}}, {"geometry": {"type": "Point", "coordinates": [-79.45697138, 43.72480149]}, "type": "Feature", "id": 753388890623311872, "properties": {"loc": [-79.45697138, 43.72480149], "centroid": [-79.3747620547255, 43.667219976186274], "screen_name": "thespecialKway1", "time": 1468474883.0, "tid": 753388890623311872, "text": "I think I am in love with this sneaker\ud83d\ude0d\n\n#lv #louisvuitton #yorkdale #the6 #pink #sneakers\u2026 https://t.co/6CnxJKSt0M", "created_at": "Thu Jul 14 00:41:23 +0000 2016", "klabel": 79}}, {"geometry": {"type": "Point", "coordinates": [-79.45697138, 43.72480149]}, "type": "Feature", "id": 753409048263917568, "properties": {"loc": [-79.45697138, 43.72480149], "centroid": [-79.3747620547255, 43.667219976186274], "screen_name": "ViraBurmenko", "time": 1468479689.0, "tid": 753409048263917568, "text": "Shopping with Mama!\n.\n.\n.\nMy new #Weekend #Motivation video has launched!\u2026 https://t.co/rruAx5wNXT", "created_at": "Thu Jul 14 02:01:29 +0000 2016", "klabel": 79}}, {"geometry": {"type": "Point", "coordinates": [-79.45697138, 43.72480149]}, "type": "Feature", "id": 753414890635886592, "properties": {"loc": [-79.45697138, 43.72480149], "centroid": [-79.3747620547255, 43.667219976186274], "screen_name": "ViraBurmenko", "time": 1468481082.0, "tid": 753414890635886592, "text": "The solution to everything - the extra sparkly shoes! -\nShopping with Mama!\n.\n.\n.\nMy new\u2026 https://t.co/WxlVoEGKoM", "created_at": "Thu Jul 14 02:24:42 +0000 2016", "klabel": 79}}, {"geometry": {"type": "Point", "coordinates": [-79.45697138, 43.72480149]}, "type": "Feature", "id": 753678827180658688, "properties": {"loc": [-79.45697138, 43.72480149], "centroid": [-79.3747620547255, 43.667219976186274], "screen_name": "makeupbymelo", "time": 1468544009.0, "tid": 753678827180658688, "text": "\ud83d\udc52 \u2600\ufe0f \ud83d\udcf8 photoshoot fresh @ Melomakeup https://t.co/oWCJ8yGtA4", "created_at": "Thu Jul 14 19:53:29 +0000 2016", "klabel": 79}}, {"geometry": {"type": "Point", "coordinates": [-79.4502744, 43.7280168]}, "type": "Feature", "id": 753688283213926401, "properties": {"loc": [-79.4502744, 43.7280168], "centroid": [-79.3747620547255, 43.667219976186274], "screen_name": "tpscalls", "time": 1468546264.0, "tid": 753688283213926401, "text": "Arrest | Jane Osler Blvd &amp; Yorkdale Rd [32 Div.] 07/14 16:24 #North_York #Toronto", "created_at": "Thu Jul 14 20:31:04 +0000 2016", "klabel": 79}}, {"geometry": {"type": "Point", "coordinates": [-79.4604565, 43.7218645]}, "type": "Feature", "id": 753919805158203392, "properties": {"loc": [-79.4604565, 43.7218645], "centroid": [-79.3747620547255, 43.667219976186274], "screen_name": "tpscalls", "time": 1468601463.0, "tid": 753919805158203392, "text": "Break &amp; Enter | Dufferin St &amp; Groton St [32 Div.] 07/15 07:47 #Yorkdale #Toronto", "created_at": "Fri Jul 15 11:51:03 +0000 2016", "klabel": 79}}, {"geometry": {"type": "Point", "coordinates": [-79.445381, 43.7181527]}, "type": "Feature", "id": 753937169522176002, "properties": {"loc": [-79.445381, 43.7181527], "centroid": [-79.3747620547255, 43.667219976186274], "screen_name": "tpscalls", "time": 1468605603.0, "tid": 753937169522176002, "text": "Hazard | William R Allen Rd S &amp; Lawrence Ave W [32 Div.] 07/15 08:56 #Lawrence_Heights #Toronto", "created_at": "Fri Jul 15 13:00:03 +0000 2016", "klabel": 79}}, {"geometry": {"type": "Point", "coordinates": [-79.4430497, 43.7177725]}, "type": "Feature", "id": 754042914897027072, "properties": {"loc": [-79.4430497, 43.7177725], "centroid": [-79.3747620547255, 43.667219976186274], "screen_name": "tofireN", "time": 1468630815.0, "tid": 754042914897027072, "text": "Fire (Grass/rubbish) - Old Meadow Lane b/w Replin Road / Replin Road, North York (2 Trucks)", "created_at": "Fri Jul 15 20:00:15 +0000 2016", "klabel": 79}}, {"geometry": {"type": "Point", "coordinates": [-79.4430497, 43.7177725]}, "type": "Feature", "id": 754042915903643648, "properties": {"loc": [-79.4430497, 43.7177725], "centroid": [-79.3747620547255, 43.667219976186274], "screen_name": "tofiref", "time": 1468630815.0, "tid": 754042915903643648, "text": "Fire (Grass/rubbish) - Old Meadow Lane b/w Replin Road / Replin Road, North York (2 Trucks)", "created_at": "Fri Jul 15 20:00:15 +0000 2016", "klabel": 79}}, {"geometry": {"type": "Point", "coordinates": [-79.4491782, 43.7251234]}, "type": "Feature", "id": 754043237942251520, "properties": {"loc": [-79.4491782, 43.7251234], "centroid": [-79.3747620547255, 43.667219976186274], "screen_name": "tmj_gta_retail", "time": 1468630892.0, "tid": 754043237942251520, "text": "We're #hiring! Read about our latest #job opening here: Temporary Sales Associate (Brick Specialist) -... - https://t.co/p4uFjf20IZ #LEGO", "created_at": "Fri Jul 15 20:01:32 +0000 2016", "klabel": 79}}, {"geometry": {"type": "Point", "coordinates": [-79.452168, 43.7256702]}, "type": "Feature", "id": 754050423334461440, "properties": {"loc": [-79.452168, 43.7256702], "centroid": [-79.3747620547255, 43.667219976186274], "screen_name": "tmj_gta_retail", "time": 1468632605.0, "tid": 754050423334461440, "text": "We're #hiring! Click to apply: Stylist - https://t.co/ZtPHK4uM7I #Job #Retail #Toronto, ON #Jobs #CareerArc", "created_at": "Fri Jul 15 20:30:05 +0000 2016", "klabel": 79}}, {"geometry": {"type": "Point", "coordinates": [-79.4454128, 43.7234048]}, "type": "Feature", "id": 754051939936206848, "properties": {"loc": [-79.4454128, 43.7234048], "centroid": [-79.3747620547255, 43.667219976186274], "screen_name": "tofireN", "time": 1468632966.0, "tid": 754051939936206848, "text": "Wires Down (Hydro) - Leila Lane @ Varna Dr, North York (2 Trucks)", "created_at": "Fri Jul 15 20:36:06 +0000 2016", "klabel": 79}}, {"geometry": {"type": "Point", "coordinates": [-79.4589005, 43.7321617]}, "type": "Feature", "id": 754059224582328320, "properties": {"loc": [-79.4589005, 43.7321617], "centroid": [-79.3747620547255, 43.667219976186274], "screen_name": "tofire", "time": 1468634703.0, "tid": 754059224582328320, "text": "Medical (Other) - Wilson Avenue @ Dufferin St, North York (2 Trucks)", "created_at": "Fri Jul 15 21:05:03 +0000 2016", "klabel": 79}}, {"geometry": {"type": "Point", "coordinates": [-79.4491782, 43.7251234]}, "type": "Feature", "id": 754066289463656448, "properties": {"loc": [-79.4491782, 43.7251234], "centroid": [-79.3747620547255, 43.667219976186274], "screen_name": "LEGO_Careers", "time": 1468636387.0, "tid": 754066289463656448, "text": "Join the LEGO Group team! See our latest #job opening here: https://t.co/rjlGs0bSJQ #Toronto, ON #Hiring https://t.co/8GCAbfVPxe", "created_at": "Fri Jul 15 21:33:07 +0000 2016", "klabel": 79}}, {"geometry": {"type": "Point", "coordinates": [-79.45334435, 43.72630715]}, "type": "Feature", "id": 754097637326979072, "properties": {"loc": [-79.45334435, 43.72630715], "centroid": [-79.3747620547255, 43.667219976186274], "screen_name": "nelcam", "time": 1468643861.0, "tid": 754097637326979072, "text": "Mr. Steal yo make-up brush. @ MAC Yorkdale https://t.co/WEKJ7AR8JV", "created_at": "Fri Jul 15 23:37:41 +0000 2016", "klabel": 79}}, {"geometry": {"type": "Point", "coordinates": [-79.4517797, 43.7128775]}, "type": "Feature", "id": 754252996255547393, "properties": {"loc": [-79.4517797, 43.7128775], "centroid": [-79.3747620547255, 43.667219976186274], "screen_name": "tpscalls", "time": 1468680902.0, "tid": 754252996255547393, "text": "Holding One With Trouble | Bolingbroke Rd &amp; Corona St [32 Div.] 07/16 05:49 #Briar_Hill_Belgravia #Toronto", "created_at": "Sat Jul 16 09:55:02 +0000 2016", "klabel": 79}}, {"geometry": {"type": "Point", "coordinates": [-79.452168, 43.7256702]}, "type": "Feature", "id": 754293922222907393, "properties": {"loc": [-79.452168, 43.7256702], "centroid": [-79.3747620547255, 43.667219976186274], "screen_name": "tmj_gta_retail", "time": 1468690659.0, "tid": 754293922222907393, "text": "Join the PAPYRUS/ Cherry Blossom team! See our latest #job opening here: https://t.co/c71LraWgHZ #Retail #TORONTO, ON #Hiring #CareerArc", "created_at": "Sat Jul 16 12:37:39 +0000 2016", "klabel": 79}}, {"geometry": {"type": "Point", "coordinates": [-79.4430891, 43.7181394]}, "type": "Feature", "id": 754333530549870596, "properties": {"loc": [-79.4430891, 43.7181394], "centroid": [-79.3747620547255, 43.667219976186274], "screen_name": "tpscalls", "time": 1468700103.0, "tid": 754333530549870596, "text": "Unknown Trouble | Varna Dr &amp; Replin Rd [32 Div.] 07/16 11:09 #Lawrence_Heights #Toronto", "created_at": "Sat Jul 16 15:15:03 +0000 2016", "klabel": 79}}, {"geometry": {"type": "Point", "coordinates": [-79.4491782, 43.7251234]}, "type": "Feature", "id": 754351429523877889, "properties": {"loc": [-79.4491782, 43.7251234], "centroid": [-79.3747620547255, 43.667219976186274], "screen_name": "tmj_gta_retail", "time": 1468704370.0, "tid": 754351429523877889, "text": "Join the LEGO Group team! See our latest #job opening here: https://t.co/uq4P1Dxxe1 #LEGO #Toronto, ON #Hiring", "created_at": "Sat Jul 16 16:26:10 +0000 2016", "klabel": 79}}, {"geometry": {"type": "Point", "coordinates": [-79.4491782, 43.7251234]}, "type": "Feature", "id": 754377925613322240, "properties": {"loc": [-79.4491782, 43.7251234], "centroid": [-79.3747620547255, 43.667219976186274], "screen_name": "LEGO_Careers", "time": 1468710687.0, "tid": 754377925613322240, "text": "Want to work in #Toronto, ON? View our latest opening: https://t.co/rHtZ60h4R6 #Job #BringYourCareerToLife #Jobs https://t.co/4oI474sWFf", "created_at": "Sat Jul 16 18:11:27 +0000 2016", "klabel": 79}}, {"geometry": {"type": "Point", "coordinates": [-79.4502744, 43.7280168]}, "type": "Feature", "id": 754393173175271426, "properties": {"loc": [-79.4502744, 43.7280168], "centroid": [-79.3747620547255, 43.667219976186274], "screen_name": "tpscalls", "time": 1468714323.0, "tid": 754393173175271426, "text": "Arrest | Jane Osler Blvd &amp; Yorkdale Rd [32 Div.] 07/16 15:07 #North_York #Toronto", "created_at": "Sat Jul 16 19:12:03 +0000 2016", "klabel": 79}}, {"geometry": {"type": "Point", "coordinates": [-79.455649, 43.718407]}, "type": "Feature", "id": 754400505930063872, "properties": {"loc": [-79.455649, 43.718407], "centroid": [-79.3747620547255, 43.667219976186274], "screen_name": "anna_lytical", "time": 1468716071.0, "tid": 754400505930063872, "text": "I'm at Shoeless Joe's in North York, Ontario https://t.co/dpnHe3uQbb", "created_at": "Sat Jul 16 19:41:11 +0000 2016", "klabel": 79}}, {"geometry": {"type": "Point", "coordinates": [-79.45746496, 43.71861082]}, "type": "Feature", "id": 754417788605853696, "properties": {"loc": [-79.45746496, 43.71861082], "centroid": [-79.3747620547255, 43.667219976186274], "screen_name": "anna_lytical", "time": 1468720191.0, "tid": 754417788605853696, "text": "I'm at Browser's Den of Magic - @thebrowsersden in Toronto, ON https://t.co/kpdprFNgAf", "created_at": "Sat Jul 16 20:49:51 +0000 2016", "klabel": 79}}, {"geometry": {"type": "Point", "coordinates": [-79.46084915, 43.7190453]}, "type": "Feature", "id": 754418476194955264, "properties": {"loc": [-79.46084915, 43.7190453], "centroid": [-79.3747620547255, 43.667219976186274], "screen_name": "anna_lytical", "time": 1468720355.0, "tid": 754418476194955264, "text": "I'm at Orfus Road Shopping Outlets in Toronto, ON https://t.co/muK4BcHxIn", "created_at": "Sat Jul 16 20:52:35 +0000 2016", "klabel": 79}}, {"geometry": {"type": "Point", "coordinates": [-79.45746496, 43.71861082]}, "type": "Feature", "id": 754419407250661376, "properties": {"loc": [-79.45746496, 43.71861082], "centroid": [-79.3747620547255, 43.667219976186274], "screen_name": "frogstar42", "time": 1468720577.0, "tid": 754419407250661376, "text": "Magic! (@ Browser's Den of Magic - @thebrowsersden in Toronto, ON) https://t.co/D5NjJ3zLC0", "created_at": "Sat Jul 16 20:56:17 +0000 2016", "klabel": 79}}, {"geometry": {"type": "Point", "coordinates": [-79.4568826, 43.71963995]}, "type": "Feature", "id": 754420664149344257, "properties": {"loc": [-79.4568826, 43.71963995], "centroid": [-79.3747620547255, 43.667219976186274], "screen_name": "anna_lytical", "time": 1468720877.0, "tid": 754420664149344257, "text": "I'm at Factory Direct https://t.co/2jyTcvaOSE", "created_at": "Sat Jul 16 21:01:17 +0000 2016", "klabel": 79}}, {"geometry": {"type": "Point", "coordinates": [-79.4568826, 43.71963995]}, "type": "Feature", "id": 754420706776059906, "properties": {"loc": [-79.4568826, 43.71963995], "centroid": [-79.3747620547255, 43.667219976186274], "screen_name": "frogstar42", "time": 1468720887.0, "tid": 754420706776059906, "text": "I'm at Factory Direct w/ @anna_lytical https://t.co/E46aF9laoy", "created_at": "Sat Jul 16 21:01:27 +0000 2016", "klabel": 79}}, {"geometry": {"type": "Point", "coordinates": [-79.45, 43.73416667]}, "type": "Feature", "id": 754470326252212224, "properties": {"loc": [-79.45, 43.73416667], "centroid": [-79.3747620547255, 43.667219976186274], "screen_name": "stifmeisters", "time": 1468732717.0, "tid": 754470326252212224, "text": "Lahat na lang sila iniiwan ako. Pati ba naman bus at araw? Lol. #hugot #sunset #busleftmebehind\u2026 https://t.co/8SrCZt5ZcJ", "created_at": "Sun Jul 17 00:18:37 +0000 2016", "klabel": 79}}, {"geometry": {"type": "Point", "coordinates": [-79.4502744, 43.7280168]}, "type": "Feature", "id": 754506425494274048, "properties": {"loc": [-79.4502744, 43.7280168], "centroid": [-79.3747620547255, 43.667219976186274], "screen_name": "tpscalls", "time": 1468741324.0, "tid": 754506425494274048, "text": "Impaired Driver | Jane Osler Blvd &amp; Yorkdale Rd [32 Div.] 07/16 22:38 #North_York #Toronto", "created_at": "Sun Jul 17 02:42:04 +0000 2016", "klabel": 79}}, {"geometry": {"type": "Point", "coordinates": [-79.4512794, 43.7169823]}, "type": "Feature", "id": 754531335860023296, "properties": {"loc": [-79.4512794, 43.7169823], "centroid": [-79.3747620547255, 43.667219976186274], "screen_name": "tpscalls", "time": 1468747263.0, "tid": 754531335860023296, "text": "Assault Just Occurred | Lawrence Ave W &amp; Dane Ave [32 Div.] 07/17 00:17 #Lawrence_Heights #Toronto", "created_at": "Sun Jul 17 04:21:03 +0000 2016", "klabel": 79}}, {"geometry": {"type": "Point", "coordinates": [-79.4502744, 43.7280168]}, "type": "Feature", "id": 754600287952859137, "properties": {"loc": [-79.4502744, 43.7280168], "centroid": [-79.3747620547255, 43.667219976186274], "screen_name": "tpscalls", "time": 1468763703.0, "tid": 754600287952859137, "text": "Impaired Driver | Jane Osler Blvd &amp; Yorkdale Rd [32 Div.] 07/17 04:49 #North_York #Toronto", "created_at": "Sun Jul 17 08:55:03 +0000 2016", "klabel": 79}}, {"geometry": {"type": "Point", "coordinates": [-79.44304778, 43.72914008]}, "type": "Feature", "id": 754677042772410368, "properties": {"loc": [-79.44304778, 43.72914008], "centroid": [-79.3747620547255, 43.667219976186274], "screen_name": "butterflyvguf", "time": 1468782002.0, "tid": 754677042772410368, "text": "Short BP practice. #softball #tp #pplcanbat (@ Baycrest Arena in Toronto, Ontario) https://t.co/XAs5HsI4MR", "created_at": "Sun Jul 17 14:00:02 +0000 2016", "klabel": 79}}, {"geometry": {"type": "Point", "coordinates": [-79.45814634, 43.71752988]}, "type": "Feature", "id": 754707839227203586, "properties": {"loc": [-79.45814634, 43.71752988], "centroid": [-79.3747620547255, 43.667219976186274], "screen_name": "Chanman83", "time": 1468789345.0, "tid": 754707839227203586, "text": "Happy Birthday cait.tee !!! #birthdaygirl #besties #love #smile #itsherbirthday #cboo #gboo\u2026 https://t.co/LloQN6tGFn", "created_at": "Sun Jul 17 16:02:25 +0000 2016", "klabel": 79}}, {"geometry": {"type": "Point", "coordinates": [-79.445381, 43.7181527]}, "type": "Feature", "id": 754766135896186880, "properties": {"loc": [-79.445381, 43.7181527], "centroid": [-79.3747620547255, 43.667219976186274], "screen_name": "tpscalls", "time": 1468803244.0, "tid": 754766135896186880, "text": "Hazard | William R Allen Rd N &amp; Lawrence Ave W [32 Div.] 07/17 15:48 #Lawrence_Heights #Toronto", "created_at": "Sun Jul 17 19:54:04 +0000 2016", "klabel": 79}}, {"geometry": {"type": "Point", "coordinates": [-79.4481881, 43.7191253]}, "type": "Feature", "id": 754792813766770693, "properties": {"loc": [-79.4481881, 43.7191253], "centroid": [-79.3747620547255, 43.667219976186274], "screen_name": "tofire", "time": 1468809604.0, "tid": 754792813766770693, "text": "Medical (Trouble Breathing) - Flemington Road b/w Blossomfield Dr / Edengarth Crt, North York (2 Trucks)", "created_at": "Sun Jul 17 21:40:04 +0000 2016", "klabel": 79}}, {"geometry": {"type": "Point", "coordinates": [-79.45174011, 43.72596034]}, "type": "Feature", "id": 754799223535706112, "properties": {"loc": [-79.45174011, 43.72596034], "centroid": [-79.3747620547255, 43.667219976186274], "screen_name": "nisti2", "time": 1468811133.0, "tid": 754799223535706112, "text": "I'm at Yorkdale Shopping Centre - @yorkdalestyle in Toronto, ON https://t.co/cN2PdvBAJU", "created_at": "Sun Jul 17 22:05:33 +0000 2016", "klabel": 79}}, {"geometry": {"type": "Point", "coordinates": [-79.450747, 43.725544]}, "type": "Feature", "id": 754821501757644804, "properties": {"loc": [-79.450747, 43.725544], "centroid": [-79.3747620547255, 43.667219976186274], "screen_name": "blushdaisies", "time": 1468816444.0, "tid": 754821501757644804, "text": "Today's look \ud83c\udf80\ud83d\udc40 \n\nSKIN: yslbeauty Touch\u00e9 \u00c9clat Foundation \nEYES: @urbandecay UDxGwen Palette\u2026 https://t.co/Getd0Y0hGN", "created_at": "Sun Jul 17 23:34:04 +0000 2016", "klabel": 79}}, {"geometry": {"type": "Point", "coordinates": [-79.45201512, 43.72719906]}, "type": "Feature", "id": 754844480235270145, "properties": {"loc": [-79.45201512, 43.72719906], "centroid": [-79.3747620547255, 43.667219976186274], "screen_name": "ladyvee", "time": 1468821923.0, "tid": 754844480235270145, "text": "Wow...the sky is gorgeous! @ Indigo Books Music &amp; More https://t.co/84ihSaUGya", "created_at": "Mon Jul 18 01:05:23 +0000 2016", "klabel": 79}}, {"geometry": {"type": "Point", "coordinates": [-79.45572814, 43.73085299]}, "type": "Feature", "id": 754850558251569152, "properties": {"loc": [-79.45572814, 43.73085299], "centroid": [-79.3747620547255, 43.667219976186274], "screen_name": "sarahhbennett14", "time": 1468823372.0, "tid": 754850558251569152, "text": "Cory Joseph and I have two things in common - our love for\u2026 https://t.co/QLyYUXroS0", "created_at": "Mon Jul 18 01:29:32 +0000 2016", "klabel": 79}}, {"geometry": {"type": "Point", "coordinates": [-79.4589005, 43.7321617]}, "type": "Feature", "id": 755120216896638976, "properties": {"loc": [-79.4589005, 43.7321617], "centroid": [-79.3747620547255, 43.667219976186274], "screen_name": "tpscalls", "time": 1468887663.0, "tid": 755120216896638976, "text": "Arrest | Wilson Ave &amp; Dufferin St [32 Div.] 07/18 15:15 #Wilson_Heights #Toronto", "created_at": "Mon Jul 18 19:21:03 +0000 2016", "klabel": 79}}, {"geometry": {"type": "Point", "coordinates": [-79.447749, 43.711046]}, "type": "Feature", "id": 755127521549615104, "properties": {"loc": [-79.447749, 43.711046], "centroid": [-79.3747620547255, 43.667219976186274], "screen_name": "tofireN", "time": 1468889405.0, "tid": 755127521549615104, "text": "Fire (Residential) - Glenbrook Avenue b/w Lois Avenue / Dufferin St, North York (7 Trucks)", "created_at": "Mon Jul 18 19:50:05 +0000 2016", "klabel": 79}}, {"geometry": {"type": "Point", "coordinates": [-79.4527585, 43.7333079]}, "type": "Feature", "id": 755150170397048833, "properties": {"loc": [-79.4527585, 43.7333079], "centroid": [-79.3747620547255, 43.667219976186274], "screen_name": "tofiref", "time": 1468894805.0, "tid": 755150170397048833, "text": "Fire (Grass/rubbish) - Billy Bishop Way @ Wilson Avenue, North York (2 Trucks)", "created_at": "Mon Jul 18 21:20:05 +0000 2016", "klabel": 79}}, {"geometry": {"type": "Point", "coordinates": [-79.4527585, 43.7333079]}, "type": "Feature", "id": 755150169490980864, "properties": {"loc": [-79.4527585, 43.7333079], "centroid": [-79.3747620547255, 43.667219976186274], "screen_name": "tofireN", "time": 1468894805.0, "tid": 755150169490980864, "text": "Fire (Grass/rubbish) - Billy Bishop Way @ Wilson Avenue, North York (2 Trucks)", "created_at": "Mon Jul 18 21:20:05 +0000 2016", "klabel": 79}}, {"geometry": {"type": "Point", "coordinates": [-79.4527585, 43.7333079]}, "type": "Feature", "id": 755151428226777088, "properties": {"loc": [-79.4527585, 43.7333079], "centroid": [-79.3747620547255, 43.667219976186274], "screen_name": "tofire", "time": 1468895105.0, "tid": 755151428226777088, "text": "UD: Fire (Grass/rubbish) - Billy Bishop Way b/w Wilson Avenue / Dufferin St, North York (2 Trucks)", "created_at": "Mon Jul 18 21:25:05 +0000 2016", "klabel": 79}}, {"geometry": {"type": "Point", "coordinates": [-79.4517161, 43.7150728]}, "type": "Feature", "id": 755155832497512448, "properties": {"loc": [-79.4517161, 43.7150728], "centroid": [-79.3747620547255, 43.667219976186274], "screen_name": "tmj_gta_mgmt", "time": 1468896155.0, "tid": 755155832497512448, "text": "Can you recommend anyone for this #job? https://t.co/HmxrKWmMMQ #cibc #cibcjobs #cibccareers #Toronto, Ontario #Hiring #CareerArc", "created_at": "Mon Jul 18 21:42:35 +0000 2016", "klabel": 79}}, {"geometry": {"type": "Point", "coordinates": [-79.4502744, 43.7280168]}, "type": "Feature", "id": 755167027606806528, "properties": {"loc": [-79.4502744, 43.7280168], "centroid": [-79.3747620547255, 43.667219976186274], "screen_name": "tpscalls", "time": 1468898824.0, "tid": 755167027606806528, "text": "Arrest | Jane Osler Blvd &amp; Yorkdale Rd [32 Div.] 07/18 18:22 #North_York #Toronto", "created_at": "Mon Jul 18 22:27:04 +0000 2016", "klabel": 79}}, {"geometry": {"type": "Point", "coordinates": [-79.45311061, 43.72657589]}, "type": "Feature", "id": 755221395991326720, "properties": {"loc": [-79.45311061, 43.72657589], "centroid": [-79.3747620547255, 43.667219976186274], "screen_name": "RE_TEAM_COACH", "time": 1468911786.0, "tid": 755221395991326720, "text": "Bridesmaid dress shopping a success. Grabbed a bite at Jamie's Italian.... Our food was actually\u2026 https://t.co/DWT4zb4OE8", "created_at": "Tue Jul 19 02:03:06 +0000 2016", "klabel": 79}}, {"geometry": {"type": "Point", "coordinates": [-79.452168, 43.7256702]}, "type": "Feature", "id": 755408945036931072, "properties": {"loc": [-79.452168, 43.7256702], "centroid": [-79.3747620547255, 43.667219976186274], "screen_name": "tmj_gta_hrta", "time": 1468956501.0, "tid": 755408945036931072, "text": "Can you recommend anyone for this #job? Barista (CA) - https://t.co/Ju6iMmBw8A #Hospitality #Veterans #Hiring #CareerArc", "created_at": "Tue Jul 19 14:28:21 +0000 2016", "klabel": 79}}, {"geometry": {"type": "Point", "coordinates": [-79.45697138, 43.72480149]}, "type": "Feature", "id": 755444657836920835, "properties": {"loc": [-79.45697138, 43.72480149], "centroid": [-79.3747620547255, 43.667219976186274], "screen_name": "jjxdecastro", "time": 1468965016.0, "tid": 755444657836920835, "text": "\ud83d\udc4b @ Yorkdale Shopping Centre https://t.co/1svdXQjJIE", "created_at": "Tue Jul 19 16:50:16 +0000 2016", "klabel": 79}}, {"geometry": {"type": "Point", "coordinates": [-79.4502744, 43.7280168]}, "type": "Feature", "id": 755468261475647488, "properties": {"loc": [-79.4502744, 43.7280168], "centroid": [-79.3747620547255, 43.667219976186274], "screen_name": "tpscalls", "time": 1468970644.0, "tid": 755468261475647488, "text": "Indecent Exposure | Jane Osler Blvd &amp; Yorkdale Rd [32 Div.] 07/19 14:20 #North_York #Toronto", "created_at": "Tue Jul 19 18:24:04 +0000 2016", "klabel": 79}}, {"geometry": {"type": "Point", "coordinates": [-79.4565813, 43.7227419]}, "type": "Feature", "id": 755474299725701120, "properties": {"loc": [-79.4565813, 43.7227419], "centroid": [-79.3747620547255, 43.667219976186274], "screen_name": "tpscalls", "time": 1468972083.0, "tid": 755474299725701120, "text": "Unknown Trouble | Mcadam Ave &amp; Dufferin St [32 Div.] 07/19 14:43 #Yorkdale #Toronto", "created_at": "Tue Jul 19 18:48:03 +0000 2016", "klabel": 79}}, {"geometry": {"type": "Point", "coordinates": [-79.4588751, 43.7320382]}, "type": "Feature", "id": 755512048864333829, "properties": {"loc": [-79.4588751, 43.7320382], "centroid": [-79.3747620547255, 43.667219976186274], "screen_name": "tpscalls", "time": 1468981083.0, "tid": 755512048864333829, "text": "Theft Just Occurred | Wilson Ave &amp; Dufferin St [32 Div.] 07/19 17:13 #Ancaster #Toronto", "created_at": "Tue Jul 19 21:18:03 +0000 2016", "klabel": 79}}, {"geometry": {"type": "Point", "coordinates": [-79.4502744, 43.7280168]}, "type": "Feature", "id": 755527150518804480, "properties": {"loc": [-79.4502744, 43.7280168], "centroid": [-79.3747620547255, 43.667219976186274], "screen_name": "tpscalls", "time": 1468984684.0, "tid": 755527150518804480, "text": "Holding One | Jane Osler Blvd &amp; Yorkdale Rd [32 Div.] 07/19 18:14 #North_York #Toronto", "created_at": "Tue Jul 19 22:18:04 +0000 2016", "klabel": 79}}, {"geometry": {"type": "Point", "coordinates": [-79.45174011, 43.72596034]}, "type": "Feature", "id": 755737587885699073, "properties": {"loc": [-79.45174011, 43.72596034], "centroid": [-79.3747620547255, 43.667219976186274], "screen_name": "Prosaac", "time": 1469034856.0, "tid": 755737587885699073, "text": "I'm at Yorkdale Shopping Centre - @yorkdalestyle in Toronto, ON https://t.co/XQzAvJhyM0", "created_at": "Wed Jul 20 12:14:16 +0000 2016", "klabel": 79}}, {"geometry": {"type": "Point", "coordinates": [-79.4584526, 43.7299424]}, "type": "Feature", "id": 755837458047041536, "properties": {"loc": [-79.4584526, 43.7299424], "centroid": [-79.3747620547255, 43.667219976186274], "screen_name": "tofiref", "time": 1469058667.0, "tid": 755837458047041536, "text": "Fire (Grass/rubbish) - Billy Bishop Way @ Dufferin St, North York (2 Trucks)", "created_at": "Wed Jul 20 18:51:07 +0000 2016", "klabel": 79}}, {"geometry": {"type": "Point", "coordinates": [-79.4584526, 43.7299424]}, "type": "Feature", "id": 755837454498734080, "properties": {"loc": [-79.4584526, 43.7299424], "centroid": [-79.3747620547255, 43.667219976186274], "screen_name": "tofire", "time": 1469058666.0, "tid": 755837454498734080, "text": "Fire (Grass/rubbish) - Billy Bishop Way @ Dufferin St, North York (2 Trucks)", "created_at": "Wed Jul 20 18:51:06 +0000 2016", "klabel": 79}}, {"geometry": {"type": "Point", "coordinates": [-79.4527585, 43.7333079]}, "type": "Feature", "id": 755938609962872832, "properties": {"loc": [-79.4527585, 43.7333079], "centroid": [-79.3747620547255, 43.667219976186274], "screen_name": "tpscalls", "time": 1469082783.0, "tid": 755938609962872832, "text": "Dispute | Wilson Heights Blvd &amp; Billy Bishop Way [32 Div.] 07/20 21:27 #Wilson_Heights #Toronto", "created_at": "Thu Jul 21 01:33:03 +0000 2016", "klabel": 79}}, {"geometry": {"type": "Point", "coordinates": [-79.45228598, 43.72630285]}, "type": "Feature", "id": 755972871986569216, "properties": {"loc": [-79.45228598, 43.72630285], "centroid": [-79.3747620547255, 43.667219976186274], "screen_name": "tm_mahdi", "time": 1469090952.0, "tid": 755972871986569216, "text": "Talk about sugar rush. This location opened up my appetite. #Toronto #NorthYork #gastropost\u2026 https://t.co/8KtGnGL6OW", "created_at": "Thu Jul 21 03:49:12 +0000 2016", "klabel": 79}}, {"geometry": {"type": "Point", "coordinates": [-79.4491782, 43.7251234]}, "type": "Feature", "id": 756281300252667904, "properties": {"loc": [-79.4491782, 43.7251234], "centroid": [-79.3747620547255, 43.667219976186274], "screen_name": "LEGO_Careers", "time": 1469164487.0, "tid": 756281300252667904, "text": "This #job might be a great fit for you: Temporary Sales Associate (Brick Specialist)... - https://t.co/rjlGs0bSJQ https://t.co/peK3VmKPAO", "created_at": "Fri Jul 22 00:14:47 +0000 2016", "klabel": 79}}, {"geometry": {"type": "Point", "coordinates": [-79.4527585, 43.7333079]}, "type": "Feature", "id": 756319119176245248, "properties": {"loc": [-79.4527585, 43.7333079], "centroid": [-79.3747620547255, 43.667219976186274], "screen_name": "tpscalls", "time": 1469173504.0, "tid": 756319119176245248, "text": "See Ambulance | Wilson Heights Blvd &amp; Billy Bishop Way [32 Div.] 07/21 22:41 #Wilson_Heights #Toronto", "created_at": "Fri Jul 22 02:45:04 +0000 2016", "klabel": 79}}, {"geometry": {"type": "Point", "coordinates": [-79.4430891, 43.7181394]}, "type": "Feature", "id": 756366681212157952, "properties": {"loc": [-79.4430891, 43.7181394], "centroid": [-79.3747620547255, 43.667219976186274], "screen_name": "tpscalls", "time": 1469184844.0, "tid": 756366681212157952, "text": "Sound Of Gunshots | Replin Rd &amp; Replin Rd [32 Div.] 07/22 01:49 #Lawrence_Heights #Toronto", "created_at": "Fri Jul 22 05:54:04 +0000 2016", "klabel": 79}}, {"geometry": {"type": "Point", "coordinates": [-79.4430891, 43.7181394]}, "type": "Feature", "id": 756368444707266560, "properties": {"loc": [-79.4430891, 43.7181394], "centroid": [-79.3747620547255, 43.667219976186274], "screen_name": "tpscalls", "time": 1469185264.0, "tid": 756368444707266560, "text": "Sound Of Gunshots | Replin Rd &amp; Replin Rd [13 Div.] 07/22 01:54 #Lawrence_Heights #Toronto", "created_at": "Fri Jul 22 06:01:04 +0000 2016", "klabel": 79}}, {"geometry": {"type": "Point", "coordinates": [-79.45169, 43.73384]}, "type": "Feature", "id": 756369061571768320, "properties": {"loc": [-79.45169, 43.73384], "centroid": [-79.3747620547255, 43.667219976186274], "screen_name": "EpsteinToronto", "time": 1469185411.0, "tid": 756369061571768320, "text": "#LoveTheWindows #ItsTheMoon #Toronto @ TTC Wilson Subway Station https://t.co/xoo4BZrWUM", "created_at": "Fri Jul 22 06:03:31 +0000 2016", "klabel": 79}}, {"geometry": {"type": "Point", "coordinates": [-79.4464852, 43.7155683]}, "type": "Feature", "id": 756551907238408192, "properties": {"loc": [-79.4464852, 43.7155683], "centroid": [-79.3747620547255, 43.667219976186274], "screen_name": "tofireN", "time": 1469229005.0, "tid": 756551907238408192, "text": "Fire (Grass/rubbish) - Lawrence Avenue b/w Marlee Avenue / Blossomfield Dr, North York (2 Trucks)", "created_at": "Fri Jul 22 18:10:05 +0000 2016", "klabel": 79}}, {"geometry": {"type": "Point", "coordinates": [-79.4639, 43.72482]}, "type": "Feature", "id": 756562898323898368, "properties": {"loc": [-79.4639, 43.72482], "centroid": [-79.3747620547255, 43.667219976186274], "screen_name": "JeannieCho27", "time": 1469231625.0, "tid": 756562898323898368, "text": "THE team to be on!! @bluecatnetworks finance team at batl axe @ BATL\u2026 https://t.co/gZAdRbwt4F", "created_at": "Fri Jul 22 18:53:45 +0000 2016", "klabel": 79}}, {"geometry": {"type": "Point", "coordinates": [-79.4529768, 43.7264831]}, "type": "Feature", "id": 756584646888923137, "properties": {"loc": [-79.4529768, 43.7264831], "centroid": [-79.3747620547255, 43.667219976186274], "screen_name": "tmj_vets", "time": 1469236811.0, "tid": 756584646888923137, "text": "If you're looking for work in #Toronto, Ontario, check out this #job: https://t.co/aduamGhIsp #Sales #Veterans #Hiring #CareerArc", "created_at": "Fri Jul 22 20:20:11 +0000 2016", "klabel": 79}}, {"geometry": {"type": "Point", "coordinates": [-79.45697138, 43.72480149]}, "type": "Feature", "id": 756585775236538368, "properties": {"loc": [-79.45697138, 43.72480149], "centroid": [-79.3747620547255, 43.667219976186274], "screen_name": "SocaDread", "time": 1469237080.0, "tid": 756585775236538368, "text": "So far, so good, my little Princess is enjoy her #Birthday with her \"twin\" cousin and BFF's.\u2026 https://t.co/oKRv5vjJzi", "created_at": "Fri Jul 22 20:24:40 +0000 2016", "klabel": 79}}, {"geometry": {"type": "Point", "coordinates": [-79.452168, 43.7256702]}, "type": "Feature", "id": 756589335634382848, "properties": {"loc": [-79.452168, 43.7256702], "centroid": [-79.3747620547255, 43.667219976186274], "screen_name": "tmj_gta_retail", "time": 1469237929.0, "tid": 756589335634382848, "text": "Can you recommend anyone for this #job? Stylist - https://t.co/ZtPHK4dbga #Retail #Toronto, ON #Hiring #CareerArc", "created_at": "Fri Jul 22 20:38:49 +0000 2016", "klabel": 79}}, {"geometry": {"type": "Point", "coordinates": [-79.449863, 43.7157173]}, "type": "Feature", "id": 756593822109270016, "properties": {"loc": [-79.449863, 43.7157173], "centroid": [-79.3747620547255, 43.667219976186274], "screen_name": "tmj_gta_finance", "time": 1469238998.0, "tid": 756593822109270016, "text": "Can you recommend anyone for this #job? https://t.co/hYkpSdpTgI #cibc #cibcjobs #cibccareers #Finance #Toronto, Ontario #Hiring #CareerArc", "created_at": "Fri Jul 22 20:56:38 +0000 2016", "klabel": 79}}, {"geometry": {"type": "Point", "coordinates": [-79.4617462, 43.714386]}, "type": "Feature", "id": 756600372790263808, "properties": {"loc": [-79.4617462, 43.714386], "centroid": [-79.3747620547255, 43.667219976186274], "screen_name": "courtney_u", "time": 1469240560.0, "tid": 756600372790263808, "text": "Don't be afraid of looking weak. Instead, be afraid of being weak by ignoring challenges and\u2026 https://t.co/xUyQKO7bLP", "created_at": "Fri Jul 22 21:22:40 +0000 2016", "klabel": 79}}, {"geometry": {"type": "Point", "coordinates": [-79.445381, 43.7181527]}, "type": "Feature", "id": 756601726698921984, "properties": {"loc": [-79.445381, 43.7181527], "centroid": [-79.3747620547255, 43.667219976186274], "screen_name": "tpscalls", "time": 1469240883.0, "tid": 756601726698921984, "text": "See Ambulance | Lawrence Ave W &amp; William R Allen Rd N [13 Div.] 07/22 17:21 #Lawrence_Heights #Toronto", "created_at": "Fri Jul 22 21:28:03 +0000 2016", "klabel": 79}}, {"geometry": {"type": "Point", "coordinates": [-79.45908092, 43.72618053]}, "type": "Feature", "id": 756617466848145408, "properties": {"loc": [-79.45908092, 43.72618053], "centroid": [-79.3747620547255, 43.667219976186274], "screen_name": "jimpagiamtzis", "time": 1469244636.0, "tid": 756617466848145408, "text": "Looking forward to Presentation Power weekend. Learning strategies on speaking #thesix @ Holiday\u2026 https://t.co/Omofc314SG", "created_at": "Fri Jul 22 22:30:36 +0000 2016", "klabel": 79}}, {"geometry": {"type": "Point", "coordinates": [-79.4502744, 43.7280168]}, "type": "Feature", "id": 756629414927077380, "properties": {"loc": [-79.4502744, 43.7280168], "centroid": [-79.3747620547255, 43.667219976186274], "screen_name": "tpscalls", "time": 1469247484.0, "tid": 756629414927077380, "text": "Personal Injury Collision | Jane Osler Blvd &amp; Yorkdale Rd [HP] 07/22 19:14 #North_York #Toronto", "created_at": "Fri Jul 22 23:18:04 +0000 2016", "klabel": 79}}, {"geometry": {"type": "Point", "coordinates": [-79.4561996, 43.7201691]}, "type": "Feature", "id": 756649617702387712, "properties": {"loc": [-79.4561996, 43.7201691], "centroid": [-79.3747620547255, 43.667219976186274], "screen_name": "queeniescards", "time": 1469252301.0, "tid": 756649617702387712, "text": "It's the weekend! It's National Ice Cream month! And @caffedemetre is offering FREE SHIPPING! \ud83c\udf89\u2026 https://t.co/d9EVDtssWa", "created_at": "Sat Jul 23 00:38:21 +0000 2016", "klabel": 79}}, {"geometry": {"type": "Point", "coordinates": [-79.45234792, 43.7258246]}, "type": "Feature", "id": 756669810889465856, "properties": {"loc": [-79.45234792, 43.7258246], "centroid": [-79.3747620547255, 43.667219976186274], "screen_name": "HappyHome42", "time": 1469257115.0, "tid": 756669810889465856, "text": "I ride the rocket for #work or #play. Now, off to play and #dance! Woohoo! Give me children over\u2026 https://t.co/WHa88qoazm", "created_at": "Sat Jul 23 01:58:35 +0000 2016", "klabel": 79}}, {"geometry": {"type": "Point", "coordinates": [-79.461698, 43.719171]}, "type": "Feature", "id": 756740638914256896, "properties": {"loc": [-79.461698, 43.719171], "centroid": [-79.3747620547255, 43.667219976186274], "screen_name": "tpscalls", "time": 1469274002.0, "tid": 756740638914256896, "text": "Break &amp; Enter | Samor Rd &amp; Orfus Rd [32 Div.] 07/23 02:33 #Yorkdale #Toronto", "created_at": "Sat Jul 23 06:40:02 +0000 2016", "klabel": 79}}, {"geometry": {"type": "Point", "coordinates": [-79.449863, 43.7157173]}, "type": "Feature", "id": 756829519961468928, "properties": {"loc": [-79.449863, 43.7157173], "centroid": [-79.3747620547255, 43.667219976186274], "screen_name": "tmj_gta_it", "time": 1469295193.0, "tid": 756829519961468928, "text": "Interested in a #job near #Toronto, Ontario? This could be a great fit: https://t.co/Tec9JmMRbn #cibc #cibcjobs #cibccareers #IT #Hiring", "created_at": "Sat Jul 23 12:33:13 +0000 2016", "klabel": 79}}, {"geometry": {"type": "Point", "coordinates": [-79.461698, 43.719171]}, "type": "Feature", "id": 756832500622712832, "properties": {"loc": [-79.461698, 43.719171], "centroid": [-79.3747620547255, 43.667219976186274], "screen_name": "tpscalls", "time": 1469295904.0, "tid": 756832500622712832, "text": "Break &amp; Enter | Samor Rd &amp; Orfus Rd [32 Div.] 07/23 08:41 #Yorkdale #Toronto", "created_at": "Sat Jul 23 12:45:04 +0000 2016", "klabel": 79}}, {"geometry": {"type": "Point", "coordinates": [-79.4537, 43.7079499]}, "type": "Feature", "id": 756852102672941056, "properties": {"loc": [-79.4537, 43.7079499], "centroid": [-79.3747620547255, 43.667219976186274], "screen_name": "joanne_ochej", "time": 1469300577.0, "tid": 756852102672941056, "text": "#breakfastisserved #italian #style #cornetto e #caff\u00e8 #primacolazione @ Venarello's Pasticceria\u2026 https://t.co/bwTmmlgSVZ", "created_at": "Sat Jul 23 14:02:57 +0000 2016", "klabel": 79}}, {"geometry": {"type": "Point", "coordinates": [-79.452168, 43.7256702]}, "type": "Feature", "id": 756925408793145344, "properties": {"loc": [-79.452168, 43.7256702], "centroid": [-79.3747620547255, 43.667219976186274], "screen_name": "tmj_gta_retail", "time": 1469318055.0, "tid": 756925408793145344, "text": "This #job might be a great fit for you: Key Holder - https://t.co/c71LraWgHZ #Retail #TORONTO, ON #Hiring #CareerArc", "created_at": "Sat Jul 23 18:54:15 +0000 2016", "klabel": 79}}, {"geometry": {"type": "Point", "coordinates": [-79.455649, 43.718407]}, "type": "Feature", "id": 756938276850831360, "properties": {"loc": [-79.455649, 43.718407], "centroid": [-79.3747620547255, 43.667219976186274], "screen_name": "frogstar42", "time": 1469321123.0, "tid": 756938276850831360, "text": "I'm at Shoeless Joe's in North York, Ontario https://t.co/sJhhm6OL5C", "created_at": "Sat Jul 23 19:45:23 +0000 2016", "klabel": 79}}, {"geometry": {"type": "Point", "coordinates": [-79.4502744, 43.7280168]}, "type": "Feature", "id": 756946757943226368, "properties": {"loc": [-79.4502744, 43.7280168], "centroid": [-79.3747620547255, 43.667219976186274], "screen_name": "tpscalls", "time": 1469323145.0, "tid": 756946757943226368, "text": "Arrest | Jane Osler Blvd &amp; Yorkdale Rd [32 Div.] 07/23 16:13 #North_York #Toronto", "created_at": "Sat Jul 23 20:19:05 +0000 2016", "klabel": 79}}, {"geometry": {"type": "Point", "coordinates": [-79.4568826, 43.71963995]}, "type": "Feature", "id": 756953896526999553, "properties": {"loc": [-79.4568826, 43.71963995], "centroid": [-79.3747620547255, 43.667219976186274], "screen_name": "frogstar42", "time": 1469324847.0, "tid": 756953896526999553, "text": "I'm at Factory Direct https://t.co/00z39FmMp1", "created_at": "Sat Jul 23 20:47:27 +0000 2016", "klabel": 79}}, {"geometry": {"type": "Point", "coordinates": [-79.45697138, 43.72480149]}, "type": "Feature", "id": 756965676502450177, "properties": {"loc": [-79.45697138, 43.72480149], "centroid": [-79.3747620547255, 43.667219976186274], "screen_name": "dorangracee", "time": 1469327655.0, "tid": 756965676502450177, "text": "\ud83c\udf37\ud83c\udf39\ud83c\udf3c\ud83c\udf38\ud83d\udc90\ud83c\udf3b\ud83c\udf3a @ Yorkdale Shopping Centre https://t.co/ZFW7SEElJX", "created_at": "Sat Jul 23 21:34:15 +0000 2016", "klabel": 79}}, {"geometry": {"type": "Point", "coordinates": [-79.4502744, 43.7280168]}, "type": "Feature", "id": 756978214384402432, "properties": {"loc": [-79.4502744, 43.7280168], "centroid": [-79.3747620547255, 43.667219976186274], "screen_name": "tpscalls", "time": 1469330644.0, "tid": 756978214384402432, "text": "Arrest | Jane Osler Blvd &amp; Yorkdale Rd [32 Div.] 07/23 18:19 #North_York #Toronto", "created_at": "Sat Jul 23 22:24:04 +0000 2016", "klabel": 79}}, {"geometry": {"type": "Point", "coordinates": [-79.452257, 43.725596]}, "type": "Feature", "id": 756999266191704065, "properties": {"loc": [-79.452257, 43.725596], "centroid": [-79.3747620547255, 43.667219976186274], "screen_name": "KarrFadairo", "time": 1469335664.0, "tid": 756999266191704065, "text": "Faves \ud83d\udc9e @ Purdys Chocolatier https://t.co/s3wi8GnBXA", "created_at": "Sat Jul 23 23:47:44 +0000 2016", "klabel": 79}}, {"geometry": {"type": "Point", "coordinates": [-79.445381, 43.7181527]}, "type": "Feature", "id": 757008660870656028, "properties": {"loc": [-79.445381, 43.7181527], "centroid": [-79.3747620547255, 43.667219976186274], "screen_name": "tpscalls", "time": 1469337903.0, "tid": 757008660870656028, "text": "Hazard | William R Allen Rd N &amp; Lawrence Ave W [13 Div.] 07/23 20:18 #Lawrence_Heights #Toronto", "created_at": "Sun Jul 24 00:25:03 +0000 2016", "klabel": 79}}, {"geometry": {"type": "Point", "coordinates": [-79.452168, 43.7256702]}, "type": "Feature", "id": 757011065657884672, "properties": {"loc": [-79.452168, 43.7256702], "centroid": [-79.3747620547255, 43.667219976186274], "screen_name": "bebe_careers", "time": 1469338477.0, "tid": 757011065657884672, "text": "Want to work in #Toronto, ON? View our latest opening: https://t.co/2GeZA5D8iK #Job #Retail #Jobs #Hiring https://t.co/bGuM8N6JAU", "created_at": "Sun Jul 24 00:34:37 +0000 2016", "klabel": 79}}, {"geometry": {"type": "Point", "coordinates": [-79.4430891, 43.7181394]}, "type": "Feature", "id": 757015216261586944, "properties": {"loc": [-79.4430891, 43.7181394], "centroid": [-79.3747620547255, 43.667219976186274], "screen_name": "tpscalls", "time": 1469339466.0, "tid": 757015216261586944, "text": "Damage Just Occurred | Replin Rd &amp; Replin Rd [32 Div.] 07/23 20:46 #Lawrence_Heights #Toronto", "created_at": "Sun Jul 24 00:51:06 +0000 2016", "klabel": 79}}, {"geometry": {"type": "Point", "coordinates": [-79.46358402, 43.73258734]}, "type": "Feature", "id": 757035437441609728, "properties": {"loc": [-79.46358402, 43.73258734], "centroid": [-79.3747620547255, 43.667219976186274], "screen_name": "msdimple10", "time": 1469344287.0, "tid": 757035437441609728, "text": "Ako'y magpapakasigla sa gawain Mo, Ama upang lalong tumibay pa sa\u2026 https://t.co/PR7SNM5Mle", "created_at": "Sun Jul 24 02:11:27 +0000 2016", "klabel": 79}}, {"geometry": {"type": "Point", "coordinates": [-79.46358402, 43.73258734]}, "type": "Feature", "id": 757044077791698944, "properties": {"loc": [-79.46358402, 43.73258734], "centroid": [-79.3747620547255, 43.667219976186274], "screen_name": "msdimple10", "time": 1469346348.0, "tid": 757044077791698944, "text": "#feelinggrownups \u2764\ufe0f\ud83d\ude02 @ Iglesia Ni Cristo Yorkdale Congregation https://t.co/cv9UJrsafG", "created_at": "Sun Jul 24 02:45:48 +0000 2016", "klabel": 79}},