{"type": "FeatureCollection", "features": [{"geometry": {"type": "Point", "coordinates": [-79.397226, 43.650883]}, "type": "Feature", "id": 705055338198863872, "properties": {"loc": [-79.397226, 43.650883], "centroid": [-79.41803420914043, 43.80293703353511], "screen_name": "rmsleonard", "time": 1456951266.0, "tid": 705055338198863872, "text": "Street Photography - Catching Up  https://t.co/kiz72i4vXR  #StreetPhotogs #Photography #Toronto", "created_at": "Wed Mar 02 15:41:06 +0000 2016", "klabel": 85}}, {"geometry": {"type": "Point", "coordinates": [-79.4019012, 43.6542702]}, "type": "Feature", "id": 705062433623285760, "properties": {"loc": [-79.4019012, 43.6542702], "centroid": [-79.41803420914043, 43.80293703353511], "screen_name": "Antwhat", "time": 1456952958.0, "tid": 705062433623285760, "text": "Contraste. @ The Embassy Bar https://t.co/tMUwOXLo46", "created_at": "Wed Mar 02 16:09:18 +0000 2016", "klabel": 85}}, {"geometry": {"type": "Point", "coordinates": [-79.40148, 43.65396]}, "type": "Feature", "id": 705095942408638464, "properties": {"loc": [-79.40148, 43.65396], "centroid": [-79.41803420914043, 43.80293703353511], "screen_name": "kidicarus_store", "time": 1456960947.0, "tid": 705095942408638464, "text": "Looking for the perfect cozy candle to complete your space? \u2728 we've got new scents in the\u2026 https://t.co/nr4X2k4qGH", "created_at": "Wed Mar 02 18:22:27 +0000 2016", "klabel": 85}}, {"geometry": {"type": "Point", "coordinates": [-79.40019, 43.65287]}, "type": "Feature", "id": 705106127546093569, "properties": {"loc": [-79.40019, 43.65287], "centroid": [-79.41803420914043, 43.80293703353511], "screen_name": "MixSinghItUp", "time": 1456963375.0, "tid": 705106127546093569, "text": "\u2022crowsnest\u2022 \n\nwarm\n\n2/3 @ Crows Nest Barbershop https://t.co/GFoM60KYJG", "created_at": "Wed Mar 02 19:02:55 +0000 2016", "klabel": 85}}, {"geometry": {"type": "Point", "coordinates": [-79.4048462, 43.6517906]}, "type": "Feature", "id": 705114410201776129, "properties": {"loc": [-79.4048462, 43.6517906], "centroid": [-79.41803420914043, 43.80293703353511], "screen_name": "TitaFlips", "time": 1456965350.0, "tid": 705114410201776129, "text": "Batchoy + hot pandesal = staff meals for today! #titaflips #kantobytitaflips #filipinotoronto\u2026 https://t.co/e9BAIzLo0q", "created_at": "Wed Mar 02 19:35:50 +0000 2016", "klabel": 85}}, {"geometry": {"type": "Point", "coordinates": [-79.4074, 43.6562399]}, "type": "Feature", "id": 705117775476477953, "properties": {"loc": [-79.4074, 43.6562399], "centroid": [-79.41803420914043, 43.80293703353511], "screen_name": "FreezaChin", "time": 1456966152.0, "tid": 705117775476477953, "text": "Yes we do By @ddoublee7 via repostwhiz app:\nToronto knows wa gwan!!! \ud83d\udd25\ud83d\udd25\ud83d\udd25\n(#RepostWhiz app) @\u2026 https://t.co/on6ytZsECG", "created_at": "Wed Mar 02 19:49:12 +0000 2016", "klabel": 85}}, {"geometry": {"type": "Point", "coordinates": [-79.39824593, 43.65283105]}, "type": "Feature", "id": 705135495907442688, "properties": {"loc": [-79.39824593, 43.65283105], "centroid": [-79.41803420914043, 43.80293703353511], "screen_name": "jennimacb", "time": 1456970377.0, "tid": 705135495907442688, "text": "#Toronto #chinatown #dragoncity #snowday #snow #snowstorm #clarity @ Dragon City https://t.co/ew4PQgDDbE", "created_at": "Wed Mar 02 20:59:37 +0000 2016", "klabel": 85}}, {"geometry": {"type": "Point", "coordinates": [-79.4004593, 43.6546593]}, "type": "Feature", "id": 705148169475256320, "properties": {"loc": [-79.4004593, 43.6546593], "centroid": [-79.41803420914043, 43.80293703353511], "screen_name": "KatieRuth4", "time": 1456973399.0, "tid": 705148169475256320, "text": "The shop @sancosme_ \ud83d\udc99\ud83d\udc9b\u2764\ufe0f\u270c\ud83c\udffc\ufe0f\u270c\ud83c\udffc @ Torter\u00eda San Cosme https://t.co/GYMiGRZl5H", "created_at": "Wed Mar 02 21:49:59 +0000 2016", "klabel": 85}}, {"geometry": {"type": "Point", "coordinates": [-79.40132618, 43.65336501]}, "type": "Feature", "id": 705150791145816064, "properties": {"loc": [-79.40132618, 43.65336501], "centroid": [-79.41803420914043, 43.80293703353511], "screen_name": "ArepazoTO", "time": 1456974024.0, "tid": 705150791145816064, "text": "repost from @GCorwinn\n@arepazoto #elarepazotoronto #arepazo #kensingtonmarket #original #the6ix\u2026 https://t.co/QdvHMXg0dS", "created_at": "Wed Mar 02 22:00:24 +0000 2016", "klabel": 85}}, {"geometry": {"type": "Point", "coordinates": [-79.39438962, 43.65290077]}, "type": "Feature", "id": 705163356911640576, "properties": {"loc": [-79.39438962, 43.65290077], "centroid": [-79.41803420914043, 43.80293703353511], "screen_name": "Renrik", "time": 1456977020.0, "tid": 705163356911640576, "text": "I'm at Charles Pachter's Moose Factory in Toronto, Ontario https://t.co/dfq6geU6q8", "created_at": "Wed Mar 02 22:50:20 +0000 2016", "klabel": 85}}, {"geometry": {"type": "Point", "coordinates": [-79.3961105, 43.6569519]}, "type": "Feature", "id": 705192858710573056, "properties": {"loc": [-79.3961105, 43.6569519], "centroid": [-79.41803420914043, 43.80293703353511], "screen_name": "amysymington", "time": 1456984054.0, "tid": 705192858710573056, "text": "\ud83c\udf6a\ud83c\udf6aNever ending molasses ginger cookies handcrafted by wonder woman kewl_em &amp; recipe by\u2026 https://t.co/DxEbNbJTPf", "created_at": "Thu Mar 03 00:47:34 +0000 2016", "klabel": 85}}, {"geometry": {"type": "Point", "coordinates": [-79.4016037, 43.6527596]}, "type": "Feature", "id": 705195977473265664, "properties": {"loc": [-79.4016037, 43.6527596], "centroid": [-79.41803420914043, 43.80293703353511], "screen_name": "sergeincanada", "time": 1456984797.0, "tid": 705195977473265664, "text": "\u00c7a va commencer !! \u00c0 tout de suite ... @ ROUND venue https://t.co/PouJ0Hpb0B", "created_at": "Thu Mar 03 00:59:57 +0000 2016", "klabel": 85}}, {"geometry": {"type": "Point", "coordinates": [-79.3986199, 43.65566]}, "type": "Feature", "id": 705267259846103040, "properties": {"loc": [-79.3986199, 43.65566], "centroid": [-79.41803420914043, 43.80293703353511], "screen_name": "BboyRibs", "time": 1457001792.0, "tid": 705267259846103040, "text": "Remember when I got Tattooed! #tattoo #pisces #Toronto #arm #bodyart #goldenirontattoostudio @\u2026 https://t.co/JPTrIN3t1m", "created_at": "Thu Mar 03 05:43:12 +0000 2016", "klabel": 85}}, {"geometry": {"type": "Point", "coordinates": [-79.40159024, 43.6569165]}, "type": "Feature", "id": 705268732877152256, "properties": {"loc": [-79.40159024, 43.6569165], "centroid": [-79.41803420914043, 43.80293703353511], "screen_name": "KeithRobot", "time": 1457002143.0, "tid": 705268732877152256, "text": "@drewbehm and @DannyMartinello love nest in TO. Thanks for hospitality. https://t.co/erNnAaLUY0", "created_at": "Thu Mar 03 05:49:03 +0000 2016", "klabel": 85}}, {"geometry": {"type": "Point", "coordinates": [-79.39768725, 43.65798145]}, "type": "Feature", "id": 705372952372649984, "properties": {"loc": [-79.39768725, 43.65798145], "centroid": [-79.41803420914043, 43.80293703353511], "screen_name": "robertdekker", "time": 1457026991.0, "tid": 705372952372649984, "text": "#morningshot All packed for #allinsixteen in #OttCity #pcpo @ College &amp; Huron https://t.co/RN87z0p59X", "created_at": "Thu Mar 03 12:43:11 +0000 2016", "klabel": 85}}, {"geometry": {"type": "Point", "coordinates": [-79.39901651, 43.65886802]}, "type": "Feature", "id": 705401784047546369, "properties": {"loc": [-79.39901651, 43.65886802], "centroid": [-79.41803420914043, 43.80293703353511], "screen_name": "politeMIND", "time": 1457033865.0, "tid": 705401784047546369, "text": "When you're battling yourself this place can feel like a mental\u2026 https://t.co/u4zGzCbJgx", "created_at": "Thu Mar 03 14:37:45 +0000 2016", "klabel": 85}}, {"geometry": {"type": "Point", "coordinates": [-79.40226, 43.65775]}, "type": "Feature", "id": 705421526624038912, "properties": {"loc": [-79.40226, 43.65775], "centroid": [-79.41803420914043, 43.80293703353511], "screen_name": "312Optical", "time": 1457038572.0, "tid": 705421526624038912, "text": "Yes #Eyewearjunkies we are have a #marchmadness #sale. #sunglasses are 20-50%off and we have\u2026 https://t.co/OCj8YiMZyn", "created_at": "Thu Mar 03 15:56:12 +0000 2016", "klabel": 85}}, {"geometry": {"type": "Point", "coordinates": [-79.40067778, 43.65477222]}, "type": "Feature", "id": 705444477004021760, "properties": {"loc": [-79.40067778, 43.65477222], "centroid": [-79.41803420914043, 43.80293703353511], "screen_name": "Kensington_BIA", "time": 1457044044.0, "tid": 705444477004021760, "text": "You see interesting and diverse #art at people's front doors in #KensingtonMarket. \ud83c\udfa8 #streetart\u2026 https://t.co/iuvtFQq2zX", "created_at": "Thu Mar 03 17:27:24 +0000 2016", "klabel": 85}}, {"geometry": {"type": "Point", "coordinates": [-79.4021258, 43.65454521]}, "type": "Feature", "id": 705452152135745536, "properties": {"loc": [-79.4021258, 43.65454521], "centroid": [-79.41803420914043, 43.80293703353511], "screen_name": "hotboxcafe", "time": 1457045874.0, "tid": 705452152135745536, "text": "Stellar #StonedUpComedy at @hotboxcafe! We joke while you toke &amp; you could win a Pixie medi-pop!\u2026 https://t.co/JNWIOy9PRV", "created_at": "Thu Mar 03 17:57:54 +0000 2016", "klabel": 85}}, {"geometry": {"type": "Point", "coordinates": [-79.40027494, 43.65414925]}, "type": "Feature", "id": 705455264430952448, "properties": {"loc": [-79.40027494, 43.65414925], "centroid": [-79.41803420914043, 43.80293703353511], "screen_name": "KeithRobot", "time": 1457046616.0, "tid": 705455264430952448, "text": "@DannyMartinello https://t.co/YoaKphpYkG", "created_at": "Thu Mar 03 18:10:16 +0000 2016", "klabel": 85}}, {"geometry": {"type": "Point", "coordinates": [-79.40702243, 43.65663074]}, "type": "Feature", "id": 705455334593318912, "properties": {"loc": [-79.40702243, 43.65663074], "centroid": [-79.41803420914043, 43.80293703353511], "screen_name": "MatthewBurpee", "time": 1457046633.0, "tid": 705455334593318912, "text": "I'm at Isshin Ramen \u4e00\u5fc3 - @ramenisshin in Toronto, Ontario https://t.co/j5Z9WjmFuI", "created_at": "Thu Mar 03 18:10:33 +0000 2016", "klabel": 85}}, {"geometry": {"type": "Point", "coordinates": [-79.4070206, 43.6562996]}, "type": "Feature", "id": 705460739973238788, "properties": {"loc": [-79.4070206, 43.6562996], "centroid": [-79.41803420914043, 43.80293703353511], "screen_name": "DJAlasi", "time": 1457047921.0, "tid": 705460739973238788, "text": "#tbt #djalasi #mylastbirthday #birthday #djalasi #thedento #theden #deephouse #techhouse\u2026 https://t.co/H5WfcPzCcj", "created_at": "Thu Mar 03 18:32:01 +0000 2016", "klabel": 85}}, {"geometry": {"type": "Point", "coordinates": [-79.398, 43.6529]}, "type": "Feature", "id": 705461555022921730, "properties": {"loc": [-79.398, 43.6529], "centroid": [-79.41803420914043, 43.80293703353511], "screen_name": "JSheikh14", "time": 1457048116.0, "tid": 705461555022921730, "text": "1 LOVE T.O. \ud83d\udc99\n\n#toronto #spadina #416 #love #6ix #cntower #ily #tbt #chinatown #kensingtonmarket\u2026 https://t.co/S2TixT59Zv", "created_at": "Thu Mar 03 18:35:16 +0000 2016", "klabel": 85}}, {"geometry": {"type": "Point", "coordinates": [-79.3954697, 43.6538315]}, "type": "Feature", "id": 705476810817949696, "properties": {"loc": [-79.3954697, 43.6538315], "centroid": [-79.41803420914043, 43.80293703353511], "screen_name": "CourtneyDeelen", "time": 1457051753.0, "tid": 705476810817949696, "text": "@RAWacting is expanding with a new #acting program for kids!!! I'm\u2026 https://t.co/PCq622cPGA", "created_at": "Thu Mar 03 19:35:53 +0000 2016", "klabel": 85}}, {"geometry": {"type": "Point", "coordinates": [-79.39849377, 43.65346593]}, "type": "Feature", "id": 705500201075785728, "properties": {"loc": [-79.39849377, 43.65346593], "centroid": [-79.41803420914043, 43.80293703353511], "screen_name": "khycrbnll", "time": 1457057330.0, "tid": 705500201075785728, "text": "With ate steff and ate nicolle \ud83d\udc98\ud83d\udc95 (@ Ajisen Ramen \u5473\u5343\u62c9\u9eb5 in Toronto, ON) https://t.co/TMxU5Ri8db https://t.co/I1cwqyoJE2", "created_at": "Thu Mar 03 21:08:50 +0000 2016", "klabel": 85}}, {"geometry": {"type": "Point", "coordinates": [-79.4021258, 43.65454521]}, "type": "Feature", "id": 705503827227611136, "properties": {"loc": [-79.4021258, 43.65454521], "centroid": [-79.41803420914043, 43.80293703353511], "screen_name": "cockdestroyer", "time": 1457058194.0, "tid": 705503827227611136, "text": "TONIGHT! Stellar #StonedUpComedy at @hotboxcafe! We joke while you toke &amp; you could win a Pixie\u2026 https://t.co/0CnE9qKgrt", "created_at": "Thu Mar 03 21:23:14 +0000 2016", "klabel": 85}}, {"geometry": {"type": "Point", "coordinates": [-79.4070206, 43.6562996]}, "type": "Feature", "id": 705506514060988416, "properties": {"loc": [-79.4070206, 43.6562996], "centroid": [-79.41803420914043, 43.80293703353511], "screen_name": "djagile", "time": 1457058835.0, "tid": 705506514060988416, "text": "#TBT I met her son back in '03 at Roxy Blue with the #BrassMunk squad &amp; F&amp;D. I'm glad we were\u2026 https://t.co/0311qG4sVO", "created_at": "Thu Mar 03 21:33:55 +0000 2016", "klabel": 85}}, {"geometry": {"type": "Point", "coordinates": [-79.40132618, 43.65336501]}, "type": "Feature", "id": 705513853577240576, "properties": {"loc": [-79.40132618, 43.65336501], "centroid": [-79.41803420914043, 43.80293703353511], "screen_name": "ArepazoTO", "time": 1457060585.0, "tid": 705513853577240576, "text": "Can you handle our Veggie Deluxe??? #arepazo #elarepa #arepazotoronto #KensingtonMarket\u2026 https://t.co/GooF22Yh2G", "created_at": "Thu Mar 03 22:03:05 +0000 2016", "klabel": 85}}, {"geometry": {"type": "Point", "coordinates": [-79.4022369, 43.65448]}, "type": "Feature", "id": 705524615741890560, "properties": {"loc": [-79.4022369, 43.65448], "centroid": [-79.41803420914043, 43.80293703353511], "screen_name": "Spliffmag", "time": 1457063151.0, "tid": 705524615741890560, "text": "@spliffmag #Cannabiz classifieds available !\n#headshop #CannabisLounge #wholesale #lawyer\u2026 https://t.co/KcAh8TomwI", "created_at": "Thu Mar 03 22:45:51 +0000 2016", "klabel": 85}}, {"geometry": {"type": "Point", "coordinates": [-79.40060179, 43.65448053]}, "type": "Feature", "id": 705531228682846210, "properties": {"loc": [-79.40060179, 43.65448053], "centroid": [-79.41803420914043, 43.80293703353511], "screen_name": "therobledo", "time": 1457064727.0, "tid": 705531228682846210, "text": "I'm at Seven Lives Tacos Y Mariscos in Toronto, ON https://t.co/mY7DIOkNXZ", "created_at": "Thu Mar 03 23:12:07 +0000 2016", "klabel": 85}}, {"geometry": {"type": "Point", "coordinates": [-79.4004593, 43.6546593]}, "type": "Feature", "id": 705532949291257856, "properties": {"loc": [-79.4004593, 43.6546593], "centroid": [-79.41803420914043, 43.80293703353511], "screen_name": "kristin_chen", "time": 1457065137.0, "tid": 705532949291257856, "text": "You guys made my day! Get your #torta fix at this vibrant, friendly and addictively delish\u2026 https://t.co/ZfURWP8P0T", "created_at": "Thu Mar 03 23:18:57 +0000 2016", "klabel": 85}}, {"geometry": {"type": "Point", "coordinates": [-79.4075546, 43.6521339]}, "type": "Feature", "id": 705548677373415424, "properties": {"loc": [-79.4075546, 43.6521339], "centroid": [-79.41803420914043, 43.80293703353511], "screen_name": "HolyGrailBand", "time": 1457068887.0, "tid": 705548677373415424, "text": "Toronto! All weapons are locked &amp; loaded! #Yoyo is holding it down at Merch today Come say\u2026 https://t.co/LeTkybVJf4", "created_at": "Fri Mar 04 00:21:27 +0000 2016", "klabel": 85}}, {"geometry": {"type": "Point", "coordinates": [-79.40067778, 43.65477222]}, "type": "Feature", "id": 705554603337773059, "properties": {"loc": [-79.40067778, 43.65477222], "centroid": [-79.41803420914043, 43.80293703353511], "screen_name": "Kensington_BIA", "time": 1457070300.0, "tid": 705554603337773059, "text": "Lovely window display at #goodegg on Augusta. #KensingtonMarket #windowdisplay #straws\u2026 https://t.co/EffjjILwcu", "created_at": "Fri Mar 04 00:45:00 +0000 2016", "klabel": 85}}, {"geometry": {"type": "Point", "coordinates": [-79.40231708, 43.65201886]}, "type": "Feature", "id": 705571488233975808, "properties": {"loc": [-79.40231708, 43.65201886], "centroid": [-79.41803420914043, 43.80293703353511], "screen_name": "EricaLeib", "time": 1457074326.0, "tid": 705571488233975808, "text": "So Ripe peaches on fleek \ud83d\udca5 #bizmeeting #brainstorm #bestteamever @\u2026 https://t.co/TYs6ybtyqM", "created_at": "Fri Mar 04 01:52:06 +0000 2016", "klabel": 85}}, {"geometry": {"type": "Point", "coordinates": [-79.39761, 43.64994]}, "type": "Feature", "id": 705595369204424706, "properties": {"loc": [-79.39761, 43.64994], "centroid": [-79.41803420914043, 43.80293703353511], "screen_name": "orchestramktg", "time": 1457080020.0, "tid": 705595369204424706, "text": "That's a wrap on the first episode of #startupswap! Had a great time connecting with the\u2026 https://t.co/EH6udP6B8v", "created_at": "Fri Mar 04 03:27:00 +0000 2016", "klabel": 85}}, {"geometry": {"type": "Point", "coordinates": [-79.40242, 43.65493]}, "type": "Feature", "id": 705632784031703040, "properties": {"loc": [-79.40242, 43.65493], "centroid": [-79.41803420914043, 43.80293703353511], "screen_name": "JFrankMusic", "time": 1457088940.0, "tid": 705632784031703040, "text": "Behind the \ud83d\udcf7 earlier tonight. Shafton Thomas Group @ @poetryjazzcafe 02.03.16\u2026 https://t.co/mNyZGdu9Ne", "created_at": "Fri Mar 04 05:55:40 +0000 2016", "klabel": 85}}, {"geometry": {"type": "Point", "coordinates": [-79.39337, 43.65587]}, "type": "Feature", "id": 705739295328509952, "properties": {"loc": [-79.39337, 43.65587], "centroid": [-79.41803420914043, 43.80293703353511], "screen_name": "nn_hoang", "time": 1457114334.0, "tid": 705739295328509952, "text": "@ryus_noodle_bar | Melon Ice cream Soda\n\n#icecream #melonsoda #dessert #toronto #food @ RYUS\u2026 https://t.co/MNCJ6e5sIK", "created_at": "Fri Mar 04 12:58:54 +0000 2016", "klabel": 85}}, {"geometry": {"type": "Point", "coordinates": [-79.3942471, 43.6491931]}, "type": "Feature", "id": 705765267071086592, "properties": {"loc": [-79.3942471, 43.6491931], "centroid": [-79.41803420914043, 43.80293703353511], "screen_name": "tmj_gta_hrta", "time": 1457120526.0, "tid": 705765267071086592, "text": "Starbucks #Hospitality #Job: Shift Supervisor (CA) (316 QUEEN STREET WEST, #TORONTO, ON) https://t.co/4svnvOWOaL #Veterans #Jobs #Hiring", "created_at": "Fri Mar 04 14:42:06 +0000 2016", "klabel": 85}}, {"geometry": {"type": "Point", "coordinates": [-79.40024679, 43.65833939]}, "type": "Feature", "id": 705797939185192960, "properties": {"loc": [-79.40024679, 43.65833939], "centroid": [-79.41803420914043, 43.80293703353511], "screen_name": "Leo_Noirr", "time": 1457128316.0, "tid": 705797939185192960, "text": "Young Leo \n\nPeace+Love x OT. S.\n\nSilver Dollar Room @ The Silver Dollar Room https://t.co/3fxtd7pw3v", "created_at": "Fri Mar 04 16:51:56 +0000 2016", "klabel": 85}}, {"geometry": {"type": "Point", "coordinates": [-79.4070206, 43.6562996]}, "type": "Feature", "id": 705798326025846785, "properties": {"loc": [-79.4070206, 43.6562996], "centroid": [-79.41803420914043, 43.80293703353511], "screen_name": "joeymarchhair", "time": 1457128408.0, "tid": 705798326025846785, "text": "Today is the day , after 6 long years and a lot of travels to see him, he's finally coming back\u2026 https://t.co/RBuZiAfLbD", "created_at": "Fri Mar 04 16:53:28 +0000 2016", "klabel": 85}}, {"geometry": {"type": "Point", "coordinates": [-79.4070206, 43.6562996]}, "type": "Feature", "id": 705798463871705090, "properties": {"loc": [-79.4070206, 43.6562996], "centroid": [-79.41803420914043, 43.80293703353511], "screen_name": "joeymarchhair", "time": 1457128441.0, "tid": 705798463871705090, "text": "Today is the day , after 6 long years and a lot of travels to see him, he's finally coming back\u2026 https://t.co/2xn17vqbe3", "created_at": "Fri Mar 04 16:54:01 +0000 2016", "klabel": 85}}, {"geometry": {"type": "Point", "coordinates": [-79.4070206, 43.6562996]}, "type": "Feature", "id": 705798563280916480, "properties": {"loc": [-79.4070206, 43.6562996], "centroid": [-79.41803420914043, 43.80293703353511], "screen_name": "joeymarchhair", "time": 1457128465.0, "tid": 705798563280916480, "text": "Today is the day , after 6 long years and a lot of travels to see him, he's finally coming back\u2026 https://t.co/FIHbZth6Iz", "created_at": "Fri Mar 04 16:54:25 +0000 2016", "klabel": 85}}, {"geometry": {"type": "Point", "coordinates": [-79.4070206, 43.6562996]}, "type": "Feature", "id": 705798856127205376, "properties": {"loc": [-79.4070206, 43.6562996], "centroid": [-79.41803420914043, 43.80293703353511], "screen_name": "joeymarchhair", "time": 1457128535.0, "tid": 705798856127205376, "text": "Today is the day , after 6 long years and a lot of travels to see him, he's finally coming back\u2026 https://t.co/wik13lp9wm", "created_at": "Fri Mar 04 16:55:35 +0000 2016", "klabel": 85}}, {"geometry": {"type": "Point", "coordinates": [-79.4070206, 43.6562996]}, "type": "Feature", "id": 705799001661173763, "properties": {"loc": [-79.4070206, 43.6562996], "centroid": [-79.41803420914043, 43.80293703353511], "screen_name": "joeymarchhair", "time": 1457128569.0, "tid": 705799001661173763, "text": "Today is the day , after 6 long years and a lot of travels to see him, he's finally coming back\u2026 https://t.co/Op4NcYm6HL", "created_at": "Fri Mar 04 16:56:09 +0000 2016", "klabel": 85}}, {"geometry": {"type": "Point", "coordinates": [-79.40067778, 43.65477222]}, "type": "Feature", "id": 705819770998956033, "properties": {"loc": [-79.40067778, 43.65477222], "centroid": [-79.41803420914043, 43.80293703353511], "screen_name": "Kensington_BIA", "time": 1457133521.0, "tid": 705819770998956033, "text": "What is your #perspective? #KensingtonMarket #streetphotography #lunchcounter #wood #sky\u2026 https://t.co/GnRDUpmfYr", "created_at": "Fri Mar 04 18:18:41 +0000 2016", "klabel": 85}}, {"geometry": {"type": "Point", "coordinates": [-79.39995289, 43.65709872]}, "type": "Feature", "id": 705821689045762048, "properties": {"loc": [-79.39995289, 43.65709872], "centroid": [-79.41803420914043, 43.80293703353511], "screen_name": "erikaszabo", "time": 1457133978.0, "tid": 705821689045762048, "text": "My Want List at @acgamesonline is really starting to stack up. I doubt I can use my tax return\u2026 https://t.co/nRqmqtYUYm", "created_at": "Fri Mar 04 18:26:18 +0000 2016", "klabel": 85}}, {"geometry": {"type": "Point", "coordinates": [-79.40675042, 43.65674209]}, "type": "Feature", "id": 705835873779249153, "properties": {"loc": [-79.40675042, 43.65674209], "centroid": [-79.41803420914043, 43.80293703353511], "screen_name": "thenewkid", "time": 1457137360.0, "tid": 705835873779249153, "text": "https://t.co/Wxpp3rJU6d", "created_at": "Fri Mar 04 19:22:40 +0000 2016", "klabel": 85}}, {"geometry": {"type": "Point", "coordinates": [-79.39936587, 43.65617839]}, "type": "Feature", "id": 705850500944560128, "properties": {"loc": [-79.39936587, 43.65617839], "centroid": [-79.41803420914043, 43.80293703353511], "screen_name": "jennsteele21", "time": 1457140848.0, "tid": 705850500944560128, "text": "Just posted a photo @ Chinatown/Kensington Market https://t.co/vcJAgm0y9p", "created_at": "Fri Mar 04 20:20:48 +0000 2016", "klabel": 85}}, {"geometry": {"type": "Point", "coordinates": [-79.3988037, 43.6558495]}, "type": "Feature", "id": 705852890640875520, "properties": {"loc": [-79.3988037, 43.6558495], "centroid": [-79.41803420914043, 43.80293703353511], "screen_name": "jennsteele21", "time": 1457141417.0, "tid": 705852890640875520, "text": "\ud83c\udf74\ud83c\udf5c\ud83c\udf76 yummmmm!! @ Kom Jug Yuen https://t.co/VXpAqpDK0i", "created_at": "Fri Mar 04 20:30:17 +0000 2016", "klabel": 85}}, {"geometry": {"type": "Point", "coordinates": [-79.4016266, 43.6579819]}, "type": "Feature", "id": 705857144881442816, "properties": {"loc": [-79.4016266, 43.6579819], "centroid": [-79.41803420914043, 43.80293703353511], "screen_name": "thewingedhubris", "time": 1457142432.0, "tid": 705857144881442816, "text": "THERE IS A CAT CAF\u00c9 DOWN FROM WHERE IM STAYING I THINK IM IN HEAVEN @ TOT the Cat Caf\u00e9 https://t.co/9mubU6Hevz", "created_at": "Fri Mar 04 20:47:12 +0000 2016", "klabel": 85}}, {"geometry": {"type": "Point", "coordinates": [-79.40132618, 43.65336501]}, "type": "Feature", "id": 705864256692948992, "properties": {"loc": [-79.40132618, 43.65336501], "centroid": [-79.41803420914043, 43.80293703353511], "screen_name": "ArepazoTO", "time": 1457144127.0, "tid": 705864256692948992, "text": "repost via @divvypic from @latinosmag\nTen\u00edamos antojos de una rica arepa Venezolana, as\u00ed que\u2026 https://t.co/dT7XXicPP1", "created_at": "Fri Mar 04 21:15:27 +0000 2016", "klabel": 85}}, {"geometry": {"type": "Point", "coordinates": [-79.4004593, 43.6546593]}, "type": "Feature", "id": 705869191279202304, "properties": {"loc": [-79.4004593, 43.6546593], "centroid": [-79.41803420914043, 43.80293703353511], "screen_name": "KatieRuth4", "time": 1457145304.0, "tid": 705869191279202304, "text": "2 days in a row! Sold out! Thanks to all who came out to get #tortas #tortalove @sancosme_ @\u2026 https://t.co/KEhwa0hqBv", "created_at": "Fri Mar 04 21:35:04 +0000 2016", "klabel": 85}}, {"geometry": {"type": "Point", "coordinates": [-79.39877485, 43.65430566]}, "type": "Feature", "id": 705870270901428224, "properties": {"loc": [-79.39877485, 43.65430566], "centroid": [-79.41803420914043, 43.80293703353511], "screen_name": "dragonboat28", "time": 1457145561.0, "tid": 705870270901428224, "text": "Deep fried spring roll! @ Pho Hung Vietnamese Restaurant https://t.co/WGq5HMaSFK", "created_at": "Fri Mar 04 21:39:21 +0000 2016", "klabel": 85}}, {"geometry": {"type": "Point", "coordinates": [-79.40237191, 43.65499658]}, "type": "Feature", "id": 705876423433703430, "properties": {"loc": [-79.40237191, 43.65499658], "centroid": [-79.41803420914043, 43.80293703353511], "screen_name": "CrisLOou", "time": 1457147028.0, "tid": 705876423433703430, "text": "Coffee after work (@ Poetry Jazz Cafe in Toronto, ON) https://t.co/uKsiE71TLm", "created_at": "Fri Mar 04 22:03:48 +0000 2016", "klabel": 85}}, {"geometry": {"type": "Point", "coordinates": [-79.4015, 43.6545]}, "type": "Feature", "id": 705883235084070916, "properties": {"loc": [-79.4015, 43.6545], "centroid": [-79.41803420914043, 43.80293703353511], "screen_name": "X24P", "time": 1457148652.0, "tid": 705883235084070916, "text": "Drinking a Red Barn Bitter by @OastHouseBeer at @thirstyandm \u2014 https://t.co/b5sGZ8oToj", "created_at": "Fri Mar 04 22:30:52 +0000 2016", "klabel": 85}}, {"geometry": {"type": "Point", "coordinates": [-79.402641, 43.655678]}, "type": "Feature", "id": 705883385042960384, "properties": {"loc": [-79.402641, 43.655678], "centroid": [-79.41803420914043, 43.80293703353511], "screen_name": "MsShlee", "time": 1457148688.0, "tid": 705883385042960384, "text": "Love this place (@ Blue Banana Market - @bluebananamarkt in Toronto, ON) https://t.co/Aw2b7mRlSI https://t.co/cZYnKtBdOd", "created_at": "Fri Mar 04 22:31:28 +0000 2016", "klabel": 85}}, {"geometry": {"type": "Point", "coordinates": [-79.4015, 43.6545]}, "type": "Feature", "id": 705884352031399936, "properties": {"loc": [-79.4015, 43.6545], "centroid": [-79.41803420914043, 43.80293703353511], "screen_name": "BrewScout", "time": 1457148918.0, "tid": 705884352031399936, "text": "Tastes like Friday. - Drinking a Koru by @beausallnatural at @thirstyandm  \u2014 https://t.co/kmB8P5G25N #photo", "created_at": "Fri Mar 04 22:35:18 +0000 2016", "klabel": 85}}, {"geometry": {"type": "Point", "coordinates": [-79.3986893, 43.6535988]}, "type": "Feature", "id": 705886468691107845, "properties": {"loc": [-79.3986893, 43.6535988], "centroid": [-79.41803420914043, 43.80293703353511], "screen_name": "McIntyre905", "time": 1457149423.0, "tid": 705886468691107845, "text": "This place is chronic @ Lucky Red https://t.co/OL6fZmGpEN", "created_at": "Fri Mar 04 22:43:43 +0000 2016", "klabel": 85}}, {"geometry": {"type": "Point", "coordinates": [-79.3954581, 43.6585297]}, "type": "Feature", "id": 705888275970420736, "properties": {"loc": [-79.3954581, 43.6585297], "centroid": [-79.41803420914043, 43.80293703353511], "screen_name": "tmj_gta_hrta", "time": 1457149854.0, "tid": 705888275970420736, "text": "#Hospitality #Job alert: Barista (CA) | Starbucks | 205 COLLEGE STREET, #TORONTO, ON https://t.co/RXLEyQzixi #Veterans #Jobs #Hiring", "created_at": "Fri Mar 04 22:50:54 +0000 2016", "klabel": 85}}, {"geometry": {"type": "Point", "coordinates": [-79.39644397, 43.65937599]}, "type": "Feature", "id": 705892608942411777, "properties": {"loc": [-79.39644397, 43.65937599], "centroid": [-79.41803420914043, 43.80293703353511], "screen_name": "antonlodder", "time": 1457150887.0, "tid": 705892608942411777, "text": "@311Toronto @TO_Cycling college bike lane eastbound between university and St  George is blocked by snow in several spots", "created_at": "Fri Mar 04 23:08:07 +0000 2016", "klabel": 85}}, {"geometry": {"type": "Point", "coordinates": [-79.3966923, 43.65917774]}, "type": "Feature", "id": 705892712604635136, "properties": {"loc": [-79.3966923, 43.65917774], "centroid": [-79.41803420914043, 43.80293703353511], "screen_name": "antonlodder", "time": 1457150912.0, "tid": 705892712604635136, "text": "@311Toronto @TO_Cycling also St George at North East corner of college intersection", "created_at": "Fri Mar 04 23:08:32 +0000 2016", "klabel": 85}}, {"geometry": {"type": "Point", "coordinates": [-79.4004593, 43.6546593]}, "type": "Feature", "id": 705908499679588352, "properties": {"loc": [-79.4004593, 43.6546593], "centroid": [-79.41803420914043, 43.80293703353511], "screen_name": "Caplansky", "time": 1457154676.0, "tid": 705908499679588352, "text": "Guess who just opened the hottest new sandwich joint in Kensington? @elchefdemilagro and\u2026 https://t.co/b2RlcT3gvo", "created_at": "Sat Mar 05 00:11:16 +0000 2016", "klabel": 85}}, {"geometry": {"type": "Point", "coordinates": [-79.39657, 43.65072]}, "type": "Feature", "id": 705914905472454656, "properties": {"loc": [-79.39657, 43.65072], "centroid": [-79.41803420914043, 43.80293703353511], "screen_name": "Coyotetheatre", "time": 1457156203.0, "tid": 705914905472454656, "text": "Rebels, meet Coyotes. #torontofringefestival  #indieunite #houseofrebels #csi #synergy @ CSI https://t.co/K0370gJT7Y", "created_at": "Sat Mar 05 00:36:43 +0000 2016", "klabel": 85}}, {"geometry": {"type": "Point", "coordinates": [-79.4070206, 43.6562996]}, "type": "Feature", "id": 705920706501021696, "properties": {"loc": [-79.4070206, 43.6562996], "centroid": [-79.41803420914043, 43.80293703353511], "screen_name": "RYZETORONTO", "time": 1457157586.0, "tid": 705920706501021696, "text": "TORONTO - the very very anticipated return of the Italian TECHNO Legend -- MARCO CAROLA (...is\u2026 https://t.co/BPtjS3zI1o", "created_at": "Sat Mar 05 00:59:46 +0000 2016", "klabel": 85}}, {"geometry": {"type": "Point", "coordinates": [-79.40150052, 43.65337278]}, "type": "Feature", "id": 705929192744030209, "properties": {"loc": [-79.40150052, 43.65337278], "centroid": [-79.41803420914043, 43.80293703353511], "screen_name": "mquach", "time": 1457159609.0, "tid": 705929192744030209, "text": "Last stop for tonight. Getting full (@ El @ArepazoTo in Toronto, ON) https://t.co/QbOMUueRoP", "created_at": "Sat Mar 05 01:33:29 +0000 2016", "klabel": 85}}, {"geometry": {"type": "Point", "coordinates": [-79.40132618, 43.65336501]}, "type": "Feature", "id": 705932780207783936, "properties": {"loc": [-79.40132618, 43.65336501], "centroid": [-79.41803420914043, 43.80293703353511], "screen_name": "mquach", "time": 1457160465.0, "tid": 705932780207783936, "text": "Arepa sliders from @arepatoronto. Love the chorizo and steak! #omnomnom @ El Arepazo https://t.co/TCNcWfbiDx", "created_at": "Sat Mar 05 01:47:45 +0000 2016", "klabel": 85}}, {"geometry": {"type": "Point", "coordinates": [-79.40024679, 43.65833939]}, "type": "Feature", "id": 705956672146182145, "properties": {"loc": [-79.40024679, 43.65833939], "centroid": [-79.41803420914043, 43.80293703353511], "screen_name": "Bryanna_Brown", "time": 1457166161.0, "tid": 705956672146182145, "text": "Dem #yuccaflats @ The Silver Dollar Room https://t.co/WxODWg4XcW", "created_at": "Sat Mar 05 03:22:41 +0000 2016", "klabel": 85}}, {"geometry": {"type": "Point", "coordinates": [-79.40067778, 43.65477222]}, "type": "Feature", "id": 705973352280666112, "properties": {"loc": [-79.40067778, 43.65477222], "centroid": [-79.41803420914043, 43.80293703353511], "screen_name": "srhiltz", "time": 1457170138.0, "tid": 705973352280666112, "text": "Happy birthday to me!! Thanks everyone for the love!! Sorry if I was a bit of ghost, but I was\u2026 https://t.co/DENxwFD0ku", "created_at": "Sat Mar 05 04:28:58 +0000 2016", "klabel": 85}}, {"geometry": {"type": "Point", "coordinates": [-79.40708334, 43.656608]}, "type": "Feature", "id": 705997738865991681, "properties": {"loc": [-79.40708334, 43.656608], "centroid": [-79.41803420914043, 43.80293703353511], "screen_name": "natnatow", "time": 1457175952.0, "tid": 705997738865991681, "text": "Ramen for 1 #vsco #vscocam @ Ramen Isshin https://t.co/V6xgBaIiQ9", "created_at": "Sat Mar 05 06:05:52 +0000 2016", "klabel": 85}}, {"geometry": {"type": "Point", "coordinates": [-79.3959618, 43.65862433]}, "type": "Feature", "id": 706089259665530882, "properties": {"loc": [-79.3959618, 43.65862433], "centroid": [-79.41803420914043, 43.80293703353511], "screen_name": "muhdiman30", "time": 1457197772.0, "tid": 706089259665530882, "text": "You look like a movie.You sound like a song. @ When We Were Young https://t.co/AwjmGm3O3e", "created_at": "Sat Mar 05 12:09:32 +0000 2016", "klabel": 85}}, {"geometry": {"type": "Point", "coordinates": [-79.39753974, 43.6531053]}, "type": "Feature", "id": 706103655993311232, "properties": {"loc": [-79.39753974, 43.6531053], "centroid": [-79.41803420914043, 43.80293703353511], "screen_name": "iremm_altunay", "time": 1457201205.0, "tid": 706103655993311232, "text": "gunaaaydin (@ Chinatown in Toronto, ON w/ @elifdalgin) https://t.co/3KdoZwmpYV", "created_at": "Sat Mar 05 13:06:45 +0000 2016", "klabel": 85}}, {"geometry": {"type": "Point", "coordinates": [-79.39947182, 43.65635619]}, "type": "Feature", "id": 706135088178724865, "properties": {"loc": [-79.39947182, 43.65635619], "centroid": [-79.41803420914043, 43.80293703353511], "screen_name": "christinelove", "time": 1457208699.0, "tid": 706135088178724865, "text": "@mcclure111 See me after class", "created_at": "Sat Mar 05 15:11:39 +0000 2016", "klabel": 85}}, {"geometry": {"type": "Point", "coordinates": [-79.39796658, 43.65848617]}, "type": "Feature", "id": 706161207259095040, "properties": {"loc": [-79.39796658, 43.65848617], "centroid": [-79.41803420914043, 43.80293703353511], "screen_name": "elisehunchuck", "time": 1457214926.0, "tid": 706161207259095040, "text": "things you find in the basement of 230 College. #danielsfaculty @ John H. Daniels School of\u2026 https://t.co/LOoV9WP3nZ", "created_at": "Sat Mar 05 16:55:26 +0000 2016", "klabel": 85}}, {"geometry": {"type": "Point", "coordinates": [-79.4016037, 43.6527596]}, "type": "Feature", "id": 706171194391863301, "properties": {"loc": [-79.4016037, 43.6527596], "centroid": [-79.41803420914043, 43.80293703353511], "screen_name": "FreezaChin", "time": 1457217307.0, "tid": 706171194391863301, "text": "By @jonathancullen9 via repostwhiz app:\nTonight's the night!!! Come get your Thai on!! Music,\u2026 https://t.co/c66auTelfX", "created_at": "Sat Mar 05 17:35:07 +0000 2016", "klabel": 85}}, {"geometry": {"type": "Point", "coordinates": [-79.4074, 43.6562399]}, "type": "Feature", "id": 706172317471268864, "properties": {"loc": [-79.4074, 43.6562399], "centroid": [-79.41803420914043, 43.80293703353511], "screen_name": "StefMancinelli", "time": 1457217575.0, "tid": 706172317471268864, "text": "\ud83c\udfa4I can't help it baby, this is who I am \nSorry, but I can't just go turn off how I feel \nYou\u2026 https://t.co/wsd3lB1r88", "created_at": "Sat Mar 05 17:39:35 +0000 2016", "klabel": 85}}, {"geometry": {"type": "Point", "coordinates": [-79.40114, 43.65311]}, "type": "Feature", "id": 706176881800953856, "properties": {"loc": [-79.40114, 43.65311], "centroid": [-79.41803420914043, 43.80293703353511], "screen_name": "kapisanan", "time": 1457218663.0, "tid": 706176881800953856, "text": "CLUTCH x NAV 2016 \ud83c\udf89 Here's CLUTCH Vol.8 and NAV Vol.3 getting to know each other through some\u2026 https://t.co/1CS0RTR1pM", "created_at": "Sat Mar 05 17:57:43 +0000 2016", "klabel": 85}}, {"geometry": {"type": "Point", "coordinates": [-79.4014566, 43.6545236]}, "type": "Feature", "id": 707596800572694528, "properties": {"loc": [-79.4014566, 43.6545236], "centroid": [-79.41803420914043, 43.80293703353511], "screen_name": "rmsleonard", "time": 1457557198.0, "tid": 707596800572694528, "text": "Street Photography - Urbanites   https://t.co/4909gSuxyo  #StreetPhotogs #Photography #Toronto", "created_at": "Wed Mar 09 15:59:58 +0000 2016", "klabel": 85}}, {"geometry": {"type": "Point", "coordinates": [-79.39950232, 43.65794994]}, "type": "Feature", "id": 707606476949483520, "properties": {"loc": [-79.39950232, 43.65794994], "centroid": [-79.41803420914043, 43.80293703353511], "screen_name": "CrisLOou", "time": 1457559505.0, "tid": 707606476949483520, "text": "Coffee with babe ! (at @TimHortons in Toronto, ON) https://t.co/eVlrZvj6P4 https://t.co/k0vea0ihrI", "created_at": "Wed Mar 09 16:38:25 +0000 2016", "klabel": 85}}, {"geometry": {"type": "Point", "coordinates": [-79.4020772, 43.65483601]}, "type": "Feature", "id": 707607849225080832, "properties": {"loc": [-79.4020772, 43.65483601], "centroid": [-79.41803420914043, 43.80293703353511], "screen_name": "CrisLOou", "time": 1457559832.0, "tid": 707607849225080832, "text": "Lat\u00edn products (@ Perola Supermarket in Toronto, ON) https://t.co/tixf3NeHSM https://t.co/hou6uWFxVX", "created_at": "Wed Mar 09 16:43:52 +0000 2016", "klabel": 85}}, {"geometry": {"type": "Point", "coordinates": [-79.39178, 43.65445]}, "type": "Feature", "id": 707609534127276032, "properties": {"loc": [-79.39178, 43.65445], "centroid": [-79.41803420914043, 43.80293703353511], "screen_name": "ProvoFoodBar", "time": 1457560234.0, "tid": 707609534127276032, "text": "Come try our fan-favourite Provo burger with our house made tomato bacon jam and pain au lait\u2026 https://t.co/u5TIobDeyT", "created_at": "Wed Mar 09 16:50:34 +0000 2016", "klabel": 85}}, {"geometry": {"type": "Point", "coordinates": [-79.39334, 43.65819]}, "type": "Feature", "id": 707611967331000320, "properties": {"loc": [-79.39334, 43.65819], "centroid": [-79.41803420914043, 43.80293703353511], "screen_name": "RMHToronto", "time": 1457560814.0, "tid": 707611967331000320, "text": "Recess is way more fun when it's 11 degrees outside. At least Luka seems to think so.\u2026 https://t.co/ldVdkZtBjJ", "created_at": "Wed Mar 09 17:00:14 +0000 2016", "klabel": 85}}, {"geometry": {"type": "Point", "coordinates": [-79.4016662, 43.65475419]}, "type": "Feature", "id": 749760432412454913, "properties": {"loc": [-79.4016662, 43.65475419], "centroid": [-79.41803420914043, 43.80293703353511], "screen_name": "TocinoBoys", "time": 1467609791.0, "tid": 749760432412454913, "text": "The key to my heart. @ Kensington Market In Toronto https://t.co/yHvBtwaUKH", "created_at": "Mon Jul 04 00:23:11 +0000 2016", "klabel": 85}}, {"geometry": {"type": "Point", "coordinates": [-79.4074, 43.6562399]}, "type": "Feature", "id": 749763443738107905, "properties": {"loc": [-79.4074, 43.6562399], "centroid": [-79.41803420914043, 43.80293703353511], "screen_name": "fred_bf", "time": 1467610509.0, "tid": 749763443738107905, "text": "C'est qui elle, qui creep en arri\u00e8re? #selfie @ Sneaky Dee's https://t.co/rZ2hkZzxnN", "created_at": "Mon Jul 04 00:35:09 +0000 2016", "klabel": 85}}, {"geometry": {"type": "Point", "coordinates": [-79.4007, 43.65891]}, "type": "Feature", "id": 749779013443395585, "properties": {"loc": [-79.4007, 43.65891], "centroid": [-79.41803420914043, 43.80293703353511], "screen_name": "_littlemisslee_", "time": 1467614221.0, "tid": 749779013443395585, "text": "Spadina #toronto #travel #adventure #thesix #explorecanada #explore #tdot @ Spadina Station https://t.co/nh07bX73Fi", "created_at": "Mon Jul 04 01:37:01 +0000 2016", "klabel": 85}}, {"geometry": {"type": "Point", "coordinates": [-79.3976316, 43.6521646]}, "type": "Feature", "id": 749864085068607488, "properties": {"loc": [-79.3976316, 43.6521646], "centroid": [-79.41803420914043, 43.80293703353511], "screen_name": "tpscalls", "time": 1467634504.0, "tid": 749864085068607488, "text": "Crowd Control | Charlotte St &amp; Spadina Ave [SESU3] 07/04 03:09 #Downtown #Toronto", "created_at": "Mon Jul 04 07:15:04 +0000 2016", "klabel": 85}}, {"geometry": {"type": "Point", "coordinates": [-79.3929, 43.65596]}, "type": "Feature", "id": 749961537423454209, "properties": {"loc": [-79.3929, 43.65596], "centroid": [-79.41803420914043, 43.80293703353511], "screen_name": "yyangalex", "time": 1467657738.0, "tid": 749961537423454209, "text": "Taro with a Twist, taro &amp; coconut ice cream with mochi balls, coconut shreds &amp; waffle cookie\u2026 https://t.co/7bDsPH9cGi", "created_at": "Mon Jul 04 13:42:18 +0000 2016", "klabel": 85}}, {"geometry": {"type": "Point", "coordinates": [-79.4017868, 43.6546211]}, "type": "Feature", "id": 749995414867161094, "properties": {"loc": [-79.4017868, 43.6546211], "centroid": [-79.41803420914043, 43.80293703353511], "screen_name": "TeddyMakwa", "time": 1467665815.0, "tid": 749995414867161094, "text": "Meeting friend.for pie and.coffeee @ Casa Coffee https://t.co/hfnyH9fnHj", "created_at": "Mon Jul 04 15:56:55 +0000 2016", "klabel": 85}}, {"geometry": {"type": "Point", "coordinates": [-79.3971307, 43.6500256]}, "type": "Feature", "id": 749999948553420800, "properties": {"loc": [-79.3971307, 43.6500256], "centroid": [-79.41803420914043, 43.80293703353511], "screen_name": "AliyaBhatia", "time": 1467666896.0, "tid": 749999948553420800, "text": "Is there a salad subreddit where I can talk about how good my salad was? It had beets and ricotta and avo. It was just... Really. Great.", "created_at": "Mon Jul 04 16:14:56 +0000 2016", "klabel": 85}}, {"geometry": {"type": "Point", "coordinates": [-79.40204, 43.65463]}, "type": "Feature", "id": 750004521510662144, "properties": {"loc": [-79.40204, 43.65463], "centroid": [-79.41803420914043, 43.80293703353511], "screen_name": "TeddyMakwa", "time": 1467667986.0, "tid": 750004521510662144, "text": "Buzzzzzzzzz. @ Roach-O-Rama https://t.co/0vXsD5h0yH", "created_at": "Mon Jul 04 16:33:06 +0000 2016", "klabel": 85}}, {"geometry": {"type": "Point", "coordinates": [-79.399654, 43.657901]}, "type": "Feature", "id": 750017062316105728, "properties": {"loc": [-79.399654, 43.657901], "centroid": [-79.41803420914043, 43.80293703353511], "screen_name": "TeddyMakwa", "time": 1467670976.0, "tid": 750017062316105728, "text": "Just posted a photo @ Popeye's Louisiana Kitchen https://t.co/W2ZDGbiYLJ", "created_at": "Mon Jul 04 17:22:56 +0000 2016", "klabel": 85}}, {"geometry": {"type": "Point", "coordinates": [-79.3954581, 43.6585297]}, "type": "Feature", "id": 750040199531360256, "properties": {"loc": [-79.3954581, 43.6585297], "centroid": [-79.41803420914043, 43.80293703353511], "screen_name": "tmj_gta_hrta", "time": 1467676493.0, "tid": 750040199531360256, "text": "Interested in a #Hospitality #job near 205 COLLEGE STREET, #TORONTO, ON? This could be a great fit: https://t.co/RXLEyQzixi #Veterans", "created_at": "Mon Jul 04 18:54:53 +0000 2016", "klabel": 85}}, {"geometry": {"type": "Point", "coordinates": [-79.40254, 43.65658]}, "type": "Feature", "id": 750050571231502336, "properties": {"loc": [-79.40254, 43.65658], "centroid": [-79.41803420914043, 43.80293703353511], "screen_name": "ShootingStarTO", "time": 1467678966.0, "tid": 750050571231502336, "text": "Afternoon bevvies with @thatguinnessguy  \ud83d\ude0e\ud83c\udf7b @ Trinity Common https://t.co/hp3rQz92zp", "created_at": "Mon Jul 04 19:36:06 +0000 2016", "klabel": 85}}, {"geometry": {"type": "Point", "coordinates": [-79.39702, 43.65138]}, "type": "Feature", "id": 750055631072141313, "properties": {"loc": [-79.39702, 43.65138], "centroid": [-79.41803420914043, 43.80293703353511], "screen_name": "CutiePieCo", "time": 1467680172.0, "tid": 750055631072141313, "text": "\ud83d\ude03 #Repost from @saltandketchup using repostregramapp - I know the cranks on the Toronto\u2026 https://t.co/QY5LjBf1w0", "created_at": "Mon Jul 04 19:56:12 +0000 2016", "klabel": 85}}, {"geometry": {"type": "Point", "coordinates": [-79.40199, 43.6545]}, "type": "Feature", "id": 750065088149815298, "properties": {"loc": [-79.40199, 43.6545], "centroid": [-79.41803420914043, 43.80293703353511], "screen_name": "jkillorn", "time": 1467682427.0, "tid": 750065088149815298, "text": "Praise be to the avocado. Mad ripe. #avocado #foodporn #canon60d #55mm @ Kensington Marketing https://t.co/k1Z8zTrUfU", "created_at": "Mon Jul 04 20:33:47 +0000 2016", "klabel": 85}}, {"geometry": {"type": "Point", "coordinates": [-79.40126697, 43.65483375]}, "type": "Feature", "id": 750069385138728960, "properties": {"loc": [-79.40126697, 43.65483375], "centroid": [-79.41803420914043, 43.80293703353511], "screen_name": "jackmaninov", "time": 1467683451.0, "tid": 750069385138728960, "text": "Passport application submitted, time to be a hipster (@ Kensington Market in Toronto, ON) https://t.co/2skUaAKRKm", "created_at": "Mon Jul 04 20:50:51 +0000 2016", "klabel": 85}}, {"geometry": {"type": "Point", "coordinates": [-79.40264551, 43.65615714]}, "type": "Feature", "id": 750079902498508800, "properties": {"loc": [-79.40264551, 43.65615714], "centroid": [-79.41803420914043, 43.80293703353511], "screen_name": "dailyblender", "time": 1467685959.0, "tid": 750079902498508800, "text": "Dark Side of the Moon rainbow cupcakes at Wanda's.\n\n#kensingtonmarket #toronto #cupcakes\u2026 https://t.co/coqv5RPaJj", "created_at": "Mon Jul 04 21:32:39 +0000 2016", "klabel": 85}}, {"geometry": {"type": "Point", "coordinates": [-79.4016662, 43.65475419]}, "type": "Feature", "id": 750083058519384064, "properties": {"loc": [-79.4016662, 43.65475419], "centroid": [-79.41803420914043, 43.80293703353511], "screen_name": "LucidMovement", "time": 1467686711.0, "tid": 750083058519384064, "text": "All seeing. All knowing \ud83d\udc41 #knowingeye #bigbrother #toronto #torontoartist #torontograffiti\u2026 https://t.co/JQxBctaXZK", "created_at": "Mon Jul 04 21:45:11 +0000 2016", "klabel": 85}}, {"geometry": {"type": "Point", "coordinates": [-79.40245468, 43.65755034]}, "type": "Feature", "id": 750087778323484673, "properties": {"loc": [-79.40245468, 43.65755034], "centroid": [-79.41803420914043, 43.80293703353511], "screen_name": "FreeTimesCafe", "time": 1467687836.0, "tid": 750087778323484673, "text": "Free Times Deluxe #Burger with onion rings, portobello mushrooms, and roasted peppers - oh my\u2026 https://t.co/6kVUHxyvCl", "created_at": "Mon Jul 04 22:03:56 +0000 2016", "klabel": 85}}, {"geometry": {"type": "Point", "coordinates": [-79.4016662, 43.65475419]}, "type": "Feature", "id": 750091701784633344, "properties": {"loc": [-79.4016662, 43.65475419], "centroid": [-79.41803420914043, 43.80293703353511], "screen_name": "DanielfGorman", "time": 1467688772.0, "tid": 750091701784633344, "text": "There's always something whacky going on in #Toronto. This mobile percussion vehicle looks just\u2026 https://t.co/m6rYdkv8AB", "created_at": "Mon Jul 04 22:19:32 +0000 2016", "klabel": 85}}, {"geometry": {"type": "Point", "coordinates": [-79.40019, 43.65287]}, "type": "Feature", "id": 750104206409891840, "properties": {"loc": [-79.40019, 43.65287], "centroid": [-79.41803420914043, 43.80293703353511], "screen_name": "dmcphotog", "time": 1467691753.0, "tid": 750104206409891840, "text": "\u2702\ufe0f\ud83d\udc88 @ Crows Nest Barbershop https://t.co/agEVhMHndk", "created_at": "Mon Jul 04 23:09:13 +0000 2016", "klabel": 85}}, {"geometry": {"type": "Point", "coordinates": [-79.40231, 43.65473]}, "type": "Feature", "id": 750124448645349380, "properties": {"loc": [-79.40231, 43.65473], "centroid": [-79.41803420914043, 43.80293703353511], "screen_name": "cherisedee", "time": 1467696579.0, "tid": 750124448645349380, "text": "I went all the way to Kensington just to get a #churrocone \u2764\ufe0f @ Pancho's Bakery Toronto https://t.co/VSh0wkHlyB", "created_at": "Tue Jul 05 00:29:39 +0000 2016", "klabel": 85}}, {"geometry": {"type": "Point", "coordinates": [-79.39793906, 43.6531937]}, "type": "Feature", "id": 750125132258082816, "properties": {"loc": [-79.39793906, 43.6531937], "centroid": [-79.41803420914043, 43.80293703353511], "screen_name": "hsimoesluiz", "time": 1467696742.0, "tid": 750125132258082816, "text": "China Town @ China Town at Dundas st W. &amp; Spadina ave. https://t.co/4kldrlQ7ex", "created_at": "Tue Jul 05 00:32:22 +0000 2016", "klabel": 85}}, {"geometry": {"type": "Point", "coordinates": [-79.40245468, 43.65755034]}, "type": "Feature", "id": 750137665476001792, "properties": {"loc": [-79.40245468, 43.65755034], "centroid": [-79.41803420914043, 43.80293703353511], "screen_name": "lindsaylorusso", "time": 1467699730.0, "tid": 750137665476001792, "text": "#aboutsaturdaynight @FreeTimesCafe #carllorussojr @ Free Times Cafe https://t.co/t6Qog8xHuj", "created_at": "Tue Jul 05 01:22:10 +0000 2016", "klabel": 85}}, {"geometry": {"type": "Point", "coordinates": [-79.4016662, 43.65475419]}, "type": "Feature", "id": 750138381745684482, "properties": {"loc": [-79.4016662, 43.65475419], "centroid": [-79.41803420914043, 43.80293703353511], "screen_name": "_AdamHussain", "time": 1467699901.0, "tid": 750138381745684482, "text": "Pride @ Kensington Market In Toronto https://t.co/yReU79B8P9", "created_at": "Tue Jul 05 01:25:01 +0000 2016", "klabel": 85}}, {"geometry": {"type": "Point", "coordinates": [-79.40245468, 43.65755034]}, "type": "Feature", "id": 750138632682496002, "properties": {"loc": [-79.40245468, 43.65755034], "centroid": [-79.41803420914043, 43.80293703353511], "screen_name": "lindsaylorusso", "time": 1467699961.0, "tid": 750138632682496002, "text": "#aboutsaturdaynight @FreeTimesCafe with @mastersonadam \ud83d\ude4c\ud83c\udffc @ Free\u2026 https://t.co/FB4HVUYUoX", "created_at": "Tue Jul 05 01:26:01 +0000 2016", "klabel": 85}}, {"geometry": {"type": "Point", "coordinates": [-79.40067778, 43.65477222]}, "type": "Feature", "id": 750139356938170369, "properties": {"loc": [-79.40067778, 43.65477222], "centroid": [-79.41803420914043, 43.80293703353511], "screen_name": "think_katrina", "time": 1467700134.0, "tid": 750139356938170369, "text": "Got to Kensington Market and had fun poking into the various shops and alleys. This is\u2026 https://t.co/V5Lmp4kBPb", "created_at": "Tue Jul 05 01:28:54 +0000 2016", "klabel": 85}}, {"geometry": {"type": "Point", "coordinates": [-79.3979318, 43.6529555]}, "type": "Feature", "id": 750140911959572480, "properties": {"loc": [-79.3979318, 43.6529555], "centroid": [-79.41803420914043, 43.80293703353511], "screen_name": "tofire", "time": 1467700505.0, "tid": 750140911959572480, "text": "Medical (Unconscious) - Dundas St West @ Spadina Avenue, Toronto (2 Trucks)", "created_at": "Tue Jul 05 01:35:05 +0000 2016", "klabel": 85}}, {"geometry": {"type": "Point", "coordinates": [-79.4016662, 43.65475419]}, "type": "Feature", "id": 750143886216073216, "properties": {"loc": [-79.4016662, 43.65475419], "centroid": [-79.41803420914043, 43.80293703353511], "screen_name": "JMOODSWINGS", "time": 1467701214.0, "tid": 750143886216073216, "text": "A picture a day \u2601\ufe0f @ Kensington Market In Toronto https://t.co/MRwrkWOOqR", "created_at": "Tue Jul 05 01:46:54 +0000 2016", "klabel": 85}}, {"geometry": {"type": "Point", "coordinates": [-79.40726635, 43.65198152]}, "type": "Feature", "id": 750152418093047808, "properties": {"loc": [-79.40726635, 43.65198152], "centroid": [-79.41803420914043, 43.80293703353511], "screen_name": "BentRestaurant", "time": 1467703248.0, "tid": 750152418093047808, "text": "An edamame mountain for prep #summerlicious #summerliciouswithsusur #bentrestaurant #susurlee\u2026 https://t.co/unBEOjHV0S", "created_at": "Tue Jul 05 02:20:48 +0000 2016", "klabel": 85}}, {"geometry": {"type": "Point", "coordinates": [-79.39686, 43.65892]}, "type": "Feature", "id": 750175001865707520, "properties": {"loc": [-79.39686, 43.65892], "centroid": [-79.41803420914043, 43.80293703353511], "screen_name": "alex_maitland", "time": 1467708632.0, "tid": 750175001865707520, "text": "Late night pick up @ Robert Gill Theater https://t.co/zpNTIvYAVO", "created_at": "Tue Jul 05 03:50:32 +0000 2016", "klabel": 85}}, {"geometry": {"type": "Point", "coordinates": [-79.401764, 43.6538759]}, "type": "Feature", "id": 750205332555694081, "properties": {"loc": [-79.401764, 43.6538759], "centroid": [-79.41803420914043, 43.80293703353511], "screen_name": "tpscalls", "time": 1467715864.0, "tid": 750205332555694081, "text": "Noise Complaint | Ln W Augusta S Queen &amp; Denison Ave [14 Div.] 07/05 01:46 #Downtown #Toronto", "created_at": "Tue Jul 05 05:51:04 +0000 2016", "klabel": 85}}, {"geometry": {"type": "Point", "coordinates": [-79.4011735, 43.660198]}, "type": "Feature", "id": 750282582865182720, "properties": {"loc": [-79.4011735, 43.660198], "centroid": [-79.41803420914043, 43.80293703353511], "screen_name": "tpscalls", "time": 1467734281.0, "tid": 750282582865182720, "text": "Assault Just Occurred | Ln N College E Spadina &amp; Spadina Cres [14 Div.] 07/05 06:53 #Downtown #Toronto", "created_at": "Tue Jul 05 10:58:01 +0000 2016", "klabel": 85}}, {"geometry": {"type": "Point", "coordinates": [-79.4011735, 43.660198]}, "type": "Feature", "id": 750308253788205056, "properties": {"loc": [-79.4011735, 43.660198], "centroid": [-79.41803420914043, 43.80293703353511], "screen_name": "tpscalls", "time": 1467740402.0, "tid": 750308253788205056, "text": "Assault Just Occurred | Ln N College E Spadina &amp; Spadina Cres [14 Div.] 07/05 08:33 #Downtown #Toronto", "created_at": "Tue Jul 05 12:40:02 +0000 2016", "klabel": 85}}, {"geometry": {"type": "Point", "coordinates": [-79.40067778, 43.65477222]}, "type": "Feature", "id": 750315044815179776, "properties": {"loc": [-79.40067778, 43.65477222], "centroid": [-79.41803420914043, 43.80293703353511], "screen_name": "think_katrina", "time": 1467742021.0, "tid": 750315044815179776, "text": "Street art on the side of a business at Kensington Market. #ihavethisthingwithbikes #bike\u2026 https://t.co/VNNRVi6lor", "created_at": "Tue Jul 05 13:07:01 +0000 2016", "klabel": 85}}, {"geometry": {"type": "Point", "coordinates": [-79.40067778, 43.65477222]}, "type": "Feature", "id": 750316481020387328, "properties": {"loc": [-79.40067778, 43.65477222], "centroid": [-79.41803420914043, 43.80293703353511], "screen_name": "think_katrina", "time": 1467742363.0, "tid": 750316481020387328, "text": "Street art and street life at Kensington Market. #streetart #streetlife #publiclife #publicspace\u2026 https://t.co/iAs0LliIDL", "created_at": "Tue Jul 05 13:12:43 +0000 2016", "klabel": 85}}, {"geometry": {"type": "Point", "coordinates": [-79.4005051, 43.650203]}, "type": "Feature", "id": 750328389333053441, "properties": {"loc": [-79.4005051, 43.650203], "centroid": [-79.41803420914043, 43.80293703353511], "screen_name": "tpscalls", "time": 1467745203.0, "tid": 750328389333053441, "text": "See Ambulance | Augusta Sq &amp; Ln S Grange W Augusta [14 Div.] 07/05 09:54 #Downtown #Toronto", "created_at": "Tue Jul 05 14:00:03 +0000 2016", "klabel": 85}}, {"geometry": {"type": "Point", "coordinates": [-79.39702, 43.65138]}, "type": "Feature", "id": 750349105185099776, "properties": {"loc": [-79.39702, 43.65138], "centroid": [-79.41803420914043, 43.80293703353511], "screen_name": "CutiePieCo", "time": 1467750142.0, "tid": 750349105185099776, "text": "Today is a good day... Introducing the Unicorn IceCreamPie! \ud83e\udd84\ud83c\udf66 $4 DOLLAR Sundaes &amp; $2 Cones ALL\u2026 https://t.co/HjLHVeI0ni", "created_at": "Tue Jul 05 15:22:22 +0000 2016", "klabel": 85}}, {"geometry": {"type": "Point", "coordinates": [-79.4023046, 43.6552364]}, "type": "Feature", "id": 750355567831638016, "properties": {"loc": [-79.4023046, 43.6552364], "centroid": [-79.41803420914043, 43.80293703353511], "screen_name": "tpscalls", "time": 1467751682.0, "tid": 750355567831638016, "text": "Theft Just Occurred | St Andrew St &amp; Nassau St [52 Div.] 07/05 11:44 #Downtown #Toronto", "created_at": "Tue Jul 05 15:48:02 +0000 2016", "klabel": 85}}, {"geometry": {"type": "Point", "coordinates": [-79.40037, 43.65475]}, "type": "Feature", "id": 750357399010217984, "properties": {"loc": [-79.40037, 43.65475], "centroid": [-79.41803420914043, 43.80293703353511], "screen_name": "liptuous", "time": 1467752119.0, "tid": 750357399010217984, "text": "It's going down TOMORROW #Toronto! We got a special going on for #nationalfriedchickenday \ud83c\udf57 that\u2026 https://t.co/xWc1Q3hqAQ", "created_at": "Tue Jul 05 15:55:19 +0000 2016", "klabel": 85}}, {"geometry": {"type": "Point", "coordinates": [-79.39793906, 43.6531937]}, "type": "Feature", "id": 750362215513927682, "properties": {"loc": [-79.39793906, 43.6531937], "centroid": [-79.41803420914043, 43.80293703353511], "screen_name": "tvpuz", "time": 1467753267.0, "tid": 750362215513927682, "text": "The fragments of Toronto #canada #toronto #ontario #wallsoftoronto #graffiti #pic #wall #\u0442\u043e\u0440\u043e\u043d\u0442\u043e\u2026 https://t.co/hWvPfYyO9t", "created_at": "Tue Jul 05 16:14:27 +0000 2016", "klabel": 85}}, {"geometry": {"type": "Point", "coordinates": [-79.39778, 43.65314]}, "type": "Feature", "id": 750366652487786497, "properties": {"loc": [-79.39778, 43.65314], "centroid": [-79.41803420914043, 43.80293703353511], "screen_name": "mjwhigginson", "time": 1467754325.0, "tid": 750366652487786497, "text": "Shooting 101. \ud83d\udcf8 @ Multiple Sclerosis Society of Canada https://t.co/6FGhqZPKdN", "created_at": "Tue Jul 05 16:32:05 +0000 2016", "klabel": 85}}, {"geometry": {"type": "Point", "coordinates": [-79.39793906, 43.6531937]}, "type": "Feature", "id": 750368699220041728, "properties": {"loc": [-79.39793906, 43.6531937], "centroid": [-79.41803420914043, 43.80293703353511], "screen_name": "tvpuz", "time": 1467754813.0, "tid": 750368699220041728, "text": "Fragments of Toronto, part II #streetart #\u0441\u0442\u0440\u0438\u0442\u0430\u0440\u0442 #\u0433\u0440\u0430\u0444\u0444\u0438\u0442\u0438 #\u0442\u043e\u0440\u043e\u043d\u0442\u043e\u0434\u043b\u044f\u0447\u0430\u0439\u043d\u0438\u043a\u043e\u0432 #\u0442\u043e\u0440\u043e\u043d\u0442\u043e #pic\u2026 https://t.co/7FJghv4HH9", "created_at": "Tue Jul 05 16:40:13 +0000 2016", "klabel": 85}}, {"geometry": {"type": "Point", "coordinates": [-79.39684155, 43.65901247]}, "type": "Feature", "id": 750369482149855232, "properties": {"loc": [-79.39684155, 43.65901247], "centroid": [-79.41803420914043, 43.80293703353511], "screen_name": "carbonpapers", "time": 1467755000.0, "tid": 750369482149855232, "text": "I'm at U of T Book Store - @bell_mobility in Toronto, ON https://t.co/VzSkHXLt3i", "created_at": "Tue Jul 05 16:43:20 +0000 2016", "klabel": 85}}, {"geometry": {"type": "Point", "coordinates": [-79.4016662, 43.65475419]}, "type": "Feature", "id": 750371234202791936, "properties": {"loc": [-79.4016662, 43.65475419], "centroid": [-79.41803420914043, 43.80293703353511], "screen_name": "TeddyMakwa", "time": 1467755418.0, "tid": 750371234202791936, "text": "Bacon Nation now in Kensington MKT. @ Kensington Market In Toronto https://t.co/j9pwqmRQgw", "created_at": "Tue Jul 05 16:50:18 +0000 2016", "klabel": 85}}, {"geometry": {"type": "Point", "coordinates": [-79.4026485, 43.6560896]}, "type": "Feature", "id": 750376961827074048, "properties": {"loc": [-79.4026485, 43.6560896], "centroid": [-79.41803420914043, 43.80293703353511], "screen_name": "tpscalls", "time": 1467756783.0, "tid": 750376961827074048, "text": "Unknown Trouble | Oxford St &amp; College St [14 Div.] 07/05 13:07 #Downtown #Toronto", "created_at": "Tue Jul 05 17:13:03 +0000 2016", "klabel": 85}}, {"geometry": {"type": "Point", "coordinates": [-79.3936992, 43.6516507]}, "type": "Feature", "id": 750382746518822912, "properties": {"loc": [-79.3936992, 43.6516507], "centroid": [-79.41803420914043, 43.80293703353511], "screen_name": "tpscalls", "time": 1467758162.0, "tid": 750382746518822912, "text": "See Ambulance | Sullivan St &amp; Grange Ave [52 Div.] 07/05 13:30 #Downtown #Toronto", "created_at": "Tue Jul 05 17:36:02 +0000 2016", "klabel": 85}}, {"geometry": {"type": "Point", "coordinates": [-79.4011735, 43.660198]}, "type": "Feature", "id": 750383752447160320, "properties": {"loc": [-79.4011735, 43.660198], "centroid": [-79.41803420914043, 43.80293703353511], "screen_name": "tpscalls", "time": 1467758402.0, "tid": 750383752447160320, "text": "Disorderlies | Ln N College E Spadina &amp; Spadina Cres [14 Div.] 07/05 13:35 #Downtown #Toronto", "created_at": "Tue Jul 05 17:40:02 +0000 2016", "klabel": 85}}, {"geometry": {"type": "Point", "coordinates": [-79.40301, 43.65632]}, "type": "Feature", "id": 750386934388658177, "properties": {"loc": [-79.40301, 43.65632], "centroid": [-79.41803420914043, 43.80293703353511], "screen_name": "coffeestirsyou", "time": 1467759161.0, "tid": 750386934388658177, "text": "I've had dreams about you. #haloumicheese #couscoussalad #ottosdoner\u2026 https://t.co/aUwqsiVG7C", "created_at": "Tue Jul 05 17:52:41 +0000 2016", "klabel": 85}}, {"geometry": {"type": "Point", "coordinates": [-79.39419, 43.65881]}, "type": "Feature", "id": 750389205189005314, "properties": {"loc": [-79.39419, 43.65881], "centroid": [-79.41803420914043, 43.80293703353511], "screen_name": "qingaling_", "time": 1467759702.0, "tid": 750389205189005314, "text": "First time trying a black burger bun \ud83d\ude32 ...and it tasted like a regular bun lol. \ud83c\udf54 @ Teara Lab https://t.co/G4Rf48kDEQ", "created_at": "Tue Jul 05 18:01:42 +0000 2016", "klabel": 85}}, {"geometry": {"type": "Point", "coordinates": [-79.39699, 43.64967]}, "type": "Feature", "id": 751213687336161281, "properties": {"loc": [-79.39699, 43.64967], "centroid": [-79.41803420914043, 43.80293703353511], "screen_name": "KCLClife", "time": 1467956274.0, "tid": 751213687336161281, "text": "#DESTINYCALLS Just under 24hrs to go until the 2016 Destiny Conference kicks off. You do not\u2026 https://t.co/CmGPa1W8U6", "created_at": "Fri Jul 08 00:37:54 +0000 2016", "klabel": 85}}, {"geometry": {"type": "Point", "coordinates": [-79.4016662, 43.65475419]}, "type": "Feature", "id": 751215501959843840, "properties": {"loc": [-79.4016662, 43.65475419], "centroid": [-79.41803420914043, 43.80293703353511], "screen_name": "afosmusic", "time": 1467956707.0, "tid": 751215501959843840, "text": "At the @supermkttoronto ready to rip a nice ripe rhyme.  On at 945, then @funnyfunkband closes\u2026 https://t.co/2uWVgakWRq", "created_at": "Fri Jul 08 00:45:07 +0000 2016", "klabel": 85}}, {"geometry": {"type": "Point", "coordinates": [-79.39793906, 43.6531937]}, "type": "Feature", "id": 751222288490631168, "properties": {"loc": [-79.39793906, 43.6531937], "centroid": [-79.41803420914043, 43.80293703353511], "screen_name": "JessWattCanada", "time": 1467958325.0, "tid": 751222288490631168, "text": "Dragon-spotting in the alleyways of #Chinatown #toronto       #streetarteverywhere #alleyways @\u2026 https://t.co/ezOeocpeI6", "created_at": "Fri Jul 08 01:12:05 +0000 2016", "klabel": 85}}, {"geometry": {"type": "Point", "coordinates": [-79.399892, 43.652811]}, "type": "Feature", "id": 751634877347487744, "properties": {"loc": [-79.399892, 43.652811], "centroid": [-79.41803420914043, 43.80293703353511], "screen_name": "lafuanoel", "time": 1468056694.0, "tid": 751634877347487744, "text": "Guess who's back. After a month (@ El Rey in Toronto, ON) https://t.co/0LyX9ge4CZ", "created_at": "Sat Jul 09 04:31:34 +0000 2016", "klabel": 85}}, {"geometry": {"type": "Point", "coordinates": [-79.3976316, 43.6521646]}, "type": "Feature", "id": 751647334598078464, "properties": {"loc": [-79.3976316, 43.6521646], "centroid": [-79.41803420914043, 43.80293703353511], "screen_name": "tpscalls", "time": 1468059664.0, "tid": 751647334598078464, "text": "Drunk | Peter St &amp; Spadina Ave [SESU3] 07/09 01:16 #Downtown #Toronto", "created_at": "Sat Jul 09 05:21:04 +0000 2016", "klabel": 85}}, {"geometry": {"type": "Point", "coordinates": [-79.4077134, 43.6564629]}, "type": "Feature", "id": 751675519012339712, "properties": {"loc": [-79.4077134, 43.6564629], "centroid": [-79.41803420914043, 43.80293703353511], "screen_name": "tpscalls", "time": 1468066383.0, "tid": 751675519012339712, "text": "Person With A Knife | College St &amp; Bathurst St [14 Div.] 07/09 03:08 #Downtown #Toronto", "created_at": "Sat Jul 09 07:13:03 +0000 2016", "klabel": 85}}, {"geometry": {"type": "Point", "coordinates": [-79.402043, 43.654512]}, "type": "Feature", "id": 751681554531905536, "properties": {"loc": [-79.402043, 43.654512], "centroid": [-79.41803420914043, 43.80293703353511], "screen_name": "tpscalls", "time": 1468067822.0, "tid": 751681554531905536, "text": "Person With A Gun | Augusta Ave &amp; Baldwin St [14 Div.] 07/09 03:32 #Downtown #Toronto", "created_at": "Sat Jul 09 07:37:02 +0000 2016", "klabel": 85}}, {"geometry": {"type": "Point", "coordinates": [-79.396284, 43.6567244]}, "type": "Feature", "id": 751697410330595328, "properties": {"loc": [-79.396284, 43.6567244], "centroid": [-79.41803420914043, 43.80293703353511], "screen_name": "tpscalls", "time": 1468071603.0, "tid": 751697410330595328, "text": "See Ambulance | Ln N Baldwin W Mc Caul &amp; Cecil St [52 Div.] 07/09 04:33 #Downtown #Toronto", "created_at": "Sat Jul 09 08:40:03 +0000 2016", "klabel": 85}}, {"geometry": {"type": "Point", "coordinates": [-79.3999301, 43.6579458]}, "type": "Feature", "id": 751702444825014272, "properties": {"loc": [-79.3999301, 43.6579458], "centroid": [-79.41803420914043, 43.80293703353511], "screen_name": "tpscalls", "time": 1468072803.0, "tid": 751702444825014272, "text": "Unknown Trouble | Spadina Ave &amp; College St [52 Div.] 07/09 04:56 #Downtown #Toronto", "created_at": "Sat Jul 09 09:00:03 +0000 2016", "klabel": 85}}, {"geometry": {"type": "Point", "coordinates": [-79.3952601, 43.651291]}, "type": "Feature", "id": 751705712808562688, "properties": {"loc": [-79.3952601, 43.651291], "centroid": [-79.41803420914043, 43.80293703353511], "screen_name": "tpscalls", "time": 1468073582.0, "tid": 751705712808562688, "text": "See Ambulance | Phoebe St &amp; Sullivan St [52 Div.] 07/09 05:06 #Downtown #Toronto", "created_at": "Sat Jul 09 09:13:02 +0000 2016", "klabel": 85}}, {"geometry": {"type": "Point", "coordinates": [-79.4016662, 43.65475419]}, "type": "Feature", "id": 751734790592671744, "properties": {"loc": [-79.4016662, 43.65475419], "centroid": [-79.41803420914043, 43.80293703353511], "screen_name": "luciayague_99", "time": 1468080515.0, "tid": 751734790592671744, "text": "\ud83e\udd18\ud83c\udffc\ud83e\udd18\ud83c\udffc\ud83d\udc45 @ Kensington Market In Toronto https://t.co/YOTasWq3ky", "created_at": "Sat Jul 09 11:08:35 +0000 2016", "klabel": 85}}, {"geometry": {"type": "Point", "coordinates": [-79.40774127, 43.65638125]}, "type": "Feature", "id": 751767212990435328, "properties": {"loc": [-79.40774127, 43.65638125], "centroid": [-79.41803420914043, 43.80293703353511], "screen_name": "mochamattie", "time": 1468088245.0, "tid": 751767212990435328, "text": "Last night's dinner! \ud83d\ude0e\n\n#Nachos #Greek #Olives #DateNight #Food #Love #Toronto #Canada\u2026 https://t.co/bMN9BrKDi3", "created_at": "Sat Jul 09 13:17:25 +0000 2016", "klabel": 85}}, {"geometry": {"type": "Point", "coordinates": [-79.3954581, 43.6585297]}, "type": "Feature", "id": 751782131316068352, "properties": {"loc": [-79.3954581, 43.6585297], "centroid": [-79.41803420914043, 43.80293703353511], "screen_name": "tmj_gta_hrta", "time": 1468091802.0, "tid": 751782131316068352, "text": "See our latest 205 COLLEGE STREET, #TORONTO, ON #job and click to apply: Shift Supervisor (CA) - https://t.co/BghVIvW0RN #Hospitality", "created_at": "Sat Jul 09 14:16:42 +0000 2016", "klabel": 85}}, {"geometry": {"type": "Point", "coordinates": [-79.4001399, 43.65746]}, "type": "Feature", "id": 751786496089284608, "properties": {"loc": [-79.4001399, 43.65746], "centroid": [-79.41803420914043, 43.80293703353511], "screen_name": "ciaracooney", "time": 1468092842.0, "tid": 751786496089284608, "text": "Last night I came to a realisation that I hope you can take it #myloveforthisgirl #canada\u2026 https://t.co/q5pFGktFo5", "created_at": "Sat Jul 09 14:34:02 +0000 2016", "klabel": 85}}, {"geometry": {"type": "Point", "coordinates": [-79.4068, 43.65198]}, "type": "Feature", "id": 751807230123634688, "properties": {"loc": [-79.4068, 43.65198], "centroid": [-79.41803420914043, 43.80293703353511], "screen_name": "cassandrasucks", "time": 1468097786.0, "tid": 751807230123634688, "text": "Not last night but the night before @ Montauk https://t.co/cdILPUwYWU", "created_at": "Sat Jul 09 15:56:26 +0000 2016", "klabel": 85}}, {"geometry": {"type": "Point", "coordinates": [-79.391388, 43.6583799]}, "type": "Feature", "id": 751817203826188289, "properties": {"loc": [-79.391388, 43.6583799], "centroid": [-79.41803420914043, 43.80293703353511], "screen_name": "tpscalls", "time": 1468100164.0, "tid": 751817203826188289, "text": "See Ambulance | Ln N Baldwin W Mc Caul &amp; Orde St [52 Div.] 07/09 12:32 #Grange_Park #Toronto", "created_at": "Sat Jul 09 16:36:04 +0000 2016", "klabel": 85}}, {"geometry": {"type": "Point", "coordinates": [-79.4016662, 43.65475419]}, "type": "Feature", "id": 751822011844923392, "properties": {"loc": [-79.4016662, 43.65475419], "centroid": [-79.41803420914043, 43.80293703353511], "screen_name": "WAFLRACING", "time": 1468101310.0, "tid": 751822011844923392, "text": "Walked through what the map said was Kensington Market in Toronto last night. This place is a\u2026 https://t.co/Niw3iaNsBS", "created_at": "Sat Jul 09 16:55:10 +0000 2016", "klabel": 85}}, {"geometry": {"type": "Point", "coordinates": [-79.40774127, 43.65638125]}, "type": "Feature", "id": 751823384569188352, "properties": {"loc": [-79.40774127, 43.65638125], "centroid": [-79.41803420914043, 43.80293703353511], "screen_name": "hiighnessy", "time": 1468101637.0, "tid": 751823384569188352, "text": "\ud83d\udc80 @ Sneaky Dee's https://t.co/z0rrU1ObRT", "created_at": "Sat Jul 09 17:00:37 +0000 2016", "klabel": 85}}, {"geometry": {"type": "Point", "coordinates": [-79.398173, 43.65826]}, "type": "Feature", "id": 751827021102219264, "properties": {"loc": [-79.398173, 43.65826], "centroid": [-79.41803420914043, 43.80293703353511], "screen_name": "tofireS", "time": 1468102504.0, "tid": 751827021102219264, "text": "Medical (Chest Pains) - College St b/w Huron St / Spadina Avenue, Toronto (2 Trucks)", "created_at": "Sat Jul 09 17:15:04 +0000 2016", "klabel": 85}}, {"geometry": {"type": "Point", "coordinates": [-79.39783111, 43.65322152]}, "type": "Feature", "id": 751836000645746688, "properties": {"loc": [-79.39783111, 43.65322152], "centroid": [-79.41803420914043, 43.80293703353511], "screen_name": "celsocelante", "time": 1468104645.0, "tid": 751836000645746688, "text": "I'm at Chinatown (Toronto, ON) https://t.co/q4KHujIgFO", "created_at": "Sat Jul 09 17:50:45 +0000 2016", "klabel": 85}}, {"geometry": {"type": "Point", "coordinates": [-79.40034342, 43.65778772]}, "type": "Feature", "id": 751845431617921024, "properties": {"loc": [-79.40034342, 43.65778772], "centroid": [-79.41803420914043, 43.80293703353511], "screen_name": "celsocelante", "time": 1468106894.0, "tid": 751845431617921024, "text": "I'm at Rexall Pharma Plus (Toronto, ON) https://t.co/ZcARVTrdqP", "created_at": "Sat Jul 09 18:28:14 +0000 2016", "klabel": 85}}, {"geometry": {"type": "Point", "coordinates": [-79.4027, 43.6551]}, "type": "Feature", "id": 751850543602143232, "properties": {"loc": [-79.4027, 43.6551], "centroid": [-79.41803420914043, 43.80293703353511], "screen_name": "X24P", "time": 1468108112.0, "tid": 751850543602143232, "text": "Drinking  The Inner IPA by Blood Brothers Brewing @ Ronnie's Local 069 \u2014 https://t.co/UfsNJYmoTL", "created_at": "Sat Jul 09 18:48:32 +0000 2016", "klabel": 85}}, {"geometry": {"type": "Point", "coordinates": [-79.39278603, 43.65385406]}, "type": "Feature", "id": 751853223904964608, "properties": {"loc": [-79.39278603, 43.65385406], "centroid": [-79.41803420914043, 43.80293703353511], "screen_name": "shadesofjay", "time": 1468108751.0, "tid": 751853223904964608, "text": "I'm at Art Gallery of Ontario - @agotoronto in Toronto, ON https://t.co/vrhFe17K29", "created_at": "Sat Jul 09 18:59:11 +0000 2016", "klabel": 85}}, {"geometry": {"type": "Point", "coordinates": [-79.40126697, 43.65483375]}, "type": "Feature", "id": 751853455531184128, "properties": {"loc": [-79.40126697, 43.65483375], "centroid": [-79.41803420914043, 43.80293703353511], "screen_name": "jatchua", "time": 1468108807.0, "tid": 751853455531184128, "text": "I'm at Kensington Market in Toronto, ON https://t.co/W5Rhb0GXlJ https://t.co/bgkgJ8petk", "created_at": "Sat Jul 09 19:00:07 +0000 2016", "klabel": 85}}, {"geometry": {"type": "Point", "coordinates": [-79.40067, 43.65837]}, "type": "Feature", "id": 751857698463969280, "properties": {"loc": [-79.40067, 43.65837], "centroid": [-79.41803420914043, 43.80293703353511], "screen_name": "canyunband", "time": 1468109818.0, "tid": 751857698463969280, "text": "Last night was a hoot! Thanks to everyone who came out, kingcuddyy for having us, @lebaronsband\u2026 https://t.co/Mc0itUwv2X", "created_at": "Sat Jul 09 19:16:58 +0000 2016", "klabel": 85}}, {"geometry": {"type": "Point", "coordinates": [-79.40245987, 43.65558816]}, "type": "Feature", "id": 751862337674571776, "properties": {"loc": [-79.40245987, 43.65558816], "centroid": [-79.41803420914043, 43.80293703353511], "screen_name": "fabiozoppa", "time": 1468110924.0, "tid": 751862337674571776, "text": "I'm at @BunnersBakeShop in Toronto, Ontario https://t.co/CE9Txykubl", "created_at": "Sat Jul 09 19:35:24 +0000 2016", "klabel": 85}}, {"geometry": {"type": "Point", "coordinates": [-79.40067778, 43.65477222]}, "type": "Feature", "id": 751868513007067136, "properties": {"loc": [-79.40067778, 43.65477222], "centroid": [-79.41803420914043, 43.80293703353511], "screen_name": "fabiozoppa", "time": 1468112397.0, "tid": 751868513007067136, "text": "#cntower #toronto #kensingtonmarket #the6ix #the6 #6ixwalks @ Kensington Market https://t.co/TxOiD8pJxk", "created_at": "Sat Jul 09 19:59:57 +0000 2016", "klabel": 85}}, {"geometry": {"type": "Point", "coordinates": [-79.39706146, 43.65086795]}, "type": "Feature", "id": 751871014175375360, "properties": {"loc": [-79.39706146, 43.65086795], "centroid": [-79.41803420914043, 43.80293703353511], "screen_name": "jatchua", "time": 1468112993.0, "tid": 751871014175375360, "text": "Sonic boom has turned into a gift shop but it's still pretty rad. (@ Sonic Boom) https://t.co/2MqP0pU3m0 https://t.co/46OSkiruO2", "created_at": "Sat Jul 09 20:09:53 +0000 2016", "klabel": 85}}, {"geometry": {"type": "Point", "coordinates": [-79.40046, 43.65466]}, "type": "Feature", "id": 751871535158333440, "properties": {"loc": [-79.40046, 43.65466], "centroid": [-79.41803420914043, 43.80293703353511], "screen_name": "LuiSays", "time": 1468113117.0, "tid": 751871535158333440, "text": "If you haven't been to @sancosme_ yet, you don't know what you are missing. One of the best\u2026 https://t.co/FbomhMtKOD", "created_at": "Sat Jul 09 20:11:57 +0000 2016", "klabel": 85}}, {"geometry": {"type": "Point", "coordinates": [-79.4016662, 43.65475419]}, "type": "Feature", "id": 751877494354087936, "properties": {"loc": [-79.4016662, 43.65475419], "centroid": [-79.41803420914043, 43.80293703353511], "screen_name": "littlesparklee", "time": 1468114538.0, "tid": 751877494354087936, "text": "#graffiti #toronto #alexandriapark #love @ Kensington Market In Toronto https://t.co/IZD3x3wkx5", "created_at": "Sat Jul 09 20:35:38 +0000 2016", "klabel": 85}}, {"geometry": {"type": "Point", "coordinates": [-79.39427423, 43.64923304]}, "type": "Feature", "id": 751888549323104256, "properties": {"loc": [-79.39427423, 43.64923304], "centroid": [-79.41803420914043, 43.80293703353511], "screen_name": "justinparsons", "time": 1468117174.0, "tid": 751888549323104256, "text": "Just got home from my set at goorinbrosqueenst Thanks for the new hat! #music #acoustic\u2026 https://t.co/PRpOWU3su0", "created_at": "Sat Jul 09 21:19:34 +0000 2016", "klabel": 85}}, {"geometry": {"type": "Point", "coordinates": [-79.39454905, 43.65894695]}, "type": "Feature", "id": 751894787419148289, "properties": {"loc": [-79.39454905, 43.65894695], "centroid": [-79.41803420914043, 43.80293703353511], "screen_name": "Davehs33", "time": 1468118661.0, "tid": 751894787419148289, "text": "I'm at Prenup Pub in Toronto, Ontario https://t.co/lqWEK16c3Z", "created_at": "Sat Jul 09 21:44:21 +0000 2016", "klabel": 85}}, {"geometry": {"type": "Point", "coordinates": [-79.3939888, 43.6541674]}, "type": "Feature", "id": 751895720593068032, "properties": {"loc": [-79.3939888, 43.6541674], "centroid": [-79.41803420914043, 43.80293703353511], "screen_name": "tpscalls", "time": 1468118883.0, "tid": 751895720593068032, "text": "Holding One | John St &amp; Beverley St [52 Div.] 07/09 17:43 #Downtown #Toronto", "created_at": "Sat Jul 09 21:48:03 +0000 2016", "klabel": 85}}, {"geometry": {"type": "Point", "coordinates": [-79.4016662, 43.65475419]}, "type": "Feature", "id": 751896355300208640, "properties": {"loc": [-79.4016662, 43.65475419], "centroid": [-79.41803420914043, 43.80293703353511], "screen_name": "peterchristoff2", "time": 1468119035.0, "tid": 751896355300208640, "text": "#Repost allmightysif with repostapp\n\u30fb\u30fb\u30fb\nJust your friendly neighborhood @peterchristoff2\u2026 https://t.co/GO6rIJOGvE", "created_at": "Sat Jul 09 21:50:35 +0000 2016", "klabel": 85}}, {"geometry": {"type": "Point", "coordinates": [-79.4016662, 43.65475419]}, "type": "Feature", "id": 751898276543098880, "properties": {"loc": [-79.4016662, 43.65475419], "centroid": [-79.41803420914043, 43.80293703353511], "screen_name": "cbriscoemusic", "time": 1468119493.0, "tid": 751898276543098880, "text": "Caught in the #rain #cramky #soaked #toronto #kensingtonmarket #the6ix #rightnow #rain @\u2026 https://t.co/2XD53YplqK", "created_at": "Sat Jul 09 21:58:13 +0000 2016", "klabel": 85}}, {"geometry": {"type": "Point", "coordinates": [-79.4016662, 43.65475419]}, "type": "Feature", "id": 751905604990537728, "properties": {"loc": [-79.4016662, 43.65475419], "centroid": [-79.41803420914043, 43.80293703353511], "screen_name": "CeazaLeon", "time": 1468121240.0, "tid": 751905604990537728, "text": "Video Shoot Tings... @seseseason @Ruffpup @frankdouglasss #toronto @ Kensington Market In Toronto https://t.co/NyqdrHIzpR", "created_at": "Sat Jul 09 22:27:20 +0000 2016", "klabel": 85}}, {"geometry": {"type": "Point", "coordinates": [-79.3929, 43.65596]}, "type": "Feature", "id": 751908251252514816, "properties": {"loc": [-79.3929, 43.65596], "centroid": [-79.41803420914043, 43.80293703353511], "screen_name": "TheGreatEmu", "time": 1468121871.0, "tid": 751908251252514816, "text": "Finally got here! Long wait though, but #worthit #arcticbites\u2026 https://t.co/gpKkIkWnn7", "created_at": "Sat Jul 09 22:37:51 +0000 2016", "klabel": 85}}, {"geometry": {"type": "Point", "coordinates": [-79.39995257, 43.6574465]}, "type": "Feature", "id": 751927693596393474, "properties": {"loc": [-79.39995257, 43.6574465], "centroid": [-79.41803420914043, 43.80293703353511], "screen_name": "ceeohhelle", "time": 1468126506.0, "tid": 751927693596393474, "text": "Good vs. Evil \ud83d\ude08 #CharAdventures #\ud83c\udf7a+\ud83c\udf6a @ Castle Board Game Caf\u00e9 https://t.co/waOerBruFg", "created_at": "Sat Jul 09 23:55:06 +0000 2016", "klabel": 85}}, {"geometry": {"type": "Point", "coordinates": [-79.4017868, 43.6546211]}, "type": "Feature", "id": 751934073451327488, "properties": {"loc": [-79.4017868, 43.6546211], "centroid": [-79.41803420914043, 43.80293703353511], "screen_name": "coffeestirsyou", "time": 1468128028.0, "tid": 751934073451327488, "text": "Just can't get enough of #toronto caf\u00e9s! I've officially caffeinated\u2026 https://t.co/XLI3GJ8Lyl", "created_at": "Sun Jul 10 00:20:28 +0000 2016", "klabel": 85}}, {"geometry": {"type": "Point", "coordinates": [-79.40126697, 43.65483375]}, "type": "Feature", "id": 751940862444208128, "properties": {"loc": [-79.40126697, 43.65483375], "centroid": [-79.41803420914043, 43.80293703353511], "screen_name": "Roskcj", "time": 1468129646.0, "tid": 751940862444208128, "text": "I'm at Kensington Market in Toronto, ON https://t.co/tQOUww0GDl https://t.co/jR47C3DCV9", "created_at": "Sun Jul 10 00:47:26 +0000 2016", "klabel": 85}}, {"geometry": {"type": "Point", "coordinates": [-79.40331, 43.65684]}, "type": "Feature", "id": 751945510240415744, "properties": {"loc": [-79.40331, 43.65684], "centroid": [-79.41803420914043, 43.80293703353511], "screen_name": "bgeexx", "time": 1468130754.0, "tid": 751945510240415744, "text": "Why scoop when you can roll it ? #toronto #kensingtonmarket #frostyroll #foodporn #citymeetsgirl\u2026 https://t.co/npDL754Ux9", "created_at": "Sun Jul 10 01:05:54 +0000 2016", "klabel": 85}}, {"geometry": {"type": "Point", "coordinates": [-79.40331, 43.65684]}, "type": "Feature", "id": 751945779820933120, "properties": {"loc": [-79.40331, 43.65684], "centroid": [-79.41803420914043, 43.80293703353511], "screen_name": "bgeexx", "time": 1468130819.0, "tid": 751945779820933120, "text": "Why scoop when you can roll it ? #toronto #kensingtonmarket #frostyroll #foodporn #citymeetsgirl\u2026 https://t.co/Hjmf68YJtV", "created_at": "Sun Jul 10 01:06:59 +0000 2016", "klabel": 85}}, {"geometry": {"type": "Point", "coordinates": [-79.39558, 43.6570899]}, "type": "Feature", "id": 751949040556843009, "properties": {"loc": [-79.39558, 43.6570899], "centroid": [-79.41803420914043, 43.80293703353511], "screen_name": "let_it_bea", "time": 1468131596.0, "tid": 751949040556843009, "text": "Deepest friends for many years @ Polish Combatants' Hall (SPK) https://t.co/8SCz3jCDDO", "created_at": "Sun Jul 10 01:19:56 +0000 2016", "klabel": 85}}, {"geometry": {"type": "Point", "coordinates": [-79.395, 43.64959]}, "type": "Feature", "id": 751950907617583104, "properties": {"loc": [-79.395, 43.64959], "centroid": [-79.41803420914043, 43.80293703353511], "screen_name": "DJ_Shan", "time": 1468132041.0, "tid": 751950907617583104, "text": "Sound check! #scratch #roots @DMCCanada &amp; @pioneerdjcanada @ Rivoli https://t.co/OrCWyi6E1A", "created_at": "Sun Jul 10 01:27:21 +0000 2016", "klabel": 85}}, {"geometry": {"type": "Point", "coordinates": [-79.3977555, 43.65178768]}, "type": "Feature", "id": 751951589884080128, "properties": {"loc": [-79.3977555, 43.65178768], "centroid": [-79.41803420914043, 43.80293703353511], "screen_name": "RemusMusic", "time": 1468132204.0, "tid": 751951589884080128, "text": "Hot pot all you can eat soup \ud83d\ude1c sooooooooo  good!!!! @ Celebrity Hot Pot https://t.co/2E2aOr5RVh", "created_at": "Sun Jul 10 01:30:04 +0000 2016", "klabel": 85}}, {"geometry": {"type": "Point", "coordinates": [-79.39558, 43.6570899]}, "type": "Feature", "id": 751952607078473732, "properties": {"loc": [-79.39558, 43.6570899], "centroid": [-79.41803420914043, 43.80293703353511], "screen_name": "let_it_bea", "time": 1468132446.0, "tid": 751952607078473732, "text": "Love love love love loves @daytonabitch #hoopsandmio @ Polish Combatants' Hall (SPK) https://t.co/R7iLKiR5dy", "created_at": "Sun Jul 10 01:34:06 +0000 2016", "klabel": 85}}, {"geometry": {"type": "Point", "coordinates": [-79.39994838, 43.65279258]}, "type": "Feature", "id": 751952882170073088, "properties": {"loc": [-79.39994838, 43.65279258], "centroid": [-79.41803420914043, 43.80293703353511], "screen_name": "CliffDempster", "time": 1468132512.0, "tid": 751952882170073088, "text": "More yum @ El Rey https://t.co/DdQZexWn2Y", "created_at": "Sun Jul 10 01:35:12 +0000 2016", "klabel": 85}}, {"geometry": {"type": "Point", "coordinates": [-79.39390182, 43.64944698]}, "type": "Feature", "id": 751957046983995393, "properties": {"loc": [-79.39390182, 43.64944698], "centroid": [-79.41803420914043, 43.80293703353511], "screen_name": "ashleyjose_", "time": 1468133505.0, "tid": 751957046983995393, "text": "where did Emily go? @ CUBE https://t.co/3G2n2tMDB1", "created_at": "Sun Jul 10 01:51:45 +0000 2016", "klabel": 85}}, {"geometry": {"type": "Point", "coordinates": [-79.39390182, 43.64944698]}, "type": "Feature", "id": 751959656356917248, "properties": {"loc": [-79.39390182, 43.64944698], "centroid": [-79.41803420914043, 43.80293703353511], "screen_name": "ashleyjose_", "time": 1468134127.0, "tid": 751959656356917248, "text": "Where did Emily go? @ CUBE https://t.co/IXyOHFWnij", "created_at": "Sun Jul 10 02:02:07 +0000 2016", "klabel": 85}}, {"geometry": {"type": "Point", "coordinates": [-79.40140663, 43.65294041]}, "type": "Feature", "id": 751961333327884288, "properties": {"loc": [-79.40140663, 43.65294041], "centroid": [-79.41803420914043, 43.80293703353511], "screen_name": "serbsuperb", "time": 1468134527.0, "tid": 751961333327884288, "text": "I WANT YOU!!!\nTO GO FUNK YOURSELF!!!\nAT THE BOAT IN KENSINGTON!!! FOR FUNK OFF!!! DOORS AT 10PM!\u2026 https://t.co/6VKko43dy6", "created_at": "Sun Jul 10 02:08:47 +0000 2016", "klabel": 85}}, {"geometry": {"type": "Point", "coordinates": [-79.395, 43.64959]}, "type": "Feature", "id": 751967339516571648, "properties": {"loc": [-79.395, 43.64959], "centroid": [-79.41803420914043, 43.80293703353511], "screen_name": "DJ_Shan", "time": 1468135959.0, "tid": 751967339516571648, "text": "@DMCCanada holdin down the crowd inside @pioneerdjcanada presents the #DMC #Battleground\u2026 https://t.co/ViJlTl2H8T", "created_at": "Sun Jul 10 02:32:39 +0000 2016", "klabel": 85}}, {"geometry": {"type": "Point", "coordinates": [-79.39390182, 43.64944698]}, "type": "Feature", "id": 751975305171001344, "properties": {"loc": [-79.39390182, 43.64944698], "centroid": [-79.41803420914043, 43.80293703353511], "screen_name": "cashSEOmedia", "time": 1468137858.0, "tid": 751975305171001344, "text": "This was the \"clearest\" photo from my phone last night @cubetoronto damn that flash was bright\u2026 https://t.co/jj4IiXsTUJ", "created_at": "Sun Jul 10 03:04:18 +0000 2016", "klabel": 85}}, {"geometry": {"type": "Point", "coordinates": [-79.40025, 43.655695]}, "type": "Feature", "id": 751980828075315201, "properties": {"loc": [-79.40025, 43.655695], "centroid": [-79.41803420914043, 43.80293703353511], "screen_name": "Littlemonkey514", "time": 1468139175.0, "tid": 751980828075315201, "text": "I met this lady exactly 12 months ago... 1st date was at Bitondo's ... Today we spent the day at\u2026 https://t.co/fDgJQFb11U", "created_at": "Sun Jul 10 03:26:15 +0000 2016", "klabel": 85}}, {"geometry": {"type": "Point", "coordinates": [-79.40067778, 43.65477222]}, "type": "Feature", "id": 751983575864578050, "properties": {"loc": [-79.40067778, 43.65477222], "centroid": [-79.41803420914043, 43.80293703353511], "screen_name": "AnneJGibson", "time": 1468139830.0, "tid": 751983575864578050, "text": "#streetphotography #streetphotographer #torontostreets #blurr #movement #streetlife_award\u2026 https://t.co/q3YRd7d7tR", "created_at": "Sun Jul 10 03:37:10 +0000 2016", "klabel": 85}}, {"geometry": {"type": "Point", "coordinates": [-79.4015689, 43.6594952]}, "type": "Feature", "id": 751984057760747520, "properties": {"loc": [-79.4015689, 43.6594952], "centroid": [-79.41803420914043, 43.80293703353511], "screen_name": "tpscalls", "time": 1468139945.0, "tid": 751984057760747520, "text": "Break &amp; Enter Just Occurred | Spadina Ave &amp; Russell St [52 Div.] 07/09 23:34 #Downtown #Toronto", "created_at": "Sun Jul 10 03:39:05 +0000 2016", "klabel": 85}}, {"geometry": {"type": "Point", "coordinates": [-79.40067778, 43.65477222]}, "type": "Feature", "id": 751984831907655680, "properties": {"loc": [-79.40067778, 43.65477222], "centroid": [-79.41803420914043, 43.80293703353511], "screen_name": "AnneJGibson", "time": 1468140129.0, "tid": 751984831907655680, "text": "#movement #kensingtonmarket #streetphotographer #torontostreetphotography #torontophoto\u2026 https://t.co/X58kawPJDB", "created_at": "Sun Jul 10 03:42:09 +0000 2016", "klabel": 85}}, {"geometry": {"type": "Point", "coordinates": [-79.40067778, 43.65477222]}, "type": "Feature", "id": 751985637880893440, "properties": {"loc": [-79.40067778, 43.65477222], "centroid": [-79.41803420914043, 43.80293703353511], "screen_name": "AnneJGibson", "time": 1468140321.0, "tid": 751985637880893440, "text": "#streetphotography #streetphotographer #kensingtonmarket #torontostreetphotography #torontophoto\u2026 https://t.co/V0h5hDo1Pz", "created_at": "Sun Jul 10 03:45:21 +0000 2016", "klabel": 85}}, {"geometry": {"type": "Point", "coordinates": [-79.4016662, 43.65475419]}, "type": "Feature", "id": 751986953759911936, "properties": {"loc": [-79.4016662, 43.65475419], "centroid": [-79.41803420914043, 43.80293703353511], "screen_name": "HowlToronto", "time": 1468140635.0, "tid": 751986953759911936, "text": "DJ Krunklehorn giving us some serious serious face, and some sick as krunchy tunes! @ Kensington\u2026 https://t.co/9bR8ASzvXE", "created_at": "Sun Jul 10 03:50:35 +0000 2016", "klabel": 85}}, {"geometry": {"type": "Point", "coordinates": [-79.4016662, 43.65475419]}, "type": "Feature", "id": 752001239425150976, "properties": {"loc": [-79.4016662, 43.65475419], "centroid": [-79.41803420914043, 43.80293703353511], "screen_name": "HowlToronto", "time": 1468144041.0, "tid": 752001239425150976, "text": "DJ Dubi Hyena filling the house with some seriously awesome glitch! @ Kensington Market In Toronto https://t.co/GSQC3G7AdI", "created_at": "Sun Jul 10 04:47:21 +0000 2016", "klabel": 85}}, {"geometry": {"type": "Point", "coordinates": [-79.406476, 43.6567099]}, "type": "Feature", "id": 752018026418081792, "properties": {"loc": [-79.406476, 43.6567099], "centroid": [-79.41803420914043, 43.80293703353511], "screen_name": "tpscalls", "time": 1468148043.0, "tid": 752018026418081792, "text": "Stabbing | College St &amp; Lippincott St [14 Div.] 07/10 01:49 #Downtown #Toronto", "created_at": "Sun Jul 10 05:54:03 +0000 2016", "klabel": 85}}, {"geometry": {"type": "Point", "coordinates": [-79.4016662, 43.65475419]}, "type": "Feature", "id": 752023994056863745, "properties": {"loc": [-79.4016662, 43.65475419], "centroid": [-79.41803420914043, 43.80293703353511], "screen_name": "Fridayrickydred", "time": 1468149466.0, "tid": 752023994056863745, "text": "Thank you to all my family, friends, fam, associates. Everyone on #ig #snapchat #FB #phone\u2026 https://t.co/mnw2NeKYew", "created_at": "Sun Jul 10 06:17:46 +0000 2016", "klabel": 85}}, {"geometry": {"type": "Point", "coordinates": [-79.395, 43.64959]}, "type": "Feature", "id": 752029110411689985, "properties": {"loc": [-79.395, 43.64959], "centroid": [-79.41803420914043, 43.80293703353511], "screen_name": "Bansheee_", "time": 1468150686.0, "tid": 752029110411689985, "text": "Scratch bringin back old school vibes @DMCCanada event tonight. \n#theroots\u2026 https://t.co/SyXq4jx5cb", "created_at": "Sun Jul 10 06:38:06 +0000 2016", "klabel": 85}}, {"geometry": {"type": "Point", "coordinates": [-79.3999301, 43.6579458]}, "type": "Feature", "id": 752057283090247681, "properties": {"loc": [-79.3999301, 43.6579458], "centroid": [-79.41803420914043, 43.80293703353511], "screen_name": "tpscalls", "time": 1468157403.0, "tid": 752057283090247681, "text": "Assault In Progress | Spadina Ave &amp; College St [14 Div.] 07/10 04:26 #Downtown #Toronto", "created_at": "Sun Jul 10 08:30:03 +0000 2016", "klabel": 85}}, {"geometry": {"type": "Point", "coordinates": [-79.39558, 43.6570899]}, "type": "Feature", "id": 752057400958459909, "properties": {"loc": [-79.39558, 43.6570899], "centroid": [-79.41803420914043, 43.80293703353511], "screen_name": "Chef_Somm", "time": 1468157431.0, "tid": 752057400958459909, "text": "When you get to play #pastrychef for a bit and then run to fern 180 guests at your #bestfriends\u2026 https://t.co/6dqz83XGCE", "created_at": "Sun Jul 10 08:30:31 +0000 2016", "klabel": 85}}, {"geometry": {"type": "Point", "coordinates": [-79.39334, 43.65819]}, "type": "Feature", "id": 752132891925098496, "properties": {"loc": [-79.39334, 43.65819], "centroid": [-79.41803420914043, 43.80293703353511], "screen_name": "gigglesshitblog", "time": 1468175430.0, "tid": 752132891925098496, "text": "Second attempt at chalk art at @RMHToronto. First visit was inspired by the Maritimes and this\u2026 https://t.co/GZ8tphAjdS", "created_at": "Sun Jul 10 13:30:30 +0000 2016", "klabel": 85}}, {"geometry": {"type": "Point", "coordinates": [-79.395, 43.64959]}, "type": "Feature", "id": 752142252890206210, "properties": {"loc": [-79.395, 43.64959], "centroid": [-79.41803420914043, 43.80293703353511], "screen_name": "ScottJacksonBB", "time": 1468177661.0, "tid": 752142252890206210, "text": "Last night... @djgrouch then @freshkils then @vekked then finally @scratch215 smashed the stage\u2026 https://t.co/XINgDwNJNJ", "created_at": "Sun Jul 10 14:07:41 +0000 2016", "klabel": 85}}, {"geometry": {"type": "Point", "coordinates": [-79.40663964, 43.65689011]}, "type": "Feature", "id": 752144521471885312, "properties": {"loc": [-79.40663964, 43.65689011], "centroid": [-79.41803420914043, 43.80293703353511], "screen_name": "jackmaninov", "time": 1468178202.0, "tid": 752144521471885312, "text": "Funemployment continues with an afternoon at the Toronto Islands. (@ Aunties &amp; Uncles) https://t.co/1iiSmpFFx0 https://t.co/KsbbIWhflC", "created_at": "Sun Jul 10 14:16:42 +0000 2016", "klabel": 85}}, {"geometry": {"type": "Point", "coordinates": [-79.40045, 43.65352]}, "type": "Feature", "id": 752145500380471296, "properties": {"loc": [-79.40045, 43.65352], "centroid": [-79.41803420914043, 43.80293703353511], "screen_name": "wademuir", "time": 1468178436.0, "tid": 752145500380471296, "text": "shadow play \u2728\n\n#fika #kensington #pilotcoffee #oof #thegreatcanadiancoffeetour @ FIKA Cafe https://t.co/ItpD5AL9JP", "created_at": "Sun Jul 10 14:20:36 +0000 2016", "klabel": 85}}, {"geometry": {"type": "Point", "coordinates": [-79.40204, 43.65463]}, "type": "Feature", "id": 752148438171717632, "properties": {"loc": [-79.40204, 43.65463], "centroid": [-79.41803420914043, 43.80293703353511], "screen_name": "hotboxcafe", "time": 1468179136.0, "tid": 752148438171717632, "text": "HAPPY #710 !!!\n#dablife #sale @roachorama @hotboxcafe \ud83d\udca5\ud83d\udca8 #dabrig #dabber #enail #dab \nTODAY ONLY\u2026 https://t.co/VUxrY5AjFD", "created_at": "Sun Jul 10 14:32:16 +0000 2016", "klabel": 85}}, {"geometry": {"type": "Point", "coordinates": [-79.39178, 43.65445]}, "type": "Feature", "id": 752150143877541888, "properties": {"loc": [-79.39178, 43.65445], "centroid": [-79.41803420914043, 43.80293703353511], "screen_name": "ProvoFoodBar", "time": 1468179543.0, "tid": 752150143877541888, "text": "We'll be playing the final game of the Euro Cup on our huge projector screen. Join us and be\u2026 https://t.co/tPfFc2ZbXw", "created_at": "Sun Jul 10 14:39:03 +0000 2016", "klabel": 85}}, {"geometry": {"type": "Point", "coordinates": [-79.396938, 43.65273848]}, "type": "Feature", "id": 752161226529107970, "properties": {"loc": [-79.396938, 43.65273848], "centroid": [-79.41803420914043, 43.80293703353511], "screen_name": "calamityLDN", "time": 1468182185.0, "tid": 752161226529107970, "text": "Am watching #Wimbledon (rare!) and yes rooting for #raonic - go milos", "created_at": "Sun Jul 10 15:23:05 +0000 2016", "klabel": 85}}, {"geometry": {"type": "Point", "coordinates": [-79.40478123, 43.65181642]}, "type": "Feature", "id": 752166993604800512, "properties": {"loc": [-79.40478123, 43.65181642], "centroid": [-79.41803420914043, 43.80293703353511], "screen_name": "yyzgirl", "time": 1468183560.0, "tid": 752166993604800512, "text": "#Bicycle with #containerart #art #toronto #to #scaddingcourt @ Scadding Court Community Centre https://t.co/xW8UaLq6Rf", "created_at": "Sun Jul 10 15:46:00 +0000 2016", "klabel": 85}}, {"geometry": {"type": "Point", "coordinates": [-79.4016662, 43.65475419]}, "type": "Feature", "id": 752169412203995137, "properties": {"loc": [-79.4016662, 43.65475419], "centroid": [-79.41803420914043, 43.80293703353511], "screen_name": "ahhnoy", "time": 1468184137.0, "tid": 752169412203995137, "text": "Racking up the kms. #calfSZN @ Kensington Market In Toronto https://t.co/baPruuRaoy", "created_at": "Sun Jul 10 15:55:37 +0000 2016", "klabel": 85}}, {"geometry": {"type": "Point", "coordinates": [-79.3934699, 43.6558599]}, "type": "Feature", "id": 752181013963378688, "properties": {"loc": [-79.3934699, 43.6558599], "centroid": [-79.41803420914043, 43.80293703353511], "screen_name": "courts_xoxo", "time": 1468186903.0, "tid": 752181013963378688, "text": "Fried Chicken + Ube Waffles @platitotoronto   \ud83c\udf57\ud83d\udc9c #foodporn #brunching #yummy #torontoeats\u2026 https://t.co/Dtioa4yKAM", "created_at": "Sun Jul 10 16:41:43 +0000 2016", "klabel": 85}}, {"geometry": {"type": "Point", "coordinates": [-79.4007969, 43.6547214]}, "type": "Feature", "id": 752187737411760128, "properties": {"loc": [-79.4007969, 43.6547214], "centroid": [-79.41803420914043, 43.80293703353511], "screen_name": "ronjobs_5", "time": 1468188506.0, "tid": 752187737411760128, "text": "Breakfast over everything!", "created_at": "Sun Jul 10 17:08:26 +0000 2016", "klabel": 85}}, {"geometry": {"type": "Point", "coordinates": [-79.40774127, 43.65638125]}, "type": "Feature", "id": 752190094686248961, "properties": {"loc": [-79.40774127, 43.65638125], "centroid": [-79.41803420914043, 43.80293703353511], "screen_name": "iamaustinmajor", "time": 1468189068.0, "tid": 752190094686248961, "text": "Got caught snap chatting LOL... @ Sneaky Dee's https://t.co/NSLG50ognv", "created_at": "Sun Jul 10 17:17:48 +0000 2016", "klabel": 85}}, {"geometry": {"type": "Point", "coordinates": [-79.40192, 43.65493]}, "type": "Feature", "id": 752196862182961152, "properties": {"loc": [-79.40192, 43.65493], "centroid": [-79.41803420914043, 43.80293703353511], "screen_name": "TeddyMakwa", "time": 1468190681.0, "tid": 752196862182961152, "text": "Finishing touch to my Rolled Icecream....last week. @ Perolas Supermarket https://t.co/si8KCAzyRt", "created_at": "Sun Jul 10 17:44:41 +0000 2016", "klabel": 85}}, {"geometry": {"type": "Point", "coordinates": [-79.4016662, 43.65475419]}, "type": "Feature", "id": 752197239670398976, "properties": {"loc": [-79.4016662, 43.65475419], "centroid": [-79.41803420914043, 43.80293703353511], "screen_name": "TeddyMakwa", "time": 1468190771.0, "tid": 752197239670398976, "text": "Now in the market... Cash only. @ Kensington Market In Toronto https://t.co/vI6rWMPwbP", "created_at": "Sun Jul 10 17:46:11 +0000 2016", "klabel": 85}}, {"geometry": {"type": "Point", "coordinates": [-79.4016662, 43.65475419]}, "type": "Feature", "id": 752200852832649216, "properties": {"loc": [-79.4016662, 43.65475419], "centroid": [-79.41803420914043, 43.80293703353511], "screen_name": "cthrn_c", "time": 1468191633.0, "tid": 752200852832649216, "text": "There's ice cream in my churro and that is A-okay. @panchosbakery never disappoints. \ud83d\udc4a\ud83c\udffc @\u2026 https://t.co/ICXXQKxE11", "created_at": "Sun Jul 10 18:00:33 +0000 2016", "klabel": 85}},