{"type": "FeatureCollection", "features": [{"geometry": {"type": "Point", "coordinates": [-79.6386312, 43.5971822]}, "type": "Feature", "id": 705075368256884736, "properties": {"loc": [-79.6386312, 43.5971822], "centroid": [-79.55391459743338, 43.79248766635344], "screen_name": "AccountempsJobs", "time": 1456956042.0, "tid": 705075368256884736, "text": "Want to work at Accountemps? We're #hiring in #Mississauga, ON! Click for details: https://t.co/XB3ddMOdM0 #Accounting #Accountemps #Job", "created_at": "Wed Mar 02 17:00:42 +0000 2016", "klabel": 8}}, {"geometry": {"type": "Point", "coordinates": [-79.6386312, 43.5971822]}, "type": "Feature", "id": 705075635832524800, "properties": {"loc": [-79.6386312, 43.5971822], "centroid": [-79.55391459743338, 43.79248766635344], "screen_name": "tmj_on_jobs", "time": 1456956105.0, "tid": 705075635832524800, "text": "#Mississauga, ON #Accounting #Job: Accounts Receivable Lead at Accountemps https://t.co/2QJtSITtUn #Jobs #Hiring #CareerArc", "created_at": "Wed Mar 02 17:01:45 +0000 2016", "klabel": 8}}, {"geometry": {"type": "Point", "coordinates": [-79.6386312, 43.5971822]}, "type": "Feature", "id": 705076665404133376, "properties": {"loc": [-79.6386312, 43.5971822], "centroid": [-79.55391459743338, 43.79248766635344], "screen_name": "AccountempsJobs", "time": 1456956351.0, "tid": 705076665404133376, "text": "Want to work in #Mississauga, ON? View our latest opening: https://t.co/Pp1LTYlPV7 #Finance #Accountemps #Job #Jobs #Hiring", "created_at": "Wed Mar 02 17:05:51 +0000 2016", "klabel": 8}}, {"geometry": {"type": "Point", "coordinates": [-79.6386312, 43.5971822]}, "type": "Feature", "id": 705078687390011395, "properties": {"loc": [-79.6386312, 43.5971822], "centroid": [-79.55391459743338, 43.79248766635344], "screen_name": "tmj_on_jobs", "time": 1456956833.0, "tid": 705078687390011395, "text": "Accountemps #Accounting #Job: Accounting Clerk (#Mississauga, ON) https://t.co/ujSPAT9cJP #Jobs #Hiring #CareerArc", "created_at": "Wed Mar 02 17:13:53 +0000 2016", "klabel": 8}}, {"geometry": {"type": "Point", "coordinates": [-79.6357917, 43.60916148]}, "type": "Feature", "id": 705128306904068097, "properties": {"loc": [-79.6357917, 43.60916148], "centroid": [-79.55391459743338, 43.79248766635344], "screen_name": "ilkercandogan", "time": 1456968663.0, "tid": 705128306904068097, "text": "Magnefico collosseo\ud83d\ude44\ud83d\ude0d\ud83c\uddee\ud83c\uddf9 @ Collosseo, Roma https://t.co/2fDMCzhDuR", "created_at": "Wed Mar 02 20:31:03 +0000 2016", "klabel": 8}}, {"geometry": {"type": "Point", "coordinates": [-79.63557398, 43.59887199]}, "type": "Feature", "id": 705140316530200576, "properties": {"loc": [-79.63557398, 43.59887199], "centroid": [-79.55391459743338, 43.79248766635344], "screen_name": "flukeperf", "time": 1456971526.0, "tid": 705140316530200576, "text": "Fuck off arsenal. Just fuck right off.", "created_at": "Wed Mar 02 21:18:46 +0000 2016", "klabel": 8}}, {"geometry": {"type": "Point", "coordinates": [-79.6315551, 43.59380104]}, "type": "Feature", "id": 705183552007229441, "properties": {"loc": [-79.6315551, 43.59380104], "centroid": [-79.55391459743338, 43.79248766635344], "screen_name": "carbonpapers", "time": 1456981835.0, "tid": 705183552007229441, "text": "I'm at Chicken Monkey Hotel https://t.co/9fBfQ5Le03", "created_at": "Thu Mar 03 00:10:35 +0000 2016", "klabel": 8}}, {"geometry": {"type": "Point", "coordinates": [-79.63336736, 43.59165105]}, "type": "Feature", "id": 705183582218752000, "properties": {"loc": [-79.63336736, 43.59165105], "centroid": [-79.55391459743338, 43.79248766635344], "screen_name": "carbonpapers", "time": 1456981842.0, "tid": 705183582218752000, "text": "I'm at M's Base Of Operations https://t.co/aYlJoF4WF4", "created_at": "Thu Mar 03 00:10:42 +0000 2016", "klabel": 8}}, {"geometry": {"type": "Point", "coordinates": [-79.6386312, 43.5971822]}, "type": "Feature", "id": 705511807578828800, "properties": {"loc": [-79.6386312, 43.5971822], "centroid": [-79.55391459743338, 43.79248766635344], "screen_name": "tmj_on_jobs", "time": 1457060097.0, "tid": 705511807578828800, "text": "#Finance #Job alert: Credit/Collections Supervisor/Manager | Robert Half Finance &amp; Accounting | #Mississauga, ON https://t.co/nQKAXkXBJj", "created_at": "Thu Mar 03 21:54:57 +0000 2016", "klabel": 8}}, {"geometry": {"type": "Point", "coordinates": [-79.6386312, 43.5971822]}, "type": "Feature", "id": 705550384668905472, "properties": {"loc": [-79.6386312, 43.5971822], "centroid": [-79.55391459743338, 43.79248766635344], "screen_name": "RHFAJobs", "time": 1457069294.0, "tid": 705550384668905472, "text": "We're #hiring! Click to apply: Staff Accountant - https://t.co/CnIfJbC2ch #Accounting #RHFAJobs #Mississauga, ON #Job #Jobs", "created_at": "Fri Mar 04 00:28:14 +0000 2016", "klabel": 8}}, {"geometry": {"type": "Point", "coordinates": [-79.6386312, 43.5971822]}, "type": "Feature", "id": 705551215216623617, "properties": {"loc": [-79.6386312, 43.5971822], "centroid": [-79.55391459743338, 43.79248766635344], "screen_name": "RHMRJobs", "time": 1457069492.0, "tid": 705551215216623617, "text": "Can you recommend anyone for this #Sales #job? https://t.co/o00s6gJDiR #RHMRJobs #Mississauga, ON #Hiring", "created_at": "Fri Mar 04 00:31:32 +0000 2016", "klabel": 8}}, {"geometry": {"type": "Point", "coordinates": [-79.62532543, 43.60120311]}, "type": "Feature", "id": 705597629653241857, "properties": {"loc": [-79.62532543, 43.60120311], "centroid": [-79.55391459743338, 43.79248766635344], "screen_name": "djgimports", "time": 1457080558.0, "tid": 705597629653241857, "text": "#sportit #fcb #nofiltertshirtco #djgimports #votegiosa #gscc2016 @ Castillo Giosa https://t.co/UXMndrH4OA", "created_at": "Fri Mar 04 03:35:58 +0000 2016", "klabel": 8}}, {"geometry": {"type": "Point", "coordinates": [-79.6197584, 43.59359358]}, "type": "Feature", "id": 705647970738286592, "properties": {"loc": [-79.6197584, 43.59359358], "centroid": [-79.55391459743338, 43.79248766635344], "screen_name": "mardck", "time": 1457092561.0, "tid": 705647970738286592, "text": "Back in the snow!!", "created_at": "Fri Mar 04 06:56:01 +0000 2016", "klabel": 8}}, {"geometry": {"type": "Point", "coordinates": [-79.6386312, 43.5971822]}, "type": "Feature", "id": 705769454831927296, "properties": {"loc": [-79.6386312, 43.5971822], "centroid": [-79.55391459743338, 43.79248766635344], "screen_name": "tmj_on_jobs", "time": 1457121525.0, "tid": 705769454831927296, "text": "See our latest #Mississauga, ON #job and click to apply: Staff Accountant - https://t.co/wG40ApSaVQ #Accounting #Hiring #CareerArc", "created_at": "Fri Mar 04 14:58:45 +0000 2016", "klabel": 8}}, {"geometry": {"type": "Point", "coordinates": [-79.6386312, 43.5971822]}, "type": "Feature", "id": 705863664830513153, "properties": {"loc": [-79.6386312, 43.5971822], "centroid": [-79.55391459743338, 43.79248766635344], "screen_name": "tmj_on_jobs", "time": 1457143986.0, "tid": 705863664830513153, "text": "#Mississauga, ON #Finance #Job: Financial Planning &amp; Analysis Manager at Robert Half Finance &amp; Accounting https://t.co/qUM6UjKbho #Jobs", "created_at": "Fri Mar 04 21:13:06 +0000 2016", "klabel": 8}}, {"geometry": {"type": "Point", "coordinates": [-79.6360765, 43.5906062]}, "type": "Feature", "id": 705866977798000640, "properties": {"loc": [-79.6360765, 43.5906062], "centroid": [-79.55391459743338, 43.79248766635344], "screen_name": "TiltedKiltJobs", "time": 1457144776.0, "tid": 705866977798000640, "text": "Kilt Girl Server, Bartender and Hostess - Tilted Kilt: (#MISSISSAUGA, ON) https://t.co/eDHbTJzjVp #Hospitality #Job https://t.co/UZnwFZqV3p", "created_at": "Fri Mar 04 21:26:16 +0000 2016", "klabel": 8}}, {"geometry": {"type": "Point", "coordinates": [-79.61977083, 43.59354037]}, "type": "Feature", "id": 705913932939182081, "properties": {"loc": [-79.61977083, 43.59354037], "centroid": [-79.55391459743338, 43.79248766635344], "screen_name": "mardck", "time": 1457155971.0, "tid": 705913932939182081, "text": "The gift of being known and understood is I am quite sure a rare thing and in particular with \"misunderstood\" people.", "created_at": "Sat Mar 05 00:32:51 +0000 2016", "klabel": 8}}, {"geometry": {"type": "Point", "coordinates": [-79.61981581, 43.59355206]}, "type": "Feature", "id": 705914722089091072, "properties": {"loc": [-79.61981581, 43.59355206], "centroid": [-79.55391459743338, 43.79248766635344], "screen_name": "mardck", "time": 1457156159.0, "tid": 705914722089091072, "text": "I believe it is possible for another soul to become a surrogate for what ever reason you may need them. They stand with you..beside you", "created_at": "Sat Mar 05 00:35:59 +0000 2016", "klabel": 8}}, {"geometry": {"type": "Point", "coordinates": [-79.6197826, 43.59355181]}, "type": "Feature", "id": 705915859567566848, "properties": {"loc": [-79.6197826, 43.59355181], "centroid": [-79.55391459743338, 43.79248766635344], "screen_name": "mardck", "time": 1457156430.0, "tid": 705915859567566848, "text": "Unconditional acceptance provides a freedom to move forward in relating on a soul level. So much of us is veiled,obscuring our transparency.", "created_at": "Sat Mar 05 00:40:30 +0000 2016", "klabel": 8}}, {"geometry": {"type": "Point", "coordinates": [-79.61968506, 43.59362055]}, "type": "Feature", "id": 705922080697483264, "properties": {"loc": [-79.61968506, 43.59362055], "centroid": [-79.55391459743338, 43.79248766635344], "screen_name": "mardck", "time": 1457157914.0, "tid": 705922080697483264, "text": "Another soul can \"guide\" you through....mysteriously...only god knows how this happens but some people just have abilities", "created_at": "Sat Mar 05 01:05:14 +0000 2016", "klabel": 8}}, {"geometry": {"type": "Point", "coordinates": [-79.61988651, 43.59362883]}, "type": "Feature", "id": 705924479667539968, "properties": {"loc": [-79.61988651, 43.59362883], "centroid": [-79.55391459743338, 43.79248766635344], "screen_name": "mardck", "time": 1457158486.0, "tid": 705924479667539968, "text": "Hippies were souls that were freed of mental baggage...with all of its fallout, that time did allow for a certain type of peace and freedom", "created_at": "Sat Mar 05 01:14:46 +0000 2016", "klabel": 8}}, {"geometry": {"type": "Point", "coordinates": [-79.61988651, 43.59362883]}, "type": "Feature", "id": 705924984619798528, "properties": {"loc": [-79.61988651, 43.59362883], "centroid": [-79.55391459743338, 43.79248766635344], "screen_name": "mardck", "time": 1457158606.0, "tid": 705924984619798528, "text": "To get hung up on rules and societal minutia, allowing it to dictate how you think and live is NOT living in freedom, but in bondage", "created_at": "Sat Mar 05 01:16:46 +0000 2016", "klabel": 8}}, {"geometry": {"type": "Point", "coordinates": [-79.61976283, 43.59360152]}, "type": "Feature", "id": 705927671075635201, "properties": {"loc": [-79.61976283, 43.59360152], "centroid": [-79.55391459743338, 43.79248766635344], "screen_name": "mardck", "time": 1457159246.0, "tid": 705927671075635201, "text": "The brazen serpent had or has the job of taking on the sting of sins. Jesus was like a brazen serpent and some people are as well I believe", "created_at": "Sat Mar 05 01:27:26 +0000 2016", "klabel": 8}}, {"geometry": {"type": "Point", "coordinates": [-79.61979023, 43.59352722]}, "type": "Feature", "id": 705933418417287169, "properties": {"loc": [-79.61979023, 43.59352722], "centroid": [-79.55391459743338, 43.79248766635344], "screen_name": "mardck", "time": 1457160617.0, "tid": 705933418417287169, "text": "The serpent on the pole,or Jesus on the healed when people looked  on it with hope faith and belief in him.It wasn't the snake, but belief", "created_at": "Sat Mar 05 01:50:17 +0000 2016", "klabel": 8}}, {"geometry": {"type": "Point", "coordinates": [-79.61982723, 43.59357566]}, "type": "Feature", "id": 705934474815643648, "properties": {"loc": [-79.61982723, 43.59357566], "centroid": [-79.55391459743338, 43.79248766635344], "screen_name": "mardck", "time": 1457160869.0, "tid": 705934474815643648, "text": "So for us..there is power in believing...it's a universal \"god\" power...part of gods universal rules underpinning everything", "created_at": "Sat Mar 05 01:54:29 +0000 2016", "klabel": 8}}, {"geometry": {"type": "Point", "coordinates": [-79.61977826, 43.59360302]}, "type": "Feature", "id": 705934972499132417, "properties": {"loc": [-79.61977826, 43.59360302], "centroid": [-79.55391459743338, 43.79248766635344], "screen_name": "mardck", "time": 1457160987.0, "tid": 705934972499132417, "text": "So as wounded healers we don't claim credit for any works, but people look to us in hope as we act in godly ways to others...we are used...", "created_at": "Sat Mar 05 01:56:27 +0000 2016", "klabel": 8}}, {"geometry": {"type": "Point", "coordinates": [-79.61985249, 43.59356276]}, "type": "Feature", "id": 705939439625904128, "properties": {"loc": [-79.61985249, 43.59356276], "centroid": [-79.55391459743338, 43.79248766635344], "screen_name": "mardck", "time": 1457162052.0, "tid": 705939439625904128, "text": "It is a counterintuitive paradox that healing can come through the most cursed thing...a snake...the venom becomes anti venom", "created_at": "Sat Mar 05 02:14:12 +0000 2016", "klabel": 8}}, {"geometry": {"type": "Point", "coordinates": [-79.61977246, 43.59355745]}, "type": "Feature", "id": 705942916972281856, "properties": {"loc": [-79.61977246, 43.59355745], "centroid": [-79.55391459743338, 43.79248766635344], "screen_name": "mardck", "time": 1457162881.0, "tid": 705942916972281856, "text": "So a problem now occurs in the interpretation of what gods work is. Jesus was quite clear, but still the central \"love\" concept is obscured", "created_at": "Sat Mar 05 02:28:01 +0000 2016", "klabel": 8}}, {"geometry": {"type": "Point", "coordinates": [-79.61977246, 43.59355745]}, "type": "Feature", "id": 705943564707098624, "properties": {"loc": [-79.61977246, 43.59355745], "centroid": [-79.55391459743338, 43.79248766635344], "screen_name": "mardck", "time": 1457163036.0, "tid": 705943564707098624, "text": "So why don't people just get out there and do good things? I guess they aren't Jesus hands and they aren't doing gods will.Too busy arguing.", "created_at": "Sat Mar 05 02:30:36 +0000 2016", "klabel": 8}}, {"geometry": {"type": "Point", "coordinates": [-79.61980012, 43.59354544]}, "type": "Feature", "id": 705945206521200640, "properties": {"loc": [-79.61980012, 43.59354544], "centroid": [-79.55391459743338, 43.79248766635344], "screen_name": "mardck", "time": 1457163427.0, "tid": 705945206521200640, "text": "Ministry is the pouring out of your self and as you pour,,more gets poured in...you get tired, but not until you have done a lot of good", "created_at": "Sat Mar 05 02:37:07 +0000 2016", "klabel": 8}}, {"geometry": {"type": "Point", "coordinates": [-79.61981053, 43.5935872]}, "type": "Feature", "id": 705945492476338177, "properties": {"loc": [-79.61981053, 43.5935872], "centroid": [-79.55391459743338, 43.79248766635344], "screen_name": "mardck", "time": 1457163495.0, "tid": 705945492476338177, "text": "The concept of overflow it neat...gods love is poured into you, or you accept it, and what spills over is ministry. Doesn't happen that way", "created_at": "Sat Mar 05 02:38:15 +0000 2016", "klabel": 8}}, {"geometry": {"type": "Point", "coordinates": [-79.61978731, 43.59357272]}, "type": "Feature", "id": 705946779364282368, "properties": {"loc": [-79.61978731, 43.59357272], "centroid": [-79.55391459743338, 43.79248766635344], "screen_name": "mardck", "time": 1457163802.0, "tid": 705946779364282368, "text": "Healing is healing of the broken soul. We need others to make much of it happen..\"I need some one with a human touch\" #notspicegirls", "created_at": "Sat Mar 05 02:43:22 +0000 2016", "klabel": 8}}, {"geometry": {"type": "Point", "coordinates": [-79.61981766, 43.59357417]}, "type": "Feature", "id": 705948264219189248, "properties": {"loc": [-79.61981766, 43.59357417], "centroid": [-79.55391459743338, 43.79248766635344], "screen_name": "mardck", "time": 1457164156.0, "tid": 705948264219189248, "text": "There is a certain \"lightness\" of soul where everything but love has been stripped off. So, so few are so light as that. They are happy", "created_at": "Sat Mar 05 02:49:16 +0000 2016", "klabel": 8}}, {"geometry": {"type": "Point", "coordinates": [-79.61981766, 43.59357417]}, "type": "Feature", "id": 705948802553913346, "properties": {"loc": [-79.61981766, 43.59357417], "centroid": [-79.55391459743338, 43.79248766635344], "screen_name": "mardck", "time": 1457164285.0, "tid": 705948802553913346, "text": "It's not \"ignorance is bliss\" either because simplicity of soul allows for decisions unhindered by baggage. Transparency is a start", "created_at": "Sat Mar 05 02:51:25 +0000 2016", "klabel": 8}}, {"geometry": {"type": "Point", "coordinates": [-79.6197951, 43.59358702]}, "type": "Feature", "id": 705949464138280960, "properties": {"loc": [-79.6197951, 43.59358702], "centroid": [-79.55391459743338, 43.79248766635344], "screen_name": "mardck", "time": 1457164442.0, "tid": 705949464138280960, "text": "The Christian church????  It's always have a rough go in terms of transparency..but there is always a remnant..hope...outside unfortunately", "created_at": "Sat Mar 05 02:54:02 +0000 2016", "klabel": 8}}, {"geometry": {"type": "Point", "coordinates": [-79.61979508, 43.59358703]}, "type": "Feature", "id": 705953565278412800, "properties": {"loc": [-79.61979508, 43.59358703], "centroid": [-79.55391459743338, 43.79248766635344], "screen_name": "mardck", "time": 1457165420.0, "tid": 705953565278412800, "text": "War ships....", "created_at": "Sat Mar 05 03:10:20 +0000 2016", "klabel": 8}}, {"geometry": {"type": "Point", "coordinates": [-79.6386312, 43.5971822]}, "type": "Feature", "id": 706112447904526336, "properties": {"loc": [-79.6386312, 43.5971822], "centroid": [-79.55391459743338, 43.79248766635344], "screen_name": "tmj_on_jobs", "time": 1457203301.0, "tid": 706112447904526336, "text": "See our latest #Mississauga, ON #job and click to apply: Accounts Payable Supervisor/Manager - https://t.co/PUTui18lDn #Accounting #Hiring", "created_at": "Sat Mar 05 13:41:41 +0000 2016", "klabel": 8}}, {"geometry": {"type": "Point", "coordinates": [-79.6264592, 43.5924049]}, "type": "Feature", "id": 706147746022092800, "properties": {"loc": [-79.6264592, 43.5924049], "centroid": [-79.55391459743338, 43.79248766635344], "screen_name": "casashome", "time": 1457211716.0, "tid": 706147746022092800, "text": "@cientist_rgodoy @marcoporchile", "created_at": "Sat Mar 05 16:01:56 +0000 2016", "klabel": 8}}, {"geometry": {"type": "Point", "coordinates": [-79.6264603, 43.5924017]}, "type": "Feature", "id": 706148308692111360, "properties": {"loc": [-79.6264603, 43.5924017], "centroid": [-79.55391459743338, 43.79248766635344], "screen_name": "casashome", "time": 1457211851.0, "tid": 706148308692111360, "text": "@cientist_rgodoy @marcoporchile \nEstamos  en tiempos donde cualquiera puede decir lo q quiera, el papel aguanta mucho, y las redes tambien", "created_at": "Sat Mar 05 16:04:11 +0000 2016", "klabel": 8}}, {"geometry": {"type": "Point", "coordinates": [-79.6386312, 43.5971822]}, "type": "Feature", "id": 706163189738647552, "properties": {"loc": [-79.6386312, 43.5971822], "centroid": [-79.55391459743338, 43.79248766635344], "screen_name": "RHFAJobs", "time": 1457215398.0, "tid": 706163189738647552, "text": "This #Accounting #job might be a great fit for you: Accounts Payable Supervisor/Manager - https://t.co/Rj8Oj28uJU #Mississauga, ON #Hiring", "created_at": "Sat Mar 05 17:03:18 +0000 2016", "klabel": 8}}, {"geometry": {"type": "Point", "coordinates": [-79.62402461, 43.59694411]}, "type": "Feature", "id": 707626077003370496, "properties": {"loc": [-79.62402461, 43.59694411], "centroid": [-79.55391459743338, 43.79248766635344], "screen_name": "DeannaSolomon72", "time": 1457564178.0, "tid": 707626077003370496, "text": "My student knows what #digitalfootprint she wants to leave. Do you?\u2026 https://t.co/jKqOUopmvs", "created_at": "Wed Mar 09 17:56:18 +0000 2016", "klabel": 8}}, {"geometry": {"type": "Point", "coordinates": [-79.635122, 43.5974559]}, "type": "Feature", "id": 707630737944522758, "properties": {"loc": [-79.635122, 43.5974559], "centroid": [-79.55391459743338, 43.79248766635344], "screen_name": "TCGJobs", "time": 1457565289.0, "tid": 707630737944522758, "text": "We're #hiring! Click to apply: Web Developer - https://t.co/W1iY0Ve60d #WebDesign #TheCreativeGroup #Mississauga, ON #Job #Jobs", "created_at": "Wed Mar 09 18:14:49 +0000 2016", "klabel": 8}}, {"geometry": {"type": "Point", "coordinates": [-79.63622258, 43.59104621]}, "type": "Feature", "id": 749983390779060224, "properties": {"loc": [-79.63622258, 43.59104621], "centroid": [-79.55391459743338, 43.79248766635344], "screen_name": "glamourent", "time": 1467662949.0, "tid": 749983390779060224, "text": "WE'RE BACK!!\nSunsetXSundays\nSunday July 17th 2016\nDay party 3pm - late \n&amp;Co RestoBar | 295\u2026 https://t.co/bE77zuHShc", "created_at": "Mon Jul 04 15:09:09 +0000 2016", "klabel": 8}}, {"geometry": {"type": "Point", "coordinates": [-79.6386312, 43.5971822]}, "type": "Feature", "id": 750021441270128641, "properties": {"loc": [-79.6386312, 43.5971822], "centroid": [-79.55391459743338, 43.79248766635344], "screen_name": "tmj_on_jobs", "time": 1467672020.0, "tid": 750021441270128641, "text": "If you're a #Accounting professional in #Mississauga, ON, check out this #job: https://t.co/hSJoFtpYSy #Hiring #CareerArc", "created_at": "Mon Jul 04 17:40:20 +0000 2016", "klabel": 8}}, {"geometry": {"type": "Point", "coordinates": [-79.6386312, 43.5971822]}, "type": "Feature", "id": 750052178857897984, "properties": {"loc": [-79.6386312, 43.5971822], "centroid": [-79.55391459743338, 43.79248766635344], "screen_name": "RHMRJobs", "time": 1467679349.0, "tid": 750052178857897984, "text": "Robert Half Management Resources #Accounting #Job: Corporate Controller (#Mississauga, ON) https://t.co/qYJtdOyuJ1 #RHMRJobs #Jobs #Hiring", "created_at": "Mon Jul 04 19:42:29 +0000 2016", "klabel": 8}}, {"geometry": {"type": "Point", "coordinates": [-79.6332, 43.5902]}, "type": "Feature", "id": 750075464119640064, "properties": {"loc": [-79.6332, 43.5902], "centroid": [-79.55391459743338, 43.79248766635344], "screen_name": "AlsFastball", "time": 1467684901.0, "tid": 750075464119640064, "text": "I'm at 55 Elm Dr. West in Mississauga, Ontario https://t.co/vQ83R4gZxQ", "created_at": "Mon Jul 04 21:15:01 +0000 2016", "klabel": 8}}, {"geometry": {"type": "Point", "coordinates": [-79.6233362, 43.5824822]}, "type": "Feature", "id": 750078047181615104, "properties": {"loc": [-79.6233362, 43.5824822], "centroid": [-79.55391459743338, 43.79248766635344], "screen_name": "KingSolomon394", "time": 1467685516.0, "tid": 750078047181615104, "text": "It's The Fourth Of July! Why Am I Sad? https://t.co/Y55zkBT9jW", "created_at": "Mon Jul 04 21:25:16 +0000 2016", "klabel": 8}}, {"geometry": {"type": "Point", "coordinates": [-79.634, 43.595]}, "type": "Feature", "id": 750086380466868224, "properties": {"loc": [-79.634, 43.595], "centroid": [-79.55391459743338, 43.79248766635344], "screen_name": "sandygoraya", "time": 1467687503.0, "tid": 750086380466868224, "text": "Just posted a photo @ Absolute World https://t.co/4y75ulFEX7", "created_at": "Mon Jul 04 21:58:23 +0000 2016", "klabel": 8}}, {"geometry": {"type": "Point", "coordinates": [-79.60749817, 43.58472061]}, "type": "Feature", "id": 750115745497919488, "properties": {"loc": [-79.60749817, 43.58472061], "centroid": [-79.55391459743338, 43.79248766635344], "screen_name": "dph72", "time": 1467694504.0, "tid": 750115745497919488, "text": "To nice to be inside! #cigars #cigarlife #cigarporn #cigaroftheday #cigarlifestyle #cigarnights\u2026 https://t.co/R5zLQtoTZ6", "created_at": "Mon Jul 04 23:55:04 +0000 2016", "klabel": 8}}, {"geometry": {"type": "Point", "coordinates": [-79.63511248, 43.59327005]}, "type": "Feature", "id": 750146289938132993, "properties": {"loc": [-79.63511248, 43.59327005], "centroid": [-79.55391459743338, 43.79248766635344], "screen_name": "BilalYousuf7", "time": 1467701787.0, "tid": 750146289938132993, "text": "catching fireworks @ Lakeshore-Port Credit https://t.co/9jzTwTYxDk", "created_at": "Tue Jul 05 01:56:27 +0000 2016", "klabel": 8}}, {"geometry": {"type": "Point", "coordinates": [-79.63901947, 43.59939287]}, "type": "Feature", "id": 750150091420336128, "properties": {"loc": [-79.63901947, 43.59939287], "centroid": [-79.55391459743338, 43.79248766635344], "screen_name": "djgimports", "time": 1467702693.0, "tid": 750150091420336128, "text": "#djgimports #sportit #nofiltertshirtco #travel @ Kingdom Shipp https://t.co/ucSgL1Cb6g", "created_at": "Tue Jul 05 02:11:33 +0000 2016", "klabel": 8}}, {"geometry": {"type": "Point", "coordinates": [-79.6333674, 43.582143]}, "type": "Feature", "id": 750345667172638720, "properties": {"loc": [-79.6333674, 43.582143], "centroid": [-79.55391459743338, 43.79248766635344], "screen_name": "RHFAJobs", "time": 1467749322.0, "tid": 750345667172638720, "text": "This #BusinessMgmt #job might be a great fit for you: Payroll Supervisor/Manager - https://t.co/FU6GPMuT52 #RHFAJobs #Mississauga, ON", "created_at": "Tue Jul 05 15:08:42 +0000 2016", "klabel": 8}}, {"geometry": {"type": "Point", "coordinates": [-79.6360765, 43.5906062]}, "type": "Feature", "id": 750351526992883712, "properties": {"loc": [-79.6360765, 43.5906062], "centroid": [-79.55391459743338, 43.79248766635344], "screen_name": "TiltedKiltJobs", "time": 1467750719.0, "tid": 750351526992883712, "text": "Can you recommend anyone for this #job? Kilt Girl Server, Bartender and Hostess - https://t.co/p0FrnH58sA #Hiring https://t.co/Z9d86dj0zZ", "created_at": "Tue Jul 05 15:31:59 +0000 2016", "klabel": 8}}, {"geometry": {"type": "Point", "coordinates": [-79.6386312, 43.5971822]}, "type": "Feature", "id": 750377180941602817, "properties": {"loc": [-79.6386312, 43.5971822], "centroid": [-79.55391459743338, 43.79248766635344], "screen_name": "AccountempsJobs", "time": 1467756835.0, "tid": 750377180941602817, "text": "#Accounting #Job in #Mississauga, ON: Accounts Payable Clerk at Accountemps https://t.co/FAnJiH6jzI #Accountemps #Jobs #Hiring", "created_at": "Tue Jul 05 17:13:55 +0000 2016", "klabel": 8}}, {"geometry": {"type": "Point", "coordinates": [-79.63622258, 43.59104621]}, "type": "Feature", "id": 751762268375781376, "properties": {"loc": [-79.63622258, 43.59104621], "centroid": [-79.55391459743338, 43.79248766635344], "screen_name": "PearlsnSequence", "time": 1468087066.0, "tid": 751762268375781376, "text": "Preview of verygathercole collection last night \ud83d\ude0a\n\n#designer #avantgarde #rockygathercole\u2026 https://t.co/VPFkSLtDkc", "created_at": "Sat Jul 09 12:57:46 +0000 2016", "klabel": 8}}, {"geometry": {"type": "Point", "coordinates": [-79.63901947, 43.59939287]}, "type": "Feature", "id": 751773035103944704, "properties": {"loc": [-79.63901947, 43.59939287], "centroid": [-79.55391459743338, 43.79248766635344], "screen_name": "djgimports", "time": 1468089633.0, "tid": 751773035103944704, "text": "#nofiltertshirtco #sportit #djgimports @ Kingdom Shipp https://t.co/ToDIJni7ol", "created_at": "Sat Jul 09 13:40:33 +0000 2016", "klabel": 8}}, {"geometry": {"type": "Point", "coordinates": [-79.62904174, 43.5949967]}, "type": "Feature", "id": 751795207817965568, "properties": {"loc": [-79.62904174, 43.5949967], "centroid": [-79.55391459743338, 43.79248766635344], "screen_name": "ddustin0915", "time": 1468094919.0, "tid": 751795207817965568, "text": "Canada makes a nice hat for America..\ud83c\udde8\ud83c\udde6\ud83c\udfa9 @ Mississauga City, Toronto https://t.co/BjwKgbFC4y", "created_at": "Sat Jul 09 15:08:39 +0000 2016", "klabel": 8}}, {"geometry": {"type": "Point", "coordinates": [-79.62402461, 43.59694411]}, "type": "Feature", "id": 751876567756832768, "properties": {"loc": [-79.62402461, 43.59694411], "centroid": [-79.55391459743338, 43.79248766635344], "screen_name": "Kamshuka", "time": 1468114317.0, "tid": 751876567756832768, "text": "At the Healthy Me Workshop with one of our Speaker \"Dab Blackburn\". Author, coach &amp;\u2026 https://t.co/67csB6Lbe2", "created_at": "Sat Jul 09 20:31:57 +0000 2016", "klabel": 8}}, {"geometry": {"type": "Point", "coordinates": [-79.62402461, 43.59694411]}, "type": "Feature", "id": 751882056263696384, "properties": {"loc": [-79.62402461, 43.59694411], "centroid": [-79.55391459743338, 43.79248766635344], "screen_name": "Kamshuka", "time": 1468115626.0, "tid": 751882056263696384, "text": "We are in Session \u270c\ud83c\udffd\ufe0f At the Healthy Me Workshop. \ud83d\udc9f!!! #healthyMe  #fitmom #fitness #freetrade\u2026 https://t.co/EQyv5Jtnhm", "created_at": "Sat Jul 09 20:53:46 +0000 2016", "klabel": 8}}, {"geometry": {"type": "Point", "coordinates": [-79.62402461, 43.59694411]}, "type": "Feature", "id": 751885719124242432, "properties": {"loc": [-79.62402461, 43.59694411], "centroid": [-79.55391459743338, 43.79248766635344], "screen_name": "Kamshuka", "time": 1468116499.0, "tid": 751885719124242432, "text": "We are in Session \u270c\ud83c\udffd\ufe0f At the Healthy Me Workshop. \ud83d\udc9f!!! #healthyMe  #fitmom #fitness #freetrade\u2026 https://t.co/KLdr1eNLCh", "created_at": "Sat Jul 09 21:08:19 +0000 2016", "klabel": 8}}, {"geometry": {"type": "Point", "coordinates": [-79.62904174, 43.5949967]}, "type": "Feature", "id": 751908141898534912, "properties": {"loc": [-79.62904174, 43.5949967], "centroid": [-79.55391459743338, 43.79248766635344], "screen_name": "basicats", "time": 1468121845.0, "tid": 751908141898534912, "text": "Enjoying Mississauga \u270c\ud83c\udffb\ufe0f\u26a1\ufe0f #mississauga #Canada #fashionblogger #ootd #look #blog #travel #trip\u2026 https://t.co/S8nCO5Yq0A", "created_at": "Sat Jul 09 22:37:25 +0000 2016", "klabel": 8}}, {"geometry": {"type": "Point", "coordinates": [-79.62402461, 43.59694411]}, "type": "Feature", "id": 751961840662577152, "properties": {"loc": [-79.62402461, 43.59694411], "centroid": [-79.55391459743338, 43.79248766635344], "screen_name": "Kamshuka", "time": 1468134648.0, "tid": 751961840662577152, "text": "Successful Workshop. Thank you for all your messages on Facebook, Twitter &amp; IG. If you missed\u2026 https://t.co/AfOOHGVQSZ", "created_at": "Sun Jul 10 02:10:48 +0000 2016", "klabel": 8}}, {"geometry": {"type": "Point", "coordinates": [-79.634619, 43.59547]}, "type": "Feature", "id": 752170845347385345, "properties": {"loc": [-79.634619, 43.59547], "centroid": [-79.55391459743338, 43.79248766635344], "screen_name": "HusseinYounes", "time": 1468184478.0, "tid": 752170845347385345, "text": "{ \u0648\u064e\u0645\u064e\u0627 \u0628\u0650\u0643\u064f\u0645 \u0645\u0650\u0651\u0646 \u0646\u0650\u0651\u0639\u0652\u0645\u064e\u0629\u064d \u0641\u064e\u0645\u0650\u0646\u064e \u0627\u0644\u0644\u064e\u0651\u0647 }\n#\u062d\u0633\u064a\u0646_\u064a\u0648\u0646\u0633 https://t.co/tJm0w7MVRJ", "created_at": "Sun Jul 10 16:01:18 +0000 2016", "klabel": 8}}, {"geometry": {"type": "Point", "coordinates": [-79.63622258, 43.59104621]}, "type": "Feature", "id": 752198177252581376, "properties": {"loc": [-79.63622258, 43.59104621], "centroid": [-79.55391459743338, 43.79248766635344], "screen_name": "Akindejj", "time": 1468190995.0, "tid": 752198177252581376, "text": "It was a lit night \ud83d\udd25\ud83d\udd25 @ &amp;Company Resto Bar https://t.co/RS8mjwfvvo", "created_at": "Sun Jul 10 17:49:55 +0000 2016", "klabel": 8}}, {"geometry": {"type": "Point", "coordinates": [-79.63540502, 43.59492442]}, "type": "Feature", "id": 752250944721711104, "properties": {"loc": [-79.63540502, 43.59492442], "centroid": [-79.55391459743338, 43.79248766635344], "screen_name": "A_Kavousian", "time": 1468203576.0, "tid": 752250944721711104, "text": "Real Skyscraper @ Marilyn Monroe Towers. https://t.co/GVlFSKPl6G", "created_at": "Sun Jul 10 21:19:36 +0000 2016", "klabel": 8}}, {"geometry": {"type": "Point", "coordinates": [-79.6386312, 43.5971822]}, "type": "Feature", "id": 752288562653999104, "properties": {"loc": [-79.6386312, 43.5971822], "centroid": [-79.55391459743338, 43.79248766635344], "screen_name": "RHFAJobs", "time": 1468212544.0, "tid": 752288562653999104, "text": "We're #hiring! Read about our latest #job opening here: Financial Analyst - https://t.co/B2aAUk4wVJ #RHFAJobs #Mississauga, ON", "created_at": "Sun Jul 10 23:49:04 +0000 2016", "klabel": 8}}, {"geometry": {"type": "Point", "coordinates": [-79.63622258, 43.59104621]}, "type": "Feature", "id": 752300770020716545, "properties": {"loc": [-79.63622258, 43.59104621], "centroid": [-79.55391459743338, 43.79248766635344], "screen_name": "Kadeem_Kingg", "time": 1468215455.0, "tid": 752300770020716545, "text": "Exactly one week away from this anticipated daytime event. Join us as we bring back Sunset\u2026 https://t.co/cVkOUlUyRE", "created_at": "Mon Jul 11 00:37:35 +0000 2016", "klabel": 8}}, {"geometry": {"type": "Point", "coordinates": [-79.62402461, 43.59694411]}, "type": "Feature", "id": 752515460474765313, "properties": {"loc": [-79.62402461, 43.59694411], "centroid": [-79.55391459743338, 43.79248766635344], "screen_name": "Kamshuka", "time": 1468266641.0, "tid": 752515460474765313, "text": "Speaking at the \"Healthy Me Networking Mingle\" JULY9th on how to be Fearless &amp; Fear LESS \ud83d\ude4f\ud83c\udffd\nFace\u2026 https://t.co/SngX1hOUAa", "created_at": "Mon Jul 11 14:50:41 +0000 2016", "klabel": 8}}, {"geometry": {"type": "Point", "coordinates": [-79.63529612, 43.59447966]}, "type": "Feature", "id": 752535144658067456, "properties": {"loc": [-79.63529612, 43.59447966], "centroid": [-79.55391459743338, 43.79248766635344], "screen_name": "Jacobaduh", "time": 1468271334.0, "tid": 752535144658067456, "text": "Sake tasting at the Japanese Festival in Mississauga with @ErrMurrGurrd and @thatMoonBabe!\u2026 https://t.co/09QmetqhZo", "created_at": "Mon Jul 11 16:08:54 +0000 2016", "klabel": 8}}, {"geometry": {"type": "Point", "coordinates": [-79.6352183, 43.6139841]}, "type": "Feature", "id": 752540392831287296, "properties": {"loc": [-79.6352183, 43.6139841], "centroid": [-79.55391459743338, 43.79248766635344], "screen_name": "bear_toos", "time": 1468272585.0, "tid": 752540392831287296, "text": "\ud83d\udc3bI guess that u can say that its about to get \"Dirty\" up in here!\u2026 https://t.co/GMwOMypLpe", "created_at": "Mon Jul 11 16:29:45 +0000 2016", "klabel": 8}}, {"geometry": {"type": "Point", "coordinates": [-79.63916, 43.5922]}, "type": "Feature", "id": 752543375044124672, "properties": {"loc": [-79.63916, 43.5922], "centroid": [-79.55391459743338, 43.79248766635344], "screen_name": "boweslightyear", "time": 1468273296.0, "tid": 752543375044124672, "text": "experiencing #VR first hand was revolutionary and an absolute joy. I pet a whale as it swam past\u2026 https://t.co/LscuY5h0vP", "created_at": "Mon Jul 11 16:41:36 +0000 2016", "klabel": 8}}, {"geometry": {"type": "Point", "coordinates": [-79.6386312, 43.5971822]}, "type": "Feature", "id": 752570697243693056, "properties": {"loc": [-79.6386312, 43.5971822], "centroid": [-79.55391459743338, 43.79248766635344], "screen_name": "RHMRJobs", "time": 1468279810.0, "tid": 752570697243693056, "text": "Want to work in #Mississauga, ON? View our latest opening: https://t.co/qYJtdOyuJ1 #Job #RHMRJobs #Jobs #Hiring", "created_at": "Mon Jul 11 18:30:10 +0000 2016", "klabel": 8}}, {"geometry": {"type": "Point", "coordinates": [-79.60856017, 43.58755248]}, "type": "Feature", "id": 752600318215618560, "properties": {"loc": [-79.60856017, 43.58755248], "centroid": [-79.55391459743338, 43.79248766635344], "screen_name": "supverlu", "time": 1468286873.0, "tid": 752600318215618560, "text": "I'm at P.A.T. Oriental Food Market \ud55c\uad6d\uc2dd\ud488 in Mississauga, ON https://t.co/jfYnuqPwTO", "created_at": "Mon Jul 11 20:27:53 +0000 2016", "klabel": 8}}, {"geometry": {"type": "Point", "coordinates": [-79.6352183, 43.6139841]}, "type": "Feature", "id": 752645864393437185, "properties": {"loc": [-79.6352183, 43.6139841], "centroid": [-79.55391459743338, 43.79248766635344], "screen_name": "ChrisIce93", "time": 1468297732.0, "tid": 752645864393437185, "text": "Gotta Catchem all #PokemonGo @ Mississuaga https://t.co/tc26hR37Ma", "created_at": "Mon Jul 11 23:28:52 +0000 2016", "klabel": 8}}, {"geometry": {"type": "Point", "coordinates": [-79.6170792, 43.5831304]}, "type": "Feature", "id": 752690419423731712, "properties": {"loc": [-79.6170792, 43.5831304], "centroid": [-79.55391459743338, 43.79248766635344], "screen_name": "MauriiceTheDJ", "time": 1468308354.0, "tid": 752690419423731712, "text": "About this weekend \n\n#Repost kntdbythepier (via\u2026 https://t.co/kFoBmd21Mk", "created_at": "Tue Jul 12 02:25:54 +0000 2016", "klabel": 8}}, {"geometry": {"type": "Point", "coordinates": [-79.63569, 43.59493]}, "type": "Feature", "id": 752695795711815680, "properties": {"loc": [-79.63569, 43.59493], "centroid": [-79.55391459743338, 43.79248766635344], "screen_name": "cashSEOmedia", "time": 1468309636.0, "tid": 752695795711815680, "text": "This asian guy is level 15... Da fuck? Never gonna get that gym \ud83d\ude1f #pokemongo @ Marilyn Monroe\u2026 https://t.co/JXduBBO64V", "created_at": "Tue Jul 12 02:47:16 +0000 2016", "klabel": 8}}, {"geometry": {"type": "Point", "coordinates": [-79.62904174, 43.5949967]}, "type": "Feature", "id": 752738891988234241, "properties": {"loc": [-79.62904174, 43.5949967], "centroid": [-79.55391459743338, 43.79248766635344], "screen_name": "cctvoyang", "time": 1468319911.0, "tid": 752738891988234241, "text": "Just posted a photo @ Mississauga City, Toronto https://t.co/juf5jnXFsg", "created_at": "Tue Jul 12 05:38:31 +0000 2016", "klabel": 8}}, {"geometry": {"type": "Point", "coordinates": [-79.63528376, 43.5922557]}, "type": "Feature", "id": 752831328563912704, "properties": {"loc": [-79.63528376, 43.5922557], "centroid": [-79.55391459743338, 43.79248766635344], "screen_name": "senormundial", "time": 1468341950.0, "tid": 752831328563912704, "text": "I'm at Novotel in Mississauga, ON https://t.co/6K2MKbq39Z", "created_at": "Tue Jul 12 11:45:50 +0000 2016", "klabel": 8}}, {"geometry": {"type": "Point", "coordinates": [-79.6360765, 43.5906062]}, "type": "Feature", "id": 752832422127865856, "properties": {"loc": [-79.6360765, 43.5906062], "centroid": [-79.55391459743338, 43.79248766635344], "screen_name": "tmj_gta_hrta", "time": 1468342211.0, "tid": 752832422127865856, "text": "Interested in a #job near #MISSISSAUGA, ON? This could be a great fit: https://t.co/HZgBnyJiJd #Hospitality #Hiring #CareerArc", "created_at": "Tue Jul 12 11:50:11 +0000 2016", "klabel": 8}}, {"geometry": {"type": "Point", "coordinates": [-79.6386312, 43.5971822]}, "type": "Feature", "id": 752907390685556737, "properties": {"loc": [-79.6386312, 43.5971822], "centroid": [-79.55391459743338, 43.79248766635344], "screen_name": "tmj_gta_art", "time": 1468360084.0, "tid": 752907390685556737, "text": "Join the The Creative Group team! See our latest #job opening here: https://t.co/JkTC4oyXof #Art #Mississauga, ON #Hiring #CareerArc", "created_at": "Tue Jul 12 16:48:04 +0000 2016", "klabel": 8}}, {"geometry": {"type": "Point", "coordinates": [-79.6333674, 43.582143]}, "type": "Feature", "id": 752949168046350336, "properties": {"loc": [-79.6333674, 43.582143], "centroid": [-79.55391459743338, 43.79248766635344], "screen_name": "tmj_gta_mgmt", "time": 1468370045.0, "tid": 752949168046350336, "text": "See our latest #Mississauga, ON #job and click to apply: Payroll Supervisor/Manager - https://t.co/Wtdmea7HDb #BusinessMgmt #Hiring", "created_at": "Tue Jul 12 19:34:05 +0000 2016", "klabel": 8}}, {"geometry": {"type": "Point", "coordinates": [-79.636925, 43.583374]}, "type": "Feature", "id": 752998006018961409, "properties": {"loc": [-79.636925, 43.583374], "centroid": [-79.55391459743338, 43.79248766635344], "screen_name": "supverlu", "time": 1468381689.0, "tid": 752998006018961409, "text": "I'm at Foodie North \u5317\u98df\u5ba2 in Mississauga, Ontario w/ @ytwytw https://t.co/TTdbFG5Mq8", "created_at": "Tue Jul 12 22:48:09 +0000 2016", "klabel": 8}}, {"geometry": {"type": "Point", "coordinates": [-79.6360765, 43.5906062]}, "type": "Feature", "id": 753022428377251840, "properties": {"loc": [-79.6360765, 43.5906062], "centroid": [-79.55391459743338, 43.79248766635344], "screen_name": "TiltedKiltJobs", "time": 1468387512.0, "tid": 753022428377251840, "text": "If you're looking for work in #MISSISSAUGA, ON, check out this #job: https://t.co/p0FrnH58sA #KiltGirlsRock #Hiring https://t.co/8wPvITVXSe", "created_at": "Wed Jul 13 00:25:12 +0000 2016", "klabel": 8}}, {"geometry": {"type": "Point", "coordinates": [-79.63632714, 43.59130399]}, "type": "Feature", "id": 753045559284555776, "properties": {"loc": [-79.63632714, 43.59130399], "centroid": [-79.55391459743338, 43.79248766635344], "screen_name": "smitti0", "time": 1468393026.0, "tid": 753045559284555776, "text": "And that's a wrap! Hire us to plan your next event* (*please don't. This was way too stressful)\u2026 https://t.co/PBCOXmU1bv", "created_at": "Wed Jul 13 01:57:06 +0000 2016", "klabel": 8}}, {"geometry": {"type": "Point", "coordinates": [-79.63611112, 43.58992452]}, "type": "Feature", "id": 753050014184644608, "properties": {"loc": [-79.63611112, 43.58992452], "centroid": [-79.55391459743338, 43.79248766635344], "screen_name": "CHRISNING", "time": 1468394089.0, "tid": 753050014184644608, "text": "Such a pretty prison.\n\u2022\n\u2022\n#thepark #fence #wood #dowel #hidden #underneathitall #15000 @ Kariya\u2026 https://t.co/wvYsdY9xyw", "created_at": "Wed Jul 13 02:14:49 +0000 2016", "klabel": 8}}, {"geometry": {"type": "Point", "coordinates": [-79.6150163, 43.5824599]}, "type": "Feature", "id": 753260149251379200, "properties": {"loc": [-79.6150163, 43.5824599], "centroid": [-79.55391459743338, 43.79248766635344], "screen_name": "jensword", "time": 1468444189.0, "tid": 753260149251379200, "text": "@SusenRotto @TELUS @CBC Shame on you CBC for broadcasting this blatant animal exploitation and abuse. #calgarystampede", "created_at": "Wed Jul 13 16:09:49 +0000 2016", "klabel": 8}}, {"geometry": {"type": "Point", "coordinates": [-79.63622258, 43.59104621]}, "type": "Feature", "id": 753267130301157376, "properties": {"loc": [-79.63622258, 43.59104621], "centroid": [-79.55391459743338, 43.79248766635344], "screen_name": "ColderRyan", "time": 1468445853.0, "tid": 753267130301157376, "text": "SunsetXSundays\nSunday July 17th 2016\nDay party 3pm - late \n&amp;Co RestoBar | 295 Enfield Pl \nSocial\u2026 https://t.co/p7oWBiAP3V", "created_at": "Wed Jul 13 16:37:33 +0000 2016", "klabel": 8}}, {"geometry": {"type": "Point", "coordinates": [-79.63622258, 43.59104621]}, "type": "Feature", "id": 753313778301825024, "properties": {"loc": [-79.63622258, 43.59104621], "centroid": [-79.55391459743338, 43.79248766635344], "screen_name": "djMechon", "time": 1468456975.0, "tid": 753313778301825024, "text": "Damn this weather is beautiful! We celebrate tonight inside &amp;Coooo.\u2026 https://t.co/7EJ9fNSWks", "created_at": "Wed Jul 13 19:42:55 +0000 2016", "klabel": 8}}, {"geometry": {"type": "Point", "coordinates": [-79.6386312, 43.5971822]}, "type": "Feature", "id": 753343766279270400, "properties": {"loc": [-79.6386312, 43.5971822], "centroid": [-79.55391459743338, 43.79248766635344], "screen_name": "AccountempsJobs", "time": 1468464124.0, "tid": 753343766279270400, "text": "If you're looking for work in #Mississauga, ON, check out this #job: https://t.co/FAnJiH6jzI #Accountemps #Hiring", "created_at": "Wed Jul 13 21:42:04 +0000 2016", "klabel": 8}}, {"geometry": {"type": "Point", "coordinates": [-79.6352183, 43.6139841]}, "type": "Feature", "id": 753344107511250945, "properties": {"loc": [-79.6352183, 43.6139841], "centroid": [-79.55391459743338, 43.79248766635344], "screen_name": "Manav_Maany", "time": 1468464206.0, "tid": 753344107511250945, "text": "Punjabi Wedding Starts \ud83d\ude18\n#Punjabi #wedding #canadianwedding #awesomeness #sardar #punjabiwedding\u2026 https://t.co/cONDCx5KRP", "created_at": "Wed Jul 13 21:43:26 +0000 2016", "klabel": 8}}, {"geometry": {"type": "Point", "coordinates": [-79.62417, 43.595219]}, "type": "Feature", "id": 753351769036554240, "properties": {"loc": [-79.62417, 43.595219], "centroid": [-79.55391459743338, 43.79248766635344], "screen_name": "MistressKofOs", "time": 1468466032.0, "tid": 753351769036554240, "text": "I was out running 8.01 km with #Endomondo #endorphins https://t.co/Mv7Vm73pVf", "created_at": "Wed Jul 13 22:13:52 +0000 2016", "klabel": 8}}, {"geometry": {"type": "Point", "coordinates": [-79.63622258, 43.59104621]}, "type": "Feature", "id": 753360565091831808, "properties": {"loc": [-79.63622258, 43.59104621], "centroid": [-79.55391459743338, 43.79248766635344], "screen_name": "djMechon", "time": 1468468130.0, "tid": 753360565091831808, "text": "#LatinWednesdays will be litttt tonight! We #Mechoning arrive early!\u2026 https://t.co/IZ497Njm4Q", "created_at": "Wed Jul 13 22:48:50 +0000 2016", "klabel": 8}}, {"geometry": {"type": "Point", "coordinates": [-79.62904174, 43.5949967]}, "type": "Feature", "id": 753404864324141056, "properties": {"loc": [-79.62904174, 43.5949967], "centroid": [-79.55391459743338, 43.79248766635344], "screen_name": "JacklynWyatt", "time": 1468478691.0, "tid": 753404864324141056, "text": "Haven't had much time to practice for a few months but back at it tonight! Trying to learn\u2026 https://t.co/7HIrBbxDc2", "created_at": "Thu Jul 14 01:44:51 +0000 2016", "klabel": 8}}, {"geometry": {"type": "Point", "coordinates": [-79.63901947, 43.59939287]}, "type": "Feature", "id": 753413245503930368, "properties": {"loc": [-79.63901947, 43.59939287], "centroid": [-79.55391459743338, 43.79248766635344], "screen_name": "djgimports", "time": 1468480690.0, "tid": 753413245503930368, "text": "Decisions decisions #nofiltertshirtco #sportit #djgimports @ Kingdom Shipp https://t.co/prWLohrgr6", "created_at": "Thu Jul 14 02:18:10 +0000 2016", "klabel": 8}}, {"geometry": {"type": "Point", "coordinates": [-79.61399857, 43.59043333]}, "type": "Feature", "id": 753573903398735872, "properties": {"loc": [-79.61399857, 43.59043333], "centroid": [-79.55391459743338, 43.79248766635344], "screen_name": "navidanjum", "time": 1468518993.0, "tid": 753573903398735872, "text": "Good Morning Canada &amp;\nGood Night Bangladesh @ 400 Mississauga Valley Blvd https://t.co/7PogSE8tBj", "created_at": "Thu Jul 14 12:56:33 +0000 2016", "klabel": 8}}, {"geometry": {"type": "Point", "coordinates": [-79.6359993, 43.59204]}, "type": "Feature", "id": 753605924078522369, "properties": {"loc": [-79.6359993, 43.59204], "centroid": [-79.55391459743338, 43.79248766635344], "screen_name": "RHFAJobs", "time": 1468526628.0, "tid": 753605924078522369, "text": "Interested in a #job near #Mississauga, ON? This could be a great fit: https://t.co/jrMUNFIYlk #RHFAJobs #Hiring", "created_at": "Thu Jul 14 15:03:48 +0000 2016", "klabel": 8}}, {"geometry": {"type": "Point", "coordinates": [-79.62904174, 43.5949967]}, "type": "Feature", "id": 753633235645652992, "properties": {"loc": [-79.62904174, 43.5949967], "centroid": [-79.55391459743338, 43.79248766635344], "screen_name": "MedyLandia", "time": 1468533139.0, "tid": 753633235645652992, "text": "#Repost @alxvelizmusic\n\u30fb\u30fb\u30fb\nThank you everyone that got your tickets. \nFirst show in Canada\u2026 https://t.co/jmFFlBxvGz", "created_at": "Thu Jul 14 16:52:19 +0000 2016", "klabel": 8}}, {"geometry": {"type": "Point", "coordinates": [-79.63622258, 43.59104621]}, "type": "Feature", "id": 753636784077176833, "properties": {"loc": [-79.63622258, 43.59104621], "centroid": [-79.55391459743338, 43.79248766635344], "screen_name": "anitaashleym", "time": 1468533985.0, "tid": 753636784077176833, "text": "Kaitlyn told us a funny joke \ud83d\ude0b @ &amp;Company Resto Bar https://t.co/TgDMVD9rIV", "created_at": "Thu Jul 14 17:06:25 +0000 2016", "klabel": 8}}, {"geometry": {"type": "Point", "coordinates": [-79.63622258, 43.59104621]}, "type": "Feature", "id": 753669011787907072, "properties": {"loc": [-79.63622258, 43.59104621], "centroid": [-79.55391459743338, 43.79248766635344], "screen_name": "Kadeem_Kingg", "time": 1468541669.0, "tid": 753669011787907072, "text": "THIS SUNDAY!\nFeature of the night: Chicken &amp; waffles \nCornflake crusted chicken scallopine on\u2026 https://t.co/IoLpsd4aWO", "created_at": "Thu Jul 14 19:14:29 +0000 2016", "klabel": 8}}, {"geometry": {"type": "Point", "coordinates": [-79.61399857, 43.59043333]}, "type": "Feature", "id": 753689435619942402, "properties": {"loc": [-79.61399857, 43.59043333], "centroid": [-79.55391459743338, 43.79248766635344], "screen_name": "navidanjum", "time": 1468546538.0, "tid": 753689435619942402, "text": "eyewitness of the nature\n#window @ 400 Mississauga Valley Blvd https://t.co/XzDz3vyOO5", "created_at": "Thu Jul 14 20:35:38 +0000 2016", "klabel": 8}}, {"geometry": {"type": "Point", "coordinates": [-79.6386312, 43.5971822]}, "type": "Feature", "id": 753694726381940736, "properties": {"loc": [-79.6386312, 43.5971822], "centroid": [-79.55391459743338, 43.79248766635344], "screen_name": "tmj_gta_acct", "time": 1468547800.0, "tid": 753694726381940736, "text": "We're #hiring! Read about our latest #job opening here: Accounts Payable Clerk - https://t.co/fqvNUtG0dF #Accounting #Mississauga, ON", "created_at": "Thu Jul 14 20:56:40 +0000 2016", "klabel": 8}}, {"geometry": {"type": "Point", "coordinates": [-79.6259975, 43.592463]}, "type": "Feature", "id": 753705172006604800, "properties": {"loc": [-79.6259975, 43.592463], "centroid": [-79.55391459743338, 43.79248766635344], "screen_name": "WineRackCareers", "time": 1468550290.0, "tid": 753705172006604800, "text": "Want to work at Wine Rack? We're #hiring in #Mississauga, ON! Click for details: https://t.co/UNyC5dYnEY #Job #canadajobs #Jobs", "created_at": "Thu Jul 14 21:38:10 +0000 2016", "klabel": 8}}, {"geometry": {"type": "Point", "coordinates": [-79.63622258, 43.59104621]}, "type": "Feature", "id": 753715589038739456, "properties": {"loc": [-79.63622258, 43.59104621], "centroid": [-79.55391459743338, 43.79248766635344], "screen_name": "ElieShermer", "time": 1468552774.0, "tid": 753715589038739456, "text": "SunsetxSundays\nFeature of the night: Chicken &amp; waffles \nCornflake\u2026 https://t.co/wEy8WrrIBg", "created_at": "Thu Jul 14 22:19:34 +0000 2016", "klabel": 8}}, {"geometry": {"type": "Point", "coordinates": [-79.6360765, 43.5906062]}, "type": "Feature", "id": 753728128048967680, "properties": {"loc": [-79.6360765, 43.5906062], "centroid": [-79.55391459743338, 43.79248766635344], "screen_name": "TiltedKiltJobs", "time": 1468555763.0, "tid": 753728128048967680, "text": "Interested in a #job near #MISSISSAUGA, ON? This could be a great fit: https://t.co/p0FrnH58sA #KiltGirlsRock https://t.co/t3rEmY7R6S", "created_at": "Thu Jul 14 23:09:23 +0000 2016", "klabel": 8}}, {"geometry": {"type": "Point", "coordinates": [-79.63901947, 43.59939287]}, "type": "Feature", "id": 753778781375037440, "properties": {"loc": [-79.63901947, 43.59939287], "centroid": [-79.55391459743338, 43.79248766635344], "screen_name": "djgimports", "time": 1468567840.0, "tid": 753778781375037440, "text": "#nofiltertshirtco #sportit #djgimports #nectarofthegods #lavazza #espresso #lifeisgood @ Kingdom\u2026 https://t.co/VlavPVO06X", "created_at": "Fri Jul 15 02:30:40 +0000 2016", "klabel": 8}}, {"geometry": {"type": "Point", "coordinates": [-79.63569, 43.59493]}, "type": "Feature", "id": 753835443943186432, "properties": {"loc": [-79.63569, 43.59493], "centroid": [-79.55391459743338, 43.79248766635344], "screen_name": "cashSEOmedia", "time": 1468581350.0, "tid": 753835443943186432, "text": "Daily #accountability pic number 73. \"You will not be perfect, no one is perfect but you will be\u2026 https://t.co/4QRGoIzCHa", "created_at": "Fri Jul 15 06:15:50 +0000 2016", "klabel": 8}}, {"geometry": {"type": "Point", "coordinates": [-79.6259975, 43.592463]}, "type": "Feature", "id": 753920849808269314, "properties": {"loc": [-79.6259975, 43.592463], "centroid": [-79.55391459743338, 43.79248766635344], "screen_name": "tmj_ON_retail", "time": 1468601712.0, "tid": 753920849808269314, "text": "Can you recommend anyone for this #job? Wine Merchant - https://t.co/hAP9TlWzmA #Retail #Mississauga, ON #Hiring #CareerArc", "created_at": "Fri Jul 15 11:55:12 +0000 2016", "klabel": 8}}, {"geometry": {"type": "Point", "coordinates": [-79.62904174, 43.5949967]}, "type": "Feature", "id": 753952339644612608, "properties": {"loc": [-79.62904174, 43.5949967], "centroid": [-79.55391459743338, 43.79248766635344], "screen_name": "navidanjum", "time": 1468609220.0, "tid": 753952339644612608, "text": "\u09a8\u09be\u09ae \u099c\u09be\u09a8\u09be \u09ab\u09c1\u09b2\u0964 @ Mississauga City, Toronto https://t.co/S0LCT0xgvL", "created_at": "Fri Jul 15 14:00:20 +0000 2016", "klabel": 8}}, {"geometry": {"type": "Point", "coordinates": [-79.63901947, 43.59939287]}, "type": "Feature", "id": 753956493133766656, "properties": {"loc": [-79.63901947, 43.59939287], "centroid": [-79.55391459743338, 43.79248766635344], "screen_name": "djgimports", "time": 1468610210.0, "tid": 753956493133766656, "text": "Great day to get back on the horse #lifeisgood #djgimports #sportit #nofiltertshirtco\u2026 https://t.co/s7WKfHJmcW", "created_at": "Fri Jul 15 14:16:50 +0000 2016", "klabel": 8}}, {"geometry": {"type": "Point", "coordinates": [-79.6259975, 43.592463]}, "type": "Feature", "id": 754035027134918656, "properties": {"loc": [-79.6259975, 43.592463], "centroid": [-79.55391459743338, 43.79248766635344], "screen_name": "WineRackCareers", "time": 1468628934.0, "tid": 754035027134918656, "text": "See our latest #Mississauga, ON #job and click to apply: Wine Merchant - https://t.co/kxd7vQoGXF #canadajobs #Hiring", "created_at": "Fri Jul 15 19:28:54 +0000 2016", "klabel": 8}}, {"geometry": {"type": "Point", "coordinates": [-79.6386312, 43.5971822]}, "type": "Feature", "id": 754049506207936512, "properties": {"loc": [-79.6386312, 43.5971822], "centroid": [-79.55391459743338, 43.79248766635344], "screen_name": "tmj_gta_acct", "time": 1468632386.0, "tid": 754049506207936512, "text": "Want to work in #Mississauga, ON? View our latest opening: https://t.co/zBLkpIUFQO #Job #Accounting #Jobs #Hiring #CareerArc", "created_at": "Fri Jul 15 20:26:26 +0000 2016", "klabel": 8}}, {"geometry": {"type": "Point", "coordinates": [-79.6386312, 43.5971822]}, "type": "Feature", "id": 754056776094408705, "properties": {"loc": [-79.6386312, 43.5971822], "centroid": [-79.55391459743338, 43.79248766635344], "screen_name": "tmj_gta_cstsrv", "time": 1468634119.0, "tid": 754056776094408705, "text": "We're #hiring! Click to apply: BILINGUAL FRENCH Customer Service Support TEMP TO PERM - https://t.co/Tge3WpOjIz #Job #Mississauga, ON #Jobs", "created_at": "Fri Jul 15 20:55:19 +0000 2016", "klabel": 8}}, {"geometry": {"type": "Point", "coordinates": [-79.6386312, 43.5971822]}, "type": "Feature", "id": 754061119765958657, "properties": {"loc": [-79.6386312, 43.5971822], "centroid": [-79.55391459743338, 43.79248766635344], "screen_name": "OfficeTeamJobs", "time": 1468635155.0, "tid": 754061119765958657, "text": "We're #hiring! Click to apply: Project Coordinator - Installation Long Term - https://t.co/udRSnQXQqV #Job #OfficeTeam #Mississauga, ON", "created_at": "Fri Jul 15 21:12:35 +0000 2016", "klabel": 8}}, {"geometry": {"type": "Point", "coordinates": [-79.6386312, 43.5971822]}, "type": "Feature", "id": 754064637155389440, "properties": {"loc": [-79.6386312, 43.5971822], "centroid": [-79.55391459743338, 43.79248766635344], "screen_name": "tmj_gta_acct", "time": 1468635993.0, "tid": 754064637155389440, "text": "This #job might be a great fit for you: Accounts Receivable Clerk - https://t.co/Y8oU20jMW0 #Accounting #Mississauga, ON #Hiring #CareerArc", "created_at": "Fri Jul 15 21:26:33 +0000 2016", "klabel": 8}}, {"geometry": {"type": "Point", "coordinates": [-79.6386312, 43.5971822]}, "type": "Feature", "id": 754072518386782208, "properties": {"loc": [-79.6386312, 43.5971822], "centroid": [-79.55391459743338, 43.79248766635344], "screen_name": "AccountempsJobs", "time": 1468637873.0, "tid": 754072518386782208, "text": "We're #hiring! Read about our latest #job opening here: Accounts Receivable Clerk - https://t.co/V0u0I4VTPO #Accountemps #Mississauga, ON", "created_at": "Fri Jul 15 21:57:53 +0000 2016", "klabel": 8}}, {"geometry": {"type": "Point", "coordinates": [-79.62779617, 43.58804051]}, "type": "Feature", "id": 754135923303059456, "properties": {"loc": [-79.62779617, 43.58804051], "centroid": [-79.55391459743338, 43.79248766635344], "screen_name": "AbdulSyed97", "time": 1468652989.0, "tid": 754135923303059456, "text": "\ud83c\udf2b @ Lake Shore, Mississauga https://t.co/ib9chXBvJg", "created_at": "Sat Jul 16 02:09:49 +0000 2016", "klabel": 8}}, {"geometry": {"type": "Point", "coordinates": [-79.63611112, 43.58992452]}, "type": "Feature", "id": 754150780857233408, "properties": {"loc": [-79.63611112, 43.58992452], "centroid": [-79.55391459743338, 43.79248766635344], "screen_name": "menggay_47", "time": 1468656532.0, "tid": 754150780857233408, "text": "071516 @ Kariya Park https://t.co/9Mco0JHm1m", "created_at": "Sat Jul 16 03:08:52 +0000 2016", "klabel": 8}}, {"geometry": {"type": "Point", "coordinates": [-79.63611112, 43.58992452]}, "type": "Feature", "id": 754151863998554113, "properties": {"loc": [-79.63611112, 43.58992452], "centroid": [-79.55391459743338, 43.79248766635344], "screen_name": "menggay_47", "time": 1468656790.0, "tid": 754151863998554113, "text": "071516 @ Kariya Park https://t.co/hF5Za2Tw9s", "created_at": "Sat Jul 16 03:13:10 +0000 2016", "klabel": 8}}, {"geometry": {"type": "Point", "coordinates": [-79.6386312, 43.5971822]}, "type": "Feature", "id": 754284606384316416, "properties": {"loc": [-79.6386312, 43.5971822], "centroid": [-79.55391459743338, 43.79248766635344], "screen_name": "tmj_gta_itqa", "time": 1468688438.0, "tid": 754284606384316416, "text": "Want to work at Robert Half Technology? We're #hiring in #Mississauga, ON! Click for details: https://t.co/CRqeO85n3X #Job #QA #Jobs", "created_at": "Sat Jul 16 12:00:38 +0000 2016", "klabel": 8}}, {"geometry": {"type": "Point", "coordinates": [-79.6386312, 43.5971822]}, "type": "Feature", "id": 754284961369198592, "properties": {"loc": [-79.6386312, 43.5971822], "centroid": [-79.55391459743338, 43.79248766635344], "screen_name": "tmj_gta_cler", "time": 1468688523.0, "tid": 754284961369198592, "text": "Can you recommend anyone for this #job? Project Coordinator - Installation Long Term - https://t.co/rVDCcRCyDA #Clerical #Mississauga, ON", "created_at": "Sat Jul 16 12:02:03 +0000 2016", "klabel": 8}}, {"geometry": {"type": "Point", "coordinates": [-79.6386312, 43.5971822]}, "type": "Feature", "id": 754317501987598337, "properties": {"loc": [-79.6386312, 43.5971822], "centroid": [-79.55391459743338, 43.79248766635344], "screen_name": "tmj_gta_acct", "time": 1468696281.0, "tid": 754317501987598337, "text": "We're #hiring! Read about our latest #job opening here: Sr. Accountant - https://t.co/RPsPssKygs #Accounting #Mississauga, ON #CareerArc", "created_at": "Sat Jul 16 14:11:21 +0000 2016", "klabel": 8}}, {"geometry": {"type": "Point", "coordinates": [-79.63569, 43.59493]}, "type": "Feature", "id": 754509587047264256, "properties": {"loc": [-79.63569, 43.59493], "centroid": [-79.55391459743338, 43.79248766635344], "screen_name": "cashSEOmedia", "time": 1468742078.0, "tid": 754509587047264256, "text": "posttol Be mirin that #gold #lamborghini \ud83d\ude02 @ Marilyn Monroe Buildings https://t.co/4H10nxgCBn", "created_at": "Sun Jul 17 02:54:38 +0000 2016", "klabel": 8}}, {"geometry": {"type": "Point", "coordinates": [-79.63622258, 43.59104621]}, "type": "Feature", "id": 754706108011323392, "properties": {"loc": [-79.63622258, 43.59104621], "centroid": [-79.55391459743338, 43.79248766635344], "screen_name": "CoopzKnowsBest", "time": 1468788932.0, "tid": 754706108011323392, "text": "Just posted a photo @ &amp;Company Resto Bar https://t.co/dmt1tREL6j", "created_at": "Sun Jul 17 15:55:32 +0000 2016", "klabel": 8}}, {"geometry": {"type": "Point", "coordinates": [-79.63622258, 43.59104621]}, "type": "Feature", "id": 754709736772161536, "properties": {"loc": [-79.63622258, 43.59104621], "centroid": [-79.55391459743338, 43.79248766635344], "screen_name": "_mreverywhere", "time": 1468789797.0, "tid": 754709736772161536, "text": "SUNSETXSUNDAY \nToday Is A Good Day To Party Outside Come Rock With Our Section You How We Get\u2026 https://t.co/oNY1dSQwVE", "created_at": "Sun Jul 17 16:09:57 +0000 2016", "klabel": 8}}, {"geometry": {"type": "Point", "coordinates": [-79.62405682, 43.5960262]}, "type": "Feature", "id": 754715404925370369, "properties": {"loc": [-79.62405682, 43.5960262], "centroid": [-79.55391459743338, 43.79248766635344], "screen_name": "JaylixPorter", "time": 1468791149.0, "tid": 754715404925370369, "text": "I'm at Mississauga Valley Park in Mississauga, ON https://t.co/DCRLOqADjA", "created_at": "Sun Jul 17 16:32:29 +0000 2016", "klabel": 8}}, {"geometry": {"type": "Point", "coordinates": [-79.62664182, 43.59210478]}, "type": "Feature", "id": 754725103473221632, "properties": {"loc": [-79.62664182, 43.59210478], "centroid": [-79.55391459743338, 43.79248766635344], "screen_name": "JaylixPorter", "time": 1468793461.0, "tid": 754725103473221632, "text": "I'm at Iona Plaza in Mississauga, ON https://t.co/rOlQG37kax", "created_at": "Sun Jul 17 17:11:01 +0000 2016", "klabel": 8}}, {"geometry": {"type": "Point", "coordinates": [-79.62641699, 43.59205339]}, "type": "Feature", "id": 754731851835670529, "properties": {"loc": [-79.62641699, 43.59205339], "centroid": [-79.55391459743338, 43.79248766635344], "screen_name": "JaylixPorter", "time": 1468795070.0, "tid": 754731851835670529, "text": "I'm at Forestwood in Mississauga, Ontario https://t.co/ODQVIUO9ZZ", "created_at": "Sun Jul 17 17:37:50 +0000 2016", "klabel": 8}}, {"geometry": {"type": "Point", "coordinates": [-79.62371349, 43.59708291]}, "type": "Feature", "id": 754739825241194497, "properties": {"loc": [-79.62371349, 43.59708291], "centroid": [-79.55391459743338, 43.79248766635344], "screen_name": "JaylixPorter", "time": 1468796971.0, "tid": 754739825241194497, "text": "I'm at Mississauga Valley Community Centre - @citymississauga in Mississauga, ON https://t.co/TmfIb29lAS", "created_at": "Sun Jul 17 18:09:31 +0000 2016", "klabel": 8}}, {"geometry": {"type": "Point", "coordinates": [-79.63901947, 43.59939287]}, "type": "Feature", "id": 754822654113251332, "properties": {"loc": [-79.63901947, 43.59939287], "centroid": [-79.55391459743338, 43.79248766635344], "screen_name": "djgimports", "time": 1468816719.0, "tid": 754822654113251332, "text": "Tshirts now available $25 a piece all sizes #djgimports  #nofiltertshirtco  #sportit @ Kingdom\u2026 https://t.co/TxLgceiYoW", "created_at": "Sun Jul 17 23:38:39 +0000 2016", "klabel": 8}}, {"geometry": {"type": "Point", "coordinates": [-79.63611112, 43.58992452]}, "type": "Feature", "id": 754842469058088961, "properties": {"loc": [-79.63611112, 43.58992452], "centroid": [-79.55391459743338, 43.79248766635344], "screen_name": "Joryan51", "time": 1468821443.0, "tid": 754842469058088961, "text": "Beautiful ^~* @ Kariya Park https://t.co/C7QnFNw0Yl", "created_at": "Mon Jul 18 00:57:23 +0000 2016", "klabel": 8}}, {"geometry": {"type": "Point", "coordinates": [-79.63622258, 43.59104621]}, "type": "Feature", "id": 754866248408768512, "properties": {"loc": [-79.63622258, 43.59104621], "centroid": [-79.55391459743338, 43.79248766635344], "screen_name": "austinacheson", "time": 1468827113.0, "tid": 754866248408768512, "text": "#Wolfofthe6 | Stopped by @andcorestobar earlier to show some love to dynastyaffair. Gotta\u2026 https://t.co/B9n0gXq0gM", "created_at": "Mon Jul 18 02:31:53 +0000 2016", "klabel": 8}}, {"geometry": {"type": "Point", "coordinates": [-79.63513011, 43.59241818]}, "type": "Feature", "id": 754874088665985024, "properties": {"loc": [-79.63513011, 43.59241818], "centroid": [-79.55391459743338, 43.79248766635344], "screen_name": "terryalanbrown", "time": 1468828982.0, "tid": 754874088665985024, "text": "I love these buildings. #mississauga #ontario @ Novotel Toronto Mississauga Cntr https://t.co/gdF3ChSNU9", "created_at": "Mon Jul 18 03:03:02 +0000 2016", "klabel": 8}}, {"geometry": {"type": "Point", "coordinates": [-79.63569, 43.59493]}, "type": "Feature", "id": 754876806486831104, "properties": {"loc": [-79.63569, 43.59493], "centroid": [-79.55391459743338, 43.79248766635344], "screen_name": "cashSEOmedia", "time": 1468829630.0, "tid": 754876806486831104, "text": "When the views are lit. Been time since I saw these folks! @ Marilyn Monroe Buildings https://t.co/Waw026kDzC", "created_at": "Mon Jul 18 03:13:50 +0000 2016", "klabel": 8}}, {"geometry": {"type": "Point", "coordinates": [-79.62904174, 43.5949967]}, "type": "Feature", "id": 754912474886012928, "properties": {"loc": [-79.62904174, 43.5949967], "centroid": [-79.55391459743338, 43.79248766635344], "screen_name": "mareyem1", "time": 1468838134.0, "tid": 754912474886012928, "text": "GOD has a bigger plan for me than I have for myself.. #moon\u2026 https://t.co/PXMpON18GZ", "created_at": "Mon Jul 18 05:35:34 +0000 2016", "klabel": 8}}, {"geometry": {"type": "Point", "coordinates": [-79.6259975, 43.592463]}, "type": "Feature", "id": 755008024138256384, "properties": {"loc": [-79.6259975, 43.592463], "centroid": [-79.55391459743338, 43.79248766635344], "screen_name": "tmj_ON_retail", "time": 1468860914.0, "tid": 755008024138256384, "text": "We're #hiring! Read about our latest #job opening here: Wine Merchant - https://t.co/v1u9wyDRSs #Retail #Mississauga, ON #CareerArc", "created_at": "Mon Jul 18 11:55:14 +0000 2016", "klabel": 8}}, {"geometry": {"type": "Point", "coordinates": [-79.6360765, 43.5906062]}, "type": "Feature", "id": 755017552611323904, "properties": {"loc": [-79.6360765, 43.5906062], "centroid": [-79.55391459743338, 43.79248766635344], "screen_name": "tmj_gta_hrta", "time": 1468863186.0, "tid": 755017552611323904, "text": "We're #hiring! Click to apply: Kilt Girl Server, Bartender and Hostess - https://t.co/HZgBnyJiJd #Job #Hospitality #MISSISSAUGA, ON #Jobs", "created_at": "Mon Jul 18 12:33:06 +0000 2016", "klabel": 8}}, {"geometry": {"type": "Point", "coordinates": [-79.6365257, 43.5958017]}, "type": "Feature", "id": 755076548231770113, "properties": {"loc": [-79.6365257, 43.5958017], "centroid": [-79.55391459743338, 43.79248766635344], "screen_name": "tmj_gta_acct", "time": 1468877252.0, "tid": 755076548231770113, "text": "We're #hiring! Click to apply: PC Law Legal Bookkeeper - Part Time 3 Hours/Day - https://t.co/3S1NCqCp14 #Job #Accounting #Mississauga, ON", "created_at": "Mon Jul 18 16:27:32 +0000 2016", "klabel": 8}}, {"geometry": {"type": "Point", "coordinates": [-79.6360765, 43.5906062]}, "type": "Feature", "id": 755140580263337984, "properties": {"loc": [-79.6360765, 43.5906062], "centroid": [-79.55391459743338, 43.79248766635344], "screen_name": "TiltedKiltJobs", "time": 1468892518.0, "tid": 755140580263337984, "text": "Want to work in #MISSISSAUGA, ON? View our latest opening: https://t.co/p0FrnH58sA #Job #KiltGirlsRock #Jobs #Hiring https://t.co/OEYi1i7gjP", "created_at": "Mon Jul 18 20:41:58 +0000 2016", "klabel": 8}}, {"geometry": {"type": "Point", "coordinates": [-79.63901947, 43.59939287]}, "type": "Feature", "id": 755320345595371520, "properties": {"loc": [-79.63901947, 43.59939287], "centroid": [-79.55391459743338, 43.79248766635344], "screen_name": "djgimports", "time": 1468935378.0, "tid": 755320345595371520, "text": "Keep moving forward #sportit #changethegame #nofiltertshirtco #djgimports @ Kingdom Shipp https://t.co/kJhC0ULO4f", "created_at": "Tue Jul 19 08:36:18 +0000 2016", "klabel": 8}}, {"geometry": {"type": "Point", "coordinates": [-79.6360765, 43.5906062]}, "type": "Feature", "id": 755425865983414272, "properties": {"loc": [-79.6360765, 43.5906062], "centroid": [-79.55391459743338, 43.79248766635344], "screen_name": "tmj_gta_hrta", "time": 1468960536.0, "tid": 755425865983414272, "text": "Want to work at Tilted Kilt? We're #hiring in #MISSISSAUGA, ON! Click for details: https://t.co/HZgBnyJiJd #Job #Hospitality #Jobs", "created_at": "Tue Jul 19 15:35:36 +0000 2016", "klabel": 8}}, {"geometry": {"type": "Point", "coordinates": [-79.6360765, 43.5906062]}, "type": "Feature", "id": 755440327666774016, "properties": {"loc": [-79.6360765, 43.5906062], "centroid": [-79.55391459743338, 43.79248766635344], "screen_name": "TiltedKiltJobs", "time": 1468963984.0, "tid": 755440327666774016, "text": "Interested in a #job near #MISSISSAUGA, ON? This could be a great fit: https://t.co/p0FrnH58sA #KiltGirlsRock https://t.co/C4VMJS1YCn", "created_at": "Tue Jul 19 16:33:04 +0000 2016", "klabel": 8}}, {"geometry": {"type": "Point", "coordinates": [-79.6170792, 43.5831304]}, "type": "Feature", "id": 755470383579537408, "properties": {"loc": [-79.6170792, 43.5831304], "centroid": [-79.55391459743338, 43.79248766635344], "screen_name": "MauriiceTheDJ", "time": 1468971150.0, "tid": 755470383579537408, "text": "https://t.co/66P1XBD5nP \nTODAY @ 6 \nWith Special Guest - djbigc21\u2026 https://t.co/oaIHb4IcVd", "created_at": "Tue Jul 19 18:32:30 +0000 2016", "klabel": 8}}, {"geometry": {"type": "Point", "coordinates": [-79.6386312, 43.5971822]}, "type": "Feature", "id": 755472360484941824, "properties": {"loc": [-79.6386312, 43.5971822], "centroid": [-79.55391459743338, 43.79248766635344], "screen_name": "tmj_gta_finance", "time": 1468971621.0, "tid": 755472360484941824, "text": "Join the Robert Half Finance &amp; Accounting team! See our latest #job opening here: https://t.co/Ejz53SLVXb #Finance #Mississauga, ON #Hiring", "created_at": "Tue Jul 19 18:40:21 +0000 2016", "klabel": 8}}, {"geometry": {"type": "Point", "coordinates": [-79.63434957, 43.59530676]}, "type": "Feature", "id": 755604820011065344, "properties": {"loc": [-79.63434957, 43.59530676], "centroid": [-79.55391459743338, 43.79248766635344], "screen_name": "gareeves", "time": 1469003202.0, "tid": 755604820011065344, "text": "View from the 31st floor from 80 Absolute Ave. #ilove_mississauga @ Absolute Ave https://t.co/yVq8JfteEJ", "created_at": "Wed Jul 20 03:26:42 +0000 2016", "klabel": 8}}, {"geometry": {"type": "Point", "coordinates": [-79.63569, 43.59493]}, "type": "Feature", "id": 755809497931718656, "properties": {"loc": [-79.63569, 43.59493], "centroid": [-79.55391459743338, 43.79248766635344], "screen_name": "cashSEOmedia", "time": 1469052001.0, "tid": 755809497931718656, "text": "Daily# accountability pic number 78. Forgot to post last night, but I did indeed lift \ud83d\udc4c @\u2026 https://t.co/kdsn4i96i8", "created_at": "Wed Jul 20 17:00:01 +0000 2016", "klabel": 8}}, {"geometry": {"type": "Point", "coordinates": [-79.63622258, 43.59104621]}, "type": "Feature", "id": 755834083956166656, "properties": {"loc": [-79.63622258, 43.59104621], "centroid": [-79.55391459743338, 43.79248766635344], "screen_name": "djMechon", "time": 1469057862.0, "tid": 755834083956166656, "text": "Celebramos la indenpedencoa de Colombia tonighttttt inside &amp;Co\u2026 https://t.co/BtvTKCHKRP", "created_at": "Wed Jul 20 18:37:42 +0000 2016", "klabel": 8}}, {"geometry": {"type": "Point", "coordinates": [-79.63901947, 43.59939287]}, "type": "Feature", "id": 755845497340960772, "properties": {"loc": [-79.63901947, 43.59939287], "centroid": [-79.55391459743338, 43.79248766635344], "screen_name": "djgimports", "time": 1469060584.0, "tid": 755845497340960772, "text": "Something for the ladies #nofiltertshirtco #djgimports #sportit @ Kingdom Shipp https://t.co/UGk2M7qol8", "created_at": "Wed Jul 20 19:23:04 +0000 2016", "klabel": 8}}, {"geometry": {"type": "Point", "coordinates": [-79.6386312, 43.5971822]}, "type": "Feature", "id": 755846927946612737, "properties": {"loc": [-79.6386312, 43.5971822], "centroid": [-79.55391459743338, 43.79248766635344], "screen_name": "OfficeTeamJobs", "time": 1469060925.0, "tid": 755846927946612737, "text": "Interested in a #job near #Mississauga, ON? This could be a great fit: https://t.co/4vjL06USZw #OfficeTeam #Hiring", "created_at": "Wed Jul 20 19:28:45 +0000 2016", "klabel": 8}}, {"geometry": {"type": "Point", "coordinates": [-79.61399857, 43.59043333]}, "type": "Feature", "id": 755893943351599104, "properties": {"loc": [-79.61399857, 43.59043333], "centroid": [-79.55391459743338, 43.79248766635344], "screen_name": "navidanjum", "time": 1469072134.0, "tid": 755893943351599104, "text": "Just posted a photo @ 400 Mississauga Valley Blvd https://t.co/H537GcwFkV", "created_at": "Wed Jul 20 22:35:34 +0000 2016", "klabel": 8}}, {"geometry": {"type": "Point", "coordinates": [-79.63622258, 43.59104621]}, "type": "Feature", "id": 755913784527577088, "properties": {"loc": [-79.63622258, 43.59104621], "centroid": [-79.55391459743338, 43.79248766635344], "screen_name": "Kadeem_Kingg", "time": 1469076865.0, "tid": 755913784527577088, "text": "This Friday were inside &amp;Co with no chill. Join me for this celebration as we celebrate the\u2026 https://t.co/5S0hFlHs6q", "created_at": "Wed Jul 20 23:54:25 +0000 2016", "klabel": 8}}, {"geometry": {"type": "Point", "coordinates": [-79.63622258, 43.59104621]}, "type": "Feature", "id": 755940522565468160, "properties": {"loc": [-79.63622258, 43.59104621], "centroid": [-79.55391459743338, 43.79248766635344], "screen_name": "djMechon", "time": 1469083239.0, "tid": 755940522565468160, "text": "#LatinWednesdays in full effect celebrating Colombias Independence.\u2026 https://t.co/KSqVLhuilF", "created_at": "Thu Jul 21 01:40:39 +0000 2016", "klabel": 8}}, {"geometry": {"type": "Point", "coordinates": [-79.62904174, 43.5949967]}, "type": "Feature", "id": 755948708152406016, "properties": {"loc": [-79.62904174, 43.5949967], "centroid": [-79.55391459743338, 43.79248766635344], "screen_name": "Andre_R", "time": 1469085191.0, "tid": 755948708152406016, "text": "6 months ago my brother @omarsaeed56 and I started a clothing brand @_criticalone. 2 days ago we\u2026 https://t.co/uEnZbKUevw", "created_at": "Thu Jul 21 02:13:11 +0000 2016", "klabel": 8}}, {"geometry": {"type": "Point", "coordinates": [-79.63622258, 43.59104621]}, "type": "Feature", "id": 755953251376304129, "properties": {"loc": [-79.63622258, 43.59104621], "centroid": [-79.55391459743338, 43.79248766635344], "screen_name": "djMechon", "time": 1469086274.0, "tid": 755953251376304129, "text": "Dance Lessons in Full Effectttt #LatinWednesdays con un poco de\u2026 https://t.co/jQueX0V7Rm", "created_at": "Thu Jul 21 02:31:14 +0000 2016", "klabel": 8}}, {"geometry": {"type": "Point", "coordinates": [-79.63622258, 43.59104621]}, "type": "Feature", "id": 755954065448796160, "properties": {"loc": [-79.63622258, 43.59104621], "centroid": [-79.55391459743338, 43.79248766635344], "screen_name": "djMechon", "time": 1469086468.0, "tid": 755954065448796160, "text": "#LatinWednesdays #MechonIsMyDj #Mechoning #SnapChat #GeoFilter\u2026 https://t.co/r4gw8LkfGV", "created_at": "Thu Jul 21 02:34:28 +0000 2016", "klabel": 8}}, {"geometry": {"type": "Point", "coordinates": [-79.63901947, 43.59939287]}, "type": "Feature", "id": 756048032999800832, "properties": {"loc": [-79.63901947, 43.59939287], "centroid": [-79.55391459743338, 43.79248766635344], "screen_name": "djgimports", "time": 1469108872.0, "tid": 756048032999800832, "text": "No fear #nofiltertshirtco #djgimports #sportit @ Kingdom Shipp https://t.co/POfy7qOGI7", "created_at": "Thu Jul 21 08:47:52 +0000 2016", "klabel": 8}}, {"geometry": {"type": "Point", "coordinates": [-79.63489, 43.59247]}, "type": "Feature", "id": 756128536021331968, "properties": {"loc": [-79.63489, 43.59247], "centroid": [-79.55391459743338, 43.79248766635344], "screen_name": "AishwaryaNigam", "time": 1469128065.0, "tid": 756128536021331968, "text": "Honoured to be featured on \"100 Years of Indian Cinema\". It was wonderful being interviewed by\u2026 https://t.co/MMLPYerXaV", "created_at": "Thu Jul 21 14:07:45 +0000 2016", "klabel": 8}}, {"geometry": {"type": "Point", "coordinates": [-79.636925, 43.583374]}, "type": "Feature", "id": 756150582692511744, "properties": {"loc": [-79.636925, 43.583374], "centroid": [-79.55391459743338, 43.79248766635344], "screen_name": "supverlu", "time": 1469133322.0, "tid": 756150582692511744, "text": "I'm at Foodie North \u5317\u98df\u5ba2 in Mississauga, Ontario https://t.co/t6xuGlNDmy", "created_at": "Thu Jul 21 15:35:22 +0000 2016", "klabel": 8}}, {"geometry": {"type": "Point", "coordinates": [-79.63622258, 43.59104621]}, "type": "Feature", "id": 756204910723596289, "properties": {"loc": [-79.63622258, 43.59104621], "centroid": [-79.55391459743338, 43.79248766635344], "screen_name": "hamzababarr", "time": 1469146274.0, "tid": 756204910723596289, "text": "4$ coronas... All I really have to say @ &amp;Company Resto Bar https://t.co/e2lQY8w9tn", "created_at": "Thu Jul 21 19:11:14 +0000 2016", "klabel": 8}}, {"geometry": {"type": "Point", "coordinates": [-79.63901947, 43.59939287]}, "type": "Feature", "id": 756231087429390336, "properties": {"loc": [-79.63901947, 43.59939287], "centroid": [-79.55391459743338, 43.79248766635344], "screen_name": "djgimports", "time": 1469152515.0, "tid": 756231087429390336, "text": "Circa 2002 #tbt #frankfurt #flylife #ramplife #sportit #djgimports #nofiltertshirtco #travelling\u2026 https://t.co/yJ3G49nEsM", "created_at": "Thu Jul 21 20:55:15 +0000 2016", "klabel": 8}}, {"geometry": {"type": "Point", "coordinates": [-79.63631459, 43.59090607]}, "type": "Feature", "id": 756380658075860992, "properties": {"loc": [-79.63631459, 43.59090607], "centroid": [-79.55391459743338, 43.79248766635344], "screen_name": "oly_apple", "time": 1469188176.0, "tid": 756380658075860992, "text": "I'm at &amp;Company Resto Bar - @andcorestobar in Mississauga, ON https://t.co/nN5MepFtdw", "created_at": "Fri Jul 22 06:49:36 +0000 2016", "klabel": 8}}, {"geometry": {"type": "Point", "coordinates": [-79.6386312, 43.5971822]}, "type": "Feature", "id": 756506138112253952, "properties": {"loc": [-79.6386312, 43.5971822], "centroid": [-79.55391459743338, 43.79248766635344], "screen_name": "tmj_gta_cler", "time": 1469218093.0, "tid": 756506138112253952, "text": "See our latest #Mississauga, ON #job and click to apply: Inventory Clerk - https://t.co/dwaLygcQ0m #Clerical #Hiring #CareerArc", "created_at": "Fri Jul 22 15:08:13 +0000 2016", "klabel": 8}}, {"geometry": {"type": "Point", "coordinates": [-79.6259975, 43.592463]}, "type": "Feature", "id": 756549961668562944, "properties": {"loc": [-79.6259975, 43.592463], "centroid": [-79.55391459743338, 43.79248766635344], "screen_name": "tmj_gta_retail", "time": 1469228541.0, "tid": 756549961668562944, "text": "Want to work at Wine Rack? We're #hiring in #Mississauga, ON! Click for details: https://t.co/5kq3u7IROu #Job #Retail #Jobs #CareerArc", "created_at": "Fri Jul 22 18:02:21 +0000 2016", "klabel": 8}}, {"geometry": {"type": "Point", "coordinates": [-79.6386312, 43.5971822]}, "type": "Feature", "id": 756597039358586880, "properties": {"loc": [-79.6386312, 43.5971822], "centroid": [-79.55391459743338, 43.79248766635344], "screen_name": "tmj_gta_cstsrv", "time": 1469239765.0, "tid": 756597039358586880, "text": "Want to work in #Mississauga, ON? View our latest opening: https://t.co/Tge3WpOjIz #Job #CustomerService #Jobs #Hiring #CareerArc", "created_at": "Fri Jul 22 21:09:25 +0000 2016", "klabel": 8}}, {"geometry": {"type": "Point", "coordinates": [-79.636041, 43.595067]}, "type": "Feature", "id": 756852335930970112, "properties": {"loc": [-79.636041, 43.595067], "centroid": [-79.55391459743338, 43.79248766635344], "screen_name": "iam_djin", "time": 1469300633.0, "tid": 756852335930970112, "text": "Coming soon #aishiteru #beats #futurebeats #music #djin #instagood #hiphop #mississauga #toronto\u2026 https://t.co/QYG882nUHN", "created_at": "Sat Jul 23 14:03:53 +0000 2016", "klabel": 8}}, {"geometry": {"type": "Point", "coordinates": [-79.6386312, 43.5971822]}, "type": "Feature", "id": 756878400208244737, "properties": {"loc": [-79.6386312, 43.5971822], "centroid": [-79.55391459743338, 43.79248766635344], "screen_name": "RHFAJobs", "time": 1469306847.0, "tid": 756878400208244737, "text": "See our latest #Mississauga, ON #job and click to apply: Financial Analyst - https://t.co/B2aAUk4wVJ #RHFAJobs #Finance #Hiring", "created_at": "Sat Jul 23 15:47:27 +0000 2016", "klabel": 8}}, {"geometry": {"type": "Point", "coordinates": [-79.6259975, 43.592463]}, "type": "Feature", "id": 756934057234042880, "properties": {"loc": [-79.6259975, 43.592463], "centroid": [-79.55391459743338, 43.79248766635344], "screen_name": "WineRackCareers", "time": 1469320117.0, "tid": 756934057234042880, "text": "Want to work in #Mississauga, ON? View our latest opening: https://t.co/kxd7vQoGXF #Job #canadajobs #Retail #Jobs #Hiring", "created_at": "Sat Jul 23 19:28:37 +0000 2016", "klabel": 8}}, {"geometry": {"type": "Point", "coordinates": [-79.63569, 43.59493]}, "type": "Feature", "id": 756934588883046402, "properties": {"loc": [-79.63569, 43.59493], "centroid": [-79.55391459743338, 43.79248766635344], "screen_name": "cashSEOmedia", "time": 1469320243.0, "tid": 756934588883046402, "text": "When ur a dog but you still board. @ Marilyn Monroe Buildings https://t.co/QplpJmjVsI", "created_at": "Sat Jul 23 19:30:43 +0000 2016", "klabel": 8}}, {"geometry": {"type": "Point", "coordinates": [-79.63901947, 43.59939287]}, "type": "Feature", "id": 756996315427532801, "properties": {"loc": [-79.63901947, 43.59939287], "centroid": [-79.55391459743338, 43.79248766635344], "screen_name": "djgimports", "time": 1469334960.0, "tid": 756996315427532801, "text": "Need to make some better choices #sportit #djgimports #nofiltertshirtco @ Kingdom Shipp https://t.co/mSRo1jotsb", "created_at": "Sat Jul 23 23:36:00 +0000 2016", "klabel": 8}}, {"geometry": {"type": "Point", "coordinates": [-79.63569, 43.59493]}, "type": "Feature", "id": 757026450847440896, "properties": {"loc": [-79.63569, 43.59493], "centroid": [-79.55391459743338, 43.79248766635344], "screen_name": "dvddmo", "time": 1469342145.0, "tid": 757026450847440896, "text": "Leveled up heavy \ud83d\udd3c\u2b06\ufe0f\u2934\ufe0f @ Marilyn Monroe Buildings https://t.co/ChTGSl6kxK", "created_at": "Sun Jul 24 01:35:45 +0000 2016", "klabel": 8}}, {"geometry": {"type": "Point", "coordinates": [-79.636041, 43.595067]}, "type": "Feature", "id": 757038855979732992, "properties": {"loc": [-79.636041, 43.595067], "centroid": [-79.55391459743338, 43.79248766635344], "screen_name": "leo_ulhoa", "time": 1469345103.0, "tid": 757038855979732992, "text": "Enjoying the summer \u2600\ufe0f\ud83c\udfca\ud83c\udffc @ Marilyn Monroe Towers. https://t.co/wH06fDyWBP", "created_at": "Sun Jul 24 02:25:03 +0000 2016", "klabel": 8}}, {"geometry": {"type": "Point", "coordinates": [-79.63569, 43.59493]}, "type": "Feature", "id": 757125919391703040, "properties": {"loc": [-79.63569, 43.59493], "centroid": [-79.55391459743338, 43.79248766635344], "screen_name": "cashSEOmedia", "time": 1469365860.0, "tid": 757125919391703040, "text": "Daily #accountability pic number 82. Lifting up pieces of metal and putting them down. @ Marilyn\u2026 https://t.co/lthN17ToeE", "created_at": "Sun Jul 24 08:11:00 +0000 2016", "klabel": 8}}, {"geometry": {"type": "Point", "coordinates": [-79.6352183, 43.6139841]}, "type": "Feature", "id": 757173694728986624, "properties": {"loc": [-79.6352183, 43.6139841], "centroid": [-79.55391459743338, 43.79248766635344], "screen_name": "grajhans", "time": 1469377251.0, "tid": 757173694728986624, "text": "\"What our grandparents told us is the pure truth. You will always have what you desire for\u2026 https://t.co/QpFeWtS2iT", "created_at": "Sun Jul 24 11:20:51 +0000 2016", "klabel": 8}}, {"geometry": {"type": "Point", "coordinates": [-79.6386312, 43.5971822]}, "type": "Feature", "id": 757183679789576192, "properties": {"loc": [-79.6386312, 43.5971822], "centroid": [-79.55391459743338, 43.79248766635344], "screen_name": "tmj_gta_itqa", "time": 1469379631.0, "tid": 757183679789576192, "text": "Can you recommend anyone for this #job? https://t.co/CRqeO85n3X #QA #Mississauga, ON #Hiring #CareerArc", "created_at": "Sun Jul 24 12:00:31 +0000 2016", "klabel": 8}}, {"geometry": {"type": "Point", "coordinates": [-79.63569, 43.59493]}, "type": "Feature", "id": 757255993151594496, "properties": {"loc": [-79.63569, 43.59493], "centroid": [-79.55391459743338, 43.79248766635344], "screen_name": "Oinkido", "time": 1469396872.0, "tid": 757255993151594496, "text": "Pagka anindut! @ Marilyn Monroe Buildings https://t.co/BxEkfRJ9H8", "created_at": "Sun Jul 24 16:47:52 +0000 2016", "klabel": 8}}, {"geometry": {"type": "Point", "coordinates": [-79.636041, 43.595067]}, "type": "Feature", "id": 757257812523134976, "properties": {"loc": [-79.636041, 43.595067], "centroid": [-79.55391459743338, 43.79248766635344], "screen_name": "AliBassam94", "time": 1469397306.0, "tid": 757257812523134976, "text": "brown iverson \u270c\ud83c\udffe\ufe0f @ Marilyn Monroe Towers. https://t.co/EqOe5TYc4V", "created_at": "Sun Jul 24 16:55:06 +0000 2016", "klabel": 8}}, {"geometry": {"type": "Point", "coordinates": [-79.62904174, 43.5949967]}, "type": "Feature", "id": 757269882547372032, "properties": {"loc": [-79.62904174, 43.5949967], "centroid": [-79.55391459743338, 43.79248766635344], "screen_name": "Tyeblack8", "time": 1469400184.0, "tid": 757269882547372032, "text": "Add me on Sc: taiwoajose8 or drop names @ Mississauga City, Toronto https://t.co/7ziAkf2VWU", "created_at": "Sun Jul 24 17:43:04 +0000 2016", "klabel": 8}}, {"geometry": {"type": "Point", "coordinates": [-79.63769, 43.58271]}, "type": "Feature", "id": 757270753242968064, "properties": {"loc": [-79.63769, 43.58271], "centroid": [-79.55391459743338, 43.79248766635344], "screen_name": "sysimonliu", "time": 1469400391.0, "tid": 757270753242968064, "text": "Beef wraps aka Chinese burritos \ud83d\ude02 lol\n.\n.\n.\n.\n.\n.\n#Beef #BeefWrap #FoodPorn #LunchTime\u2026 https://t.co/ennrwa9BlW", "created_at": "Sun Jul 24 17:46:31 +0000 2016", "klabel": 8}}, {"geometry": {"type": "Point", "coordinates": [-79.62904174, 43.5949967]}, "type": "Feature", "id": 757315016823562240, "properties": {"loc": [-79.62904174, 43.5949967], "centroid": [-79.55391459743338, 43.79248766635344], "screen_name": "kuveetha", "time": 1469410944.0, "tid": 757315016823562240, "text": "#architecture #mississaugua #toronto  #monroetowers #monroetowersofsauga #Canada @ Mississauga\u2026 https://t.co/GdVtPsrFjQ", "created_at": "Sun Jul 24 20:42:24 +0000 2016", "klabel": 8}}, {"geometry": {"type": "Point", "coordinates": [-79.63497661, 43.59478716]}, "type": "Feature", "id": 757597780110110720, "properties": {"loc": [-79.63497661, 43.59478716], "centroid": [-79.55391459743338, 43.79248766635344], "screen_name": "TaylorSeabrooke", "time": 1469478360.0, "tid": 757597780110110720, "text": "Groovyyy\ud83d\udca5 @ Monroe Towers https://t.co/Te7esj6RKA", "created_at": "Mon Jul 25 15:26:00 +0000 2016", "klabel": 8}}, {"geometry": {"type": "Point", "coordinates": [-79.6282595, 43.58925249]}, "type": "Feature", "id": 757705761673928704, "properties": {"loc": [-79.6282595, 43.58925249], "centroid": [-79.55391459743338, 43.79248766635344], "screen_name": "ShwethaArikanti", "time": 1469504105.0, "tid": 757705761673928704, "text": "Bagel!!! (at @TimHortons / Esso in Mississauga, ON) https://t.co/X4au0gH0TZ", "created_at": "Mon Jul 25 22:35:05 +0000 2016", "klabel": 8}}, {"geometry": {"type": "Point", "coordinates": [-79.63569, 43.59493]}, "type": "Feature", "id": 757726825325920256, "properties": {"loc": [-79.63569, 43.59493], "centroid": [-79.55391459743338, 43.79248766635344], "screen_name": "Matthew_Gallant", "time": 1469509127.0, "tid": 757726825325920256, "text": "Have a Vision. Inbody that vision as If it were already fullfilled. Work your face off for\u2026 https://t.co/rUVomKjckL", "created_at": "Mon Jul 25 23:58:47 +0000 2016", "klabel": 8}}, {"geometry": {"type": "Point", "coordinates": [-79.63504314, 43.59450325]}, "type": "Feature", "id": 758008849232171008, "properties": {"loc": [-79.63504314, 43.59450325], "centroid": [-79.55391459743338, 43.79248766635344], "screen_name": "AlsFastball", "time": 1469576367.0, "tid": 758008849232171008, "text": "I'm at Absolute World Towers in Mississauga, ON https://t.co/SkxiGO1q6x", "created_at": "Tue Jul 26 18:39:27 +0000 2016", "klabel": 8}}, {"geometry": {"type": "Point", "coordinates": [-79.6259975, 43.592463]}, "type": "Feature", "id": 758102981313040384, "properties": {"loc": [-79.6259975, 43.592463], "centroid": [-79.55391459743338, 43.79248766635344], "screen_name": "WineRackCareers", "time": 1469598810.0, "tid": 758102981313040384, "text": "We're #hiring! Read about our latest #job opening here: Wine Merchant - https://t.co/UNyC5dYnEY #canadajobs #Retail #Mississauga, ON", "created_at": "Wed Jul 27 00:53:30 +0000 2016", "klabel": 8}}, {"geometry": {"type": "Point", "coordinates": [-79.63901947, 43.59939287]}, "type": "Feature", "id": 758256213012410368, "properties": {"loc": [-79.63901947, 43.59939287], "centroid": [-79.55391459743338, 43.79248766635344], "screen_name": "djgimports", "time": 1469635343.0, "tid": 758256213012410368, "text": "#oneracehuman #sportit #djgimports #nofiltertshirtco @ Kingdom Shipp https://t.co/mc1geum9LU", "created_at": "Wed Jul 27 11:02:23 +0000 2016", "klabel": 8}}, {"geometry": {"type": "Point", "coordinates": [-79.636041, 43.595067]}, "type": "Feature", "id": 758297202380906496, "properties": {"loc": [-79.636041, 43.595067], "centroid": [-79.55391459743338, 43.79248766635344], "screen_name": "JamieDee68", "time": 1469645116.0, "tid": 758297202380906496, "text": "Marilyn Monroe Condos \ud83d\ude0d\ud83c\udfd9 Shot on IPhone \ud83d\ude02\ud83d\ude02 @ Marilyn Monroe Towers. https://t.co/kiF2NzcytT", "created_at": "Wed Jul 27 13:45:16 +0000 2016", "klabel": 8}}, {"geometry": {"type": "Point", "coordinates": [-79.6360765, 43.5906062]}, "type": "Feature", "id": 758312004943609856, "properties": {"loc": [-79.6360765, 43.5906062], "centroid": [-79.55391459743338, 43.79248766635344], "screen_name": "TiltedKiltJobs", "time": 1469648645.0, "tid": 758312004943609856, "text": "Interested in a #job near #MISSISSAUGA, ON? This could be a great fit: https://t.co/w7qte4yH1r #restaurantmanager https://t.co/jfhItqWf2r", "created_at": "Wed Jul 27 14:44:05 +0000 2016", "klabel": 8}}, {"geometry": {"type": "Point", "coordinates": [-79.6360765, 43.5906062]}, "type": "Feature", "id": 758331335236653056, "properties": {"loc": [-79.6360765, 43.5906062], "centroid": [-79.55391459743338, 43.79248766635344], "screen_name": "tmj_gta_hrta", "time": 1469653254.0, "tid": 758331335236653056, "text": "Can you recommend anyone for this #job? https://t.co/OqLwQ5q35C #Hospitality #MISSISSAUGA, ON #Hiring #CareerArc", "created_at": "Wed Jul 27 16:00:54 +0000 2016", "klabel": 8}}, {"geometry": {"type": "Point", "coordinates": [-79.63569, 43.59493]}, "type": "Feature", "id": 758375786751533056, "properties": {"loc": [-79.63569, 43.59493], "centroid": [-79.55391459743338, 43.79248766635344], "screen_name": "cashSEOmedia", "time": 1469663852.0, "tid": 758375786751533056, "text": "Daily #accountability pic number 84. Special guest for todays workout is jordan \ud83d\udcaa.(loafted on\u2026 https://t.co/NQtPFmRalC", "created_at": "Wed Jul 27 18:57:32 +0000 2016", "klabel": 8}}, {"geometry": {"type": "Point", "coordinates": [-79.6333674, 43.582143]}, "type": "Feature", "id": 758381279029047297, "properties": {"loc": [-79.6333674, 43.582143], "centroid": [-79.55391459743338, 43.79248766635344], "screen_name": "RHFAJobs", "time": 1469665161.0, "tid": 758381279029047297, "text": "Want to work in #Mississauga, ON? View our latest opening: https://t.co/FU6GPMuT52 #Job #RHFAJobs #BusinessMgmt #Jobs #Hiring", "created_at": "Wed Jul 27 19:19:21 +0000 2016", "klabel": 8}}, {"geometry": {"type": "Point", "coordinates": [-79.63504254, 43.59442035]}, "type": "Feature", "id": 758404958576316416, "properties": {"loc": [-79.63504254, 43.59442035], "centroid": [-79.55391459743338, 43.79248766635344], "screen_name": "gareeves", "time": 1469670807.0, "tid": 758404958576316416, "text": "No buildings behind. Very clear view of the Toronto City Line. #realestate #gailsellshouses\u2026 https://t.co/g46NIFzmF5", "created_at": "Wed Jul 27 20:53:27 +0000 2016", "klabel": 8}}, {"geometry": {"type": "Point", "coordinates": [-79.62904174, 43.5949967]}, "type": "Feature", "id": 758422477810786305, "properties": {"loc": [-79.62904174, 43.5949967], "centroid": [-79.55391459743338, 43.79248766635344], "screen_name": "AlJassmia97", "time": 1469674984.0, "tid": 758422477810786305, "text": "\u062f\u0627\u0626\u0645\u0627 \u0627\u0644\u0646\u0651\u064a\u0629 \u0627\u0644\u0637\u064a\u0628\u0629 \u0644\u0627 \u062a\u062c\u064e\u0631 \u0645\u0639\u0647\u0627 \u0625\u0644\u0627 \u0627\u0644\u0645\u064f\u0641\u0627\u062c\u0622\u062a \u0627\u0644\u062c\u0651\u0645\u064a\u0644\u0629 \n\u0641\u0643\u0646 \u0643\u0645\u0627 \u0623\u0646\u062a\u2026 https://t.co/leZngYjUU6", "created_at": "Wed Jul 27 22:03:04 +0000 2016", "klabel": 8}}, {"geometry": {"type": "Point", "coordinates": [-79.63622258, 43.59104621]}, "type": "Feature", "id": 758453453387554817, "properties": {"loc": [-79.63622258, 43.59104621], "centroid": [-79.55391459743338, 43.79248766635344], "screen_name": "djMechon", "time": 1469682369.0, "tid": 758453453387554817, "text": "We're going in in in tonight. Some big bdays tonight! Thats my boy karimtakawy telling me\u2026 https://t.co/9KaAAoeQZg", "created_at": "Thu Jul 28 00:06:09 +0000 2016", "klabel": 8}}, {"geometry": {"type": "Point", "coordinates": [-79.6360765, 43.5906062]}, "type": "Feature", "id": 758472241801682945, "properties": {"loc": [-79.6360765, 43.5906062], "centroid": [-79.55391459743338, 43.79248766635344], "screen_name": "TiltedKiltJobs", "time": 1469686848.0, "tid": 758472241801682945, "text": "Join the Tilted Kilt team! See our latest #job opening here: https://t.co/e98I7ILwbR #Hospitality #MISSISSAUGA, ON https://t.co/cAYNcavpk5", "created_at": "Thu Jul 28 01:20:48 +0000 2016", "klabel": 8}}, {"geometry": {"type": "Point", "coordinates": [-79.63511248, 43.59327005]}, "type": "Feature", "id": 758782325232578561, "properties": {"loc": [-79.63511248, 43.59327005], "centroid": [-79.55391459743338, 43.79248766635344], "screen_name": "TheRealSlimSebi", "time": 1469760778.0, "tid": 758782325232578561, "text": "You ou ou ou just gotta tell me what you into, we can take a trip and bring your friends too.\u2026 https://t.co/NrJNpYBChl", "created_at": "Thu Jul 28 21:52:58 +0000 2016", "klabel": 8}}, {"geometry": {"type": "Point", "coordinates": [-79.63611112, 43.58992452]}, "type": "Feature", "id": 758812749384126464, "properties": {"loc": [-79.63611112, 43.58992452], "centroid": [-79.55391459743338, 43.79248766635344], "screen_name": "FreakNBwayGeek", "time": 1469768032.0, "tid": 758812749384126464, "text": "\ud83c\udf38 So incredibly lucky to spend yet another wonderful birthday with this guy. A totally lovable\u2026 https://t.co/KWKPN7cFmk", "created_at": "Thu Jul 28 23:53:52 +0000 2016", "klabel": 8}}, {"geometry": {"type": "Point", "coordinates": [-79.63611112, 43.58992452]}, "type": "Feature", "id": 758815703474372609, "properties": {"loc": [-79.63611112, 43.58992452], "centroid": [-79.55391459743338, 43.79248766635344], "screen_name": "FreakNBwayGeek", "time": 1469768736.0, "tid": 758815703474372609, "text": "What #birthday would be complete without this spunky lil firecracker. My inspiration. Her\u2026 https://t.co/6deENAeOS2", "created_at": "Fri Jul 29 00:05:36 +0000 2016", "klabel": 8}}, {"geometry": {"type": "Point", "coordinates": [-79.6386312, 43.5971822]}, "type": "Feature", "id": 759080174533025792, "properties": {"loc": [-79.6386312, 43.5971822], "centroid": [-79.55391459743338, 43.79248766635344], "screen_name": "tmj_gta_mgmt", "time": 1469831791.0, "tid": 759080174533025792, "text": "Interested in a #job near #Oakville, ON? This could be a great fit: https://t.co/ISseoxjcfl #BusinessMgmt #Hiring #CareerArc", "created_at": "Fri Jul 29 17:36:31 +0000 2016", "klabel": 8}}, {"geometry": {"type": "Point", "coordinates": [-79.6360765, 43.5906062]}, "type": "Feature", "id": 759081186664718336, "properties": {"loc": [-79.6360765, 43.5906062], "centroid": [-79.55391459743338, 43.79248766635344], "screen_name": "TiltedKiltJobs", "time": 1469832032.0, "tid": 759081186664718336, "text": "Want to work in #MISSISSAUGA, ON? View our latest opening: https://t.co/w7qte4yH1r #restaurantmanager #Hospitality https://t.co/9RwneTX2Kz", "created_at": "Fri Jul 29 17:40:32 +0000 2016", "klabel": 8}}, {"geometry": {"type": "Point", "coordinates": [-79.63823, 43.59784]}, "type": "Feature", "id": 759187861895774208, "properties": {"loc": [-79.63823, 43.59784], "centroid": [-79.55391459743338, 43.79248766635344], "screen_name": "ZacharySwaby_", "time": 1469857465.0, "tid": 759187861895774208, "text": "10. @ Marilyn Monroe Buildings https://t.co/oNplfTGZkJ", "created_at": "Sat Jul 30 00:44:25 +0000 2016", "klabel": 8}}, {"geometry": {"type": "Point", "coordinates": [-79.618241, 43.59317543]}, "type": "Feature", "id": 759392284550975488, "properties": {"loc": [-79.618241, 43.59317543], "centroid": [-79.55391459743338, 43.79248766635344], "screen_name": "SDementiev", "time": 1469906204.0, "tid": 759392284550975488, "text": "#camping @ Kawartha Highlands Provincial Park https://t.co/TSgyX13Ecv", "created_at": "Sat Jul 30 14:16:44 +0000 2016", "klabel": 8}}, {"geometry": {"type": "Point", "coordinates": [-79.6333674, 43.582143]}, "type": "Feature", "id": 759419687289491456, "properties": {"loc": [-79.6333674, 43.582143], "centroid": [-79.55391459743338, 43.79248766635344], "screen_name": "tmj_gta_mgmt", "time": 1469912737.0, "tid": 759419687289491456, "text": "Join the Robert Half Finance &amp; Accounting team! See our latest #job opening here: https://t.co/Wtdmea7HDb #BusinessMgmt #Mississauga, ON", "created_at": "Sat Jul 30 16:05:37 +0000 2016", "klabel": 8}}, {"geometry": {"type": "Point", "coordinates": [-79.6104756, 43.58621224]}, "type": "Feature", "id": 759537587174281216, "properties": {"loc": [-79.6104756, 43.58621224], "centroid": [-79.55391459743338, 43.79248766635344], "screen_name": "Tiger_JY", "time": 1469940846.0, "tid": 759537587174281216, "text": "Just posted a photo @ Bnc Bakery https://t.co/5cRH7720Xh", "created_at": "Sat Jul 30 23:54:06 +0000 2016", "klabel": 8}}, {"geometry": {"type": "Point", "coordinates": [-79.63823, 43.59784]}, "type": "Feature", "id": 759577212613906432, "properties": {"loc": [-79.63823, 43.59784], "centroid": [-79.55391459743338, 43.79248766635344], "screen_name": "cashSEOmedia", "time": 1469950294.0, "tid": 759577212613906432, "text": "Daily #accountability pic number 88. \u201cIf you don\u2019t do what\u2019s best for your body, your the one\u2026 https://t.co/jNTSdc5iYi", "created_at": "Sun Jul 31 02:31:34 +0000 2016", "klabel": 8}}, {"geometry": {"type": "Point", "coordinates": [-79.63622258, 43.59104621]}, "type": "Feature", "id": 759609959902437376, "properties": {"loc": [-79.63622258, 43.59104621], "centroid": [-79.55391459743338, 43.79248766635344], "screen_name": "acrobatjr", "time": 1469958101.0, "tid": 759609959902437376, "text": "Getting Greased up for #grease #pinklady #rizzo #dannyzuko \ud83d\ude1c #goofball #LoL @ &amp;Company Resto Bar https://t.co/xDt4y7nbm3", "created_at": "Sun Jul 31 04:41:41 +0000 2016", "klabel": 8}}, {"geometry": {"type": "Point", "coordinates": [-79.6386312, 43.5971822]},