{"type": "FeatureCollection", "features": [{"geometry": {"type": "Point", "coordinates": [-79.1687199, 43.80915]}, "type": "Feature", "id": 705997812035674112, "properties": {"loc": [-79.1687199, 43.80915], "centroid": [-79.37023433750593, 43.72783684199525], "screen_name": "izzaayyL", "time": 1457175969.0, "tid": 705997812035674112, "text": "So so so happy I finally got to see you in action after hearing all about your team and your\u2026 https://t.co/KqotAeSRnC", "created_at": "Sat Mar 05 06:06:09 +0000 2016", "klabel": 91}}, {"geometry": {"type": "Point", "coordinates": [-79.18539443, 43.82501798]}, "type": "Feature", "id": 706107941741535232, "properties": {"loc": [-79.18539443, 43.82501798], "centroid": [-79.37023433750593, 43.72783684199525], "screen_name": "TDSBScitechkits", "time": 1457202226.0, "tid": 706107941741535232, "text": "At the Stem and the Great Lakes Workshop @TheTorontoZoo @TDSB_STEM https://t.co/QHeUKqd5ZG", "created_at": "Sat Mar 05 13:23:46 +0000 2016", "klabel": 91}}, {"geometry": {"type": "Point", "coordinates": [-79.18538565, 43.82498308]}, "type": "Feature", "id": 706108235976220673, "properties": {"loc": [-79.18538565, 43.82498308], "centroid": [-79.37023433750593, 43.72783684199525], "screen_name": "TDSBScitechkits", "time": 1457202296.0, "tid": 706108235976220673, "text": "Getting ready for everyone to arrive @TheTorontoZoo @TDSB_STEM https://t.co/fIL798Kpz8", "created_at": "Sat Mar 05 13:24:56 +0000 2016", "klabel": 91}}, {"geometry": {"type": "Point", "coordinates": [-79.18543262, 43.82514733]}, "type": "Feature", "id": 706121945662644224, "properties": {"loc": [-79.18543262, 43.82514733], "centroid": [-79.37023433750593, 43.72783684199525], "screen_name": "mrdcoolteacher", "time": 1457205565.0, "tid": 706121945662644224, "text": "Awesome STEM workshop on the Great Lakes...even on a Saturday morning, lol\u2615\ufe0f\u2615\ufe0f\u2615\ufe0f @ The Toronto Zoo https://t.co/XADAOLIegX", "created_at": "Sat Mar 05 14:19:25 +0000 2016", "klabel": 91}}, {"geometry": {"type": "Point", "coordinates": [-79.18540452, 43.82511316]}, "type": "Feature", "id": 706142969791979521, "properties": {"loc": [-79.18540452, 43.82511316], "centroid": [-79.37023433750593, 43.72783684199525], "screen_name": "TDSBScitechkits", "time": 1457210578.0, "tid": 706142969791979521, "text": "Learning about Butters the owl @TheTorontoZoo @TDSB_STEM @SciTechResource https://t.co/8zP5OYYWkr", "created_at": "Sat Mar 05 15:42:58 +0000 2016", "klabel": 91}}, {"geometry": {"type": "Point", "coordinates": [-79.18543262, 43.82514733]}, "type": "Feature", "id": 706145668524412928, "properties": {"loc": [-79.18543262, 43.82514733], "centroid": [-79.37023433750593, 43.72783684199525], "screen_name": "mrdcoolteacher", "time": 1457211221.0, "tid": 706145668524412928, "text": "@tdsbSTEM @ The Toronto Zoo https://t.co/KMwOA1bFQr", "created_at": "Sat Mar 05 15:53:41 +0000 2016", "klabel": 91}}, {"geometry": {"type": "Point", "coordinates": [-79.18543262, 43.82514733]}, "type": "Feature", "id": 706147242755825665, "properties": {"loc": [-79.18543262, 43.82514733], "centroid": [-79.37023433750593, 43.72783684199525], "screen_name": "mrdcoolteacher", "time": 1457211596.0, "tid": 706147242755825665, "text": "Just posted a photo @ The Toronto Zoo https://t.co/rYT6lwUyOq", "created_at": "Sat Mar 05 15:59:56 +0000 2016", "klabel": 91}}, {"geometry": {"type": "Point", "coordinates": [-79.18539286, 43.82501959]}, "type": "Feature", "id": 706149958743957505, "properties": {"loc": [-79.18539286, 43.82501959], "centroid": [-79.37023433750593, 43.72783684199525], "screen_name": "TDSBScitechkits", "time": 1457212244.0, "tid": 706149958743957505, "text": "Asian Carp discussion @TheTorontoZoo @TDSB_STEM more info @ https://t.co/2hsKEtleus https://t.co/rXSFr3b22E", "created_at": "Sat Mar 05 16:10:44 +0000 2016", "klabel": 91}}, {"geometry": {"type": "Point", "coordinates": [-79.18535767, 43.82508943]}, "type": "Feature", "id": 706151731860738048, "properties": {"loc": [-79.18535767, 43.82508943], "centroid": [-79.37023433750593, 43.72783684199525], "screen_name": "TDSBScitechkits", "time": 1457212667.0, "tid": 706151731860738048, "text": "So many curriculum connections that can be done with the Great Lakes !!! @TDSB_STEM @TheTorontoZoo https://t.co/OBgTgHhqTZ", "created_at": "Sat Mar 05 16:17:47 +0000 2016", "klabel": 91}}, {"geometry": {"type": "Point", "coordinates": [-79.18543262, 43.82514733]}, "type": "Feature", "id": 706159287538614273, "properties": {"loc": [-79.18543262, 43.82514733], "centroid": [-79.37023433750593, 43.72783684199525], "screen_name": "mrdcoolteacher", "time": 1457214468.0, "tid": 706159287538614273, "text": "Just posted a photo @ The Toronto Zoo https://t.co/rKRtmS3cV3", "created_at": "Sat Mar 05 16:47:48 +0000 2016", "klabel": 91}}, {"geometry": {"type": "Point", "coordinates": [-79.18215438, 43.82048007]}, "type": "Feature", "id": 749765290922283008, "properties": {"loc": [-79.18215438, 43.82048007], "centroid": [-79.37023433750593, 43.72783684199525], "screen_name": "LorraineMc143", "time": 1467610949.0, "tid": 749765290922283008, "text": "Too cute! \u2764\ufe0f #panda #torontozoo #canadaweekend @ The Toronto Zoo https://t.co/wbBw6CqKlU", "created_at": "Mon Jul 04 00:42:29 +0000 2016", "klabel": 91}}, {"geometry": {"type": "Point", "coordinates": [-79.18215438, 43.82048007]}, "type": "Feature", "id": 749784255438303232, "properties": {"loc": [-79.18215438, 43.82048007], "centroid": [-79.37023433750593, 43.72783684199525], "screen_name": "brittanaenae", "time": 1467615471.0, "tid": 749784255438303232, "text": "Beautiful day spent with my sweet husband who consistently lavishes incredible Love, grace and\u2026 https://t.co/RvmCzl2BIh", "created_at": "Mon Jul 04 01:57:51 +0000 2016", "klabel": 91}}, {"geometry": {"type": "Point", "coordinates": [-79.18215438, 43.82048007]}, "type": "Feature", "id": 750072131359219713, "properties": {"loc": [-79.18215438, 43.82048007], "centroid": [-79.37023433750593, 43.72783684199525], "screen_name": "newburyc83", "time": 1467684106.0, "tid": 750072131359219713, "text": "What's over there Cooper?? #uncleandnephewmoment @ The Toronto Zoo https://t.co/8vUN0Xxg9l", "created_at": "Mon Jul 04 21:01:46 +0000 2016", "klabel": 91}}, {"geometry": {"type": "Point", "coordinates": [-79.1782999, 43.82387]}, "type": "Feature", "id": 750077835130404864, "properties": {"loc": [-79.1782999, 43.82387], "centroid": [-79.37023433750593, 43.72783684199525], "screen_name": "mel1017", "time": 1467685466.0, "tid": 750077835130404864, "text": "Panda mom knows how to roll - getting in a nap while the twins are playing. #toronto\u2026 https://t.co/CWJM06fd1Y", "created_at": "Mon Jul 04 21:24:26 +0000 2016", "klabel": 91}}, {"geometry": {"type": "Point", "coordinates": [-79.1782999, 43.82387]}, "type": "Feature", "id": 750079112660848640, "properties": {"loc": [-79.1782999, 43.82387], "centroid": [-79.37023433750593, 43.72783684199525], "screen_name": "mel1017", "time": 1467685770.0, "tid": 750079112660848640, "text": "Don't mind me. I'm just getting ready to have a little snack. #toronto #summervacation @ TorontoZoo https://t.co/WtZJ74w0nR", "created_at": "Mon Jul 04 21:29:30 +0000 2016", "klabel": 91}}, {"geometry": {"type": "Point", "coordinates": [-79.18215438, 43.82048007]}, "type": "Feature", "id": 750389229784563712, "properties": {"loc": [-79.18215438, 43.82048007], "centroid": [-79.37023433750593, 43.72783684199525], "screen_name": "newburyc83", "time": 1467759708.0, "tid": 750389229784563712, "text": "|Logan Day 71| a trip to the zoo to mark the 10w point! Note: she missed pretty much every\u2026 https://t.co/kGUzIWiajG", "created_at": "Tue Jul 05 18:01:48 +0000 2016", "klabel": 91}}, {"geometry": {"type": "Point", "coordinates": [-79.18215438, 43.82048007]}, "type": "Feature", "id": 751805356792217600, "properties": {"loc": [-79.18215438, 43.82048007], "centroid": [-79.37023433750593, 43.72783684199525], "screen_name": "Mr_Fernandes", "time": 1468097339.0, "tid": 751805356792217600, "text": "#Eat your #vegetables \n#polarbear #toronto #zoo @ The Toronto Zoo https://t.co/DpLtJtjZya", "created_at": "Sat Jul 09 15:48:59 +0000 2016", "klabel": 91}}, {"geometry": {"type": "Point", "coordinates": [-79.1782999, 43.82387]}, "type": "Feature", "id": 751880865869918209, "properties": {"loc": [-79.1782999, 43.82387], "centroid": [-79.37023433750593, 43.72783684199525], "screen_name": "SusanDavidPhoto", "time": 1468115342.0, "tid": 751880865869918209, "text": "I just watched the Legend of Tarzan and one of the most touching scenes involved elephants. The\u2026 https://t.co/p2nXv2mtp9", "created_at": "Sat Jul 09 20:49:02 +0000 2016", "klabel": 91}}, {"geometry": {"type": "Point", "coordinates": [-79.18215438, 43.82048007]}, "type": "Feature", "id": 751915408253386752, "properties": {"loc": [-79.18215438, 43.82048007], "centroid": [-79.37023433750593, 43.72783684199525], "screen_name": "aalexmcneill", "time": 1468123577.0, "tid": 751915408253386752, "text": "took a picture with a giraffe out of his pen @ The Toronto Zoo https://t.co/sVtD0vAnf6", "created_at": "Sat Jul 09 23:06:17 +0000 2016", "klabel": 91}}, {"geometry": {"type": "Point", "coordinates": [-79.1782999, 43.82387]}, "type": "Feature", "id": 752149032240316416, "properties": {"loc": [-79.1782999, 43.82387], "centroid": [-79.37023433750593, 43.72783684199525], "screen_name": "rinrin_722", "time": 1468179278.0, "tid": 752149032240316416, "text": "Zooooooooooo!!!!\ud83d\udc2b\ud83d\udc0f\ud83d\udc07\ud83d\udc2a\ud83d\udc02\ud83d\udc13\ud83d\udc0e\ud83d\udc29\nThank you rok! \n#torontozoo #toronto #guatemalan #algentina #japanese\u2026 https://t.co/22bc5OG4PN", "created_at": "Sun Jul 10 14:34:38 +0000 2016", "klabel": 91}}, {"geometry": {"type": "Point", "coordinates": [-79.18122, 43.85347]}, "type": "Feature", "id": 752163849814638592, "properties": {"loc": [-79.18122, 43.85347], "centroid": [-79.37023433750593, 43.72783684199525], "screen_name": "NinitoDos", "time": 1468182810.0, "tid": 752163849814638592, "text": "We had our staff out at the crack of dawn (before the \u2600\ufe0f heat wilted plants and energy)\u2026 https://t.co/P9fJg8Nemr", "created_at": "Sun Jul 10 15:33:30 +0000 2016", "klabel": 91}}, {"geometry": {"type": "Point", "coordinates": [-79.177918, 43.823982]}, "type": "Feature", "id": 752171226425065472, "properties": {"loc": [-79.177918, 43.823982], "centroid": [-79.37023433750593, 43.72783684199525], "screen_name": "rnikyla", "time": 1468184569.0, "tid": 752171226425065472, "text": "Yesterday we retraced our steps and went back to the first place we met. Congratulations on\u2026 https://t.co/emoNyo2YFG", "created_at": "Sun Jul 10 16:02:49 +0000 2016", "klabel": 91}}, {"geometry": {"type": "Point", "coordinates": [-79.18277778, 43.82027778]}, "type": "Feature", "id": 752196061582819328, "properties": {"loc": [-79.18277778, 43.82027778], "centroid": [-79.37023433750593, 43.72783684199525], "screen_name": "summerspictures", "time": 1468190490.0, "tid": 752196061582819328, "text": "#pulling up the zoo hill, great Sunday spin @ctowncycles @manissa382 perfect day for a longer\u2026 https://t.co/yZig5JB7JU", "created_at": "Sun Jul 10 17:41:30 +0000 2016", "klabel": 91}}, {"geometry": {"type": "Point", "coordinates": [-79.18122, 43.85347]}, "type": "Feature", "id": 752204050972733441, "properties": {"loc": [-79.18122, 43.85347], "centroid": [-79.37023433750593, 43.72783684199525], "screen_name": "BoriXii", "time": 1468192395.0, "tid": 752204050972733441, "text": "Today's best! @ Whittamore's Farm https://t.co/k4KMEuqOQe", "created_at": "Sun Jul 10 18:13:15 +0000 2016", "klabel": 91}}, {"geometry": {"type": "Point", "coordinates": [-79.19672728, 43.82531646]}, "type": "Feature", "id": 752482504850935809, "properties": {"loc": [-79.19672728, 43.82531646], "centroid": [-79.37023433750593, 43.72783684199525], "screen_name": "BobRodkin", "time": 1468258784.0, "tid": 752482504850935809, "text": "I'm at Old Finch Bailey Bridge in Scarborough, ON https://t.co/Yvc5X1rcGe", "created_at": "Mon Jul 11 12:39:44 +0000 2016", "klabel": 91}}, {"geometry": {"type": "Point", "coordinates": [-79.18215438, 43.82048007]}, "type": "Feature", "id": 752569327489081344, "properties": {"loc": [-79.18215438, 43.82048007], "centroid": [-79.37023433750593, 43.72783684199525], "screen_name": "c_baztana41", "time": 1468279484.0, "tid": 752569327489081344, "text": "Happy birthday to the most beautiful girl I know \u2764\ufe0f\u2764\ufe0f @ The Toronto Zoo https://t.co/gxh7MnvGqN", "created_at": "Mon Jul 11 18:24:44 +0000 2016", "klabel": 91}}, {"geometry": {"type": "Point", "coordinates": [-79.18122, 43.85347]}, "type": "Feature", "id": 752605263899734016, "properties": {"loc": [-79.18122, 43.85347], "centroid": [-79.37023433750593, 43.72783684199525], "screen_name": "littlewxlf", "time": 1468288052.0, "tid": 752605263899734016, "text": "spontaneous strawberry picking and chill \ud83c\udf53\ud83c\udf53\ud83c\udf53 (was feeling the lighting too much, abandoned my\u2026 https://t.co/sVIyRCrGv8", "created_at": "Mon Jul 11 20:47:32 +0000 2016", "klabel": 91}}, {"geometry": {"type": "Point", "coordinates": [-79.18122, 43.85347]}, "type": "Feature", "id": 752606503454986240, "properties": {"loc": [-79.18122, 43.85347], "centroid": [-79.37023433750593, 43.72783684199525], "screen_name": "littlewxlf", "time": 1468288347.0, "tid": 752606503454986240, "text": "the country side is actually so chill, I'm moving into a barn. #farmvisit #whittamorefarm #\ud83c\udf53\ud83c\udf53\ud83c\udf53\u2026 https://t.co/1N5VqIWOXj", "created_at": "Mon Jul 11 20:52:27 +0000 2016", "klabel": 91}}, {"geometry": {"type": "Point", "coordinates": [-79.18215438, 43.82048007]}, "type": "Feature", "id": 752621108466184192, "properties": {"loc": [-79.18215438, 43.82048007], "centroid": [-79.37023433750593, 43.72783684199525], "screen_name": "solivagantsara", "time": 1468291829.0, "tid": 752621108466184192, "text": "Went to the zoo today to see some animals and practice my animal photography for some future\u2026 https://t.co/jcTprbRlJW", "created_at": "Mon Jul 11 21:50:29 +0000 2016", "klabel": 91}}, {"geometry": {"type": "Point", "coordinates": [-79.18215438, 43.82048007]}, "type": "Feature", "id": 752678798223667200, "properties": {"loc": [-79.18215438, 43.82048007], "centroid": [-79.37023433750593, 43.72783684199525], "screen_name": "RillEstateGuy", "time": 1468305584.0, "tid": 752678798223667200, "text": "Toronto Zoo with Frankie Jr  #nephew #famjam #zootime\ud83d\udc12 #misseveryone #timeflies @ The Toronto Zoo https://t.co/aPqq38tyVe", "created_at": "Tue Jul 12 01:39:44 +0000 2016", "klabel": 91}}, {"geometry": {"type": "Point", "coordinates": [-79.18215438, 43.82048007]}, "type": "Feature", "id": 752687877599948800, "properties": {"loc": [-79.18215438, 43.82048007], "centroid": [-79.37023433750593, 43.72783684199525], "screen_name": "PatMorrell_CBC", "time": 1468307748.0, "tid": 752687877599948800, "text": "DADDY! I See giraffes. I see giraffes @ The Toronto Zoo https://t.co/JODntxkTVA", "created_at": "Tue Jul 12 02:15:48 +0000 2016", "klabel": 91}}, {"geometry": {"type": "Point", "coordinates": [-79.18215438, 43.82048007]}, "type": "Feature", "id": 752877849497993216, "properties": {"loc": [-79.18215438, 43.82048007], "centroid": [-79.37023433750593, 43.72783684199525], "screen_name": "solivagantsara", "time": 1468353041.0, "tid": 752877849497993216, "text": "Just chillin' /\u2022/ @ The Toronto Zoo https://t.co/HXZqvog2CI", "created_at": "Tue Jul 12 14:50:41 +0000 2016", "klabel": 91}}, {"geometry": {"type": "Point", "coordinates": [-79.18215438, 43.82048007]}, "type": "Feature", "id": 752900444658110464, "properties": {"loc": [-79.18215438, 43.82048007], "centroid": [-79.37023433750593, 43.72783684199525], "screen_name": "louiebolarinho", "time": 1468358428.0, "tid": 752900444658110464, "text": "7 month old baby Polar Bear @ The Toronto Zoo https://t.co/rjVjmwHQ34", "created_at": "Tue Jul 12 16:20:28 +0000 2016", "klabel": 91}}, {"geometry": {"type": "Point", "coordinates": [-79.18215438, 43.82048007]}, "type": "Feature", "id": 752914216944742400, "properties": {"loc": [-79.18215438, 43.82048007], "centroid": [-79.37023433750593, 43.72783684199525], "screen_name": "louiebolarinho", "time": 1468361712.0, "tid": 752914216944742400, "text": "Just posted a video @ The Toronto Zoo https://t.co/TIL7efcrxp", "created_at": "Tue Jul 12 17:15:12 +0000 2016", "klabel": 91}}, {"geometry": {"type": "Point", "coordinates": [-79.18215438, 43.82048007]}, "type": "Feature", "id": 752916014904422400, "properties": {"loc": [-79.18215438, 43.82048007], "centroid": [-79.37023433750593, 43.72783684199525], "screen_name": "louiebolarinho", "time": 1468362141.0, "tid": 752916014904422400, "text": "\u2764\ufe0f\u2764\ufe0f @ The Toronto Zoo https://t.co/V5JP8Rujuj", "created_at": "Tue Jul 12 17:22:21 +0000 2016", "klabel": 91}}, {"geometry": {"type": "Point", "coordinates": [-79.18215438, 43.82048007]}, "type": "Feature", "id": 752919163258019840, "properties": {"loc": [-79.18215438, 43.82048007], "centroid": [-79.37023433750593, 43.72783684199525], "screen_name": "louiebolarinho", "time": 1468362891.0, "tid": 752919163258019840, "text": "Lexy and the Penguin @ The Toronto Zoo https://t.co/NV6ShbCICq", "created_at": "Tue Jul 12 17:34:51 +0000 2016", "klabel": 91}}, {"geometry": {"type": "Point", "coordinates": [-79.18215438, 43.82048007]}, "type": "Feature", "id": 752924421996748800, "properties": {"loc": [-79.18215438, 43.82048007], "centroid": [-79.37023433750593, 43.72783684199525], "screen_name": "louiebolarinho", "time": 1468364145.0, "tid": 752924421996748800, "text": "Just posted a video @ The Toronto Zoo https://t.co/xrn3O6VSYP", "created_at": "Tue Jul 12 17:55:45 +0000 2016", "klabel": 91}}, {"geometry": {"type": "Point", "coordinates": [-79.176507, 43.8029864]}, "type": "Feature", "id": 752925505653972992, "properties": {"loc": [-79.176507, 43.8029864], "centroid": [-79.37023433750593, 43.72783684199525], "screen_name": "tpscalls", "time": 1468364403.0, "tid": 752925505653972992, "text": "Dispute | Meadowvale Rd &amp; Braymore Blvd [42 Div.] 07/12 13:54 #Rouge #Toronto", "created_at": "Tue Jul 12 18:00:03 +0000 2016", "klabel": 91}}, {"geometry": {"type": "Point", "coordinates": [-79.18215438, 43.82048007]}, "type": "Feature", "id": 752950960331173889, "properties": {"loc": [-79.18215438, 43.82048007], "centroid": [-79.37023433750593, 43.72783684199525], "screen_name": "louiebolarinho", "time": 1468370472.0, "tid": 752950960331173889, "text": "Just posted a video @ The Toronto Zoo https://t.co/Y10wTOKKRR", "created_at": "Tue Jul 12 19:41:12 +0000 2016", "klabel": 91}}, {"geometry": {"type": "Point", "coordinates": [-79.18122, 43.85347]}, "type": "Feature", "id": 752968945091612672, "properties": {"loc": [-79.18122, 43.85347], "centroid": [-79.37023433750593, 43.72783684199525], "screen_name": "Miriamfigueroa1", "time": 1468374760.0, "tid": 752968945091612672, "text": "Nature can provide many things and I turn to it sometimes for inspiration and get the creative\u2026 https://t.co/7zqYqlXtlo", "created_at": "Tue Jul 12 20:52:40 +0000 2016", "klabel": 91}}, {"geometry": {"type": "Point", "coordinates": [-79.18215438, 43.82048007]}, "type": "Feature", "id": 753057530679529478, "properties": {"loc": [-79.18215438, 43.82048007], "centroid": [-79.37023433750593, 43.72783684199525], "screen_name": "christieplumb", "time": 1468395881.0, "tid": 753057530679529478, "text": "Today I got to see baby #pandas and baby #polarbears at #torontozoo and played my first ever\u2026 https://t.co/JRzBJSpwqo", "created_at": "Wed Jul 13 02:44:41 +0000 2016", "klabel": 91}}, {"geometry": {"type": "Point", "coordinates": [-79.1782999, 43.82387]}, "type": "Feature", "id": 753107895747801088, "properties": {"loc": [-79.1782999, 43.82387], "centroid": [-79.37023433750593, 43.72783684199525], "screen_name": "AwaislatifCh", "time": 1468407889.0, "tid": 753107895747801088, "text": "#Toronto #Zoo #Snake #photography @ TorontoZoo https://t.co/DZnqTdppng", "created_at": "Wed Jul 13 06:04:49 +0000 2016", "klabel": 91}}, {"geometry": {"type": "Point", "coordinates": [-79.18215438, 43.82048007]}, "type": "Feature", "id": 753200259531243520, "properties": {"loc": [-79.18215438, 43.82048007], "centroid": [-79.37023433750593, 43.72783684199525], "screen_name": "solivagantsara", "time": 1468429910.0, "tid": 753200259531243520, "text": "That face \ud83d\ude0d /\u2022/ @ The Toronto Zoo https://t.co/wu3WJRXko3", "created_at": "Wed Jul 13 12:11:50 +0000 2016", "klabel": 91}}, {"geometry": {"type": "Point", "coordinates": [-79.18122, 43.85347]}, "type": "Feature", "id": 753346262708195328, "properties": {"loc": [-79.18122, 43.85347], "centroid": [-79.37023433750593, 43.72783684199525], "screen_name": "wallacesouza", "time": 1468464720.0, "tid": 753346262708195328, "text": "Strawberry bush! :) @ Wittamores Farm https://t.co/0kn5HaxW9M", "created_at": "Wed Jul 13 21:52:00 +0000 2016", "klabel": 91}}, {"geometry": {"type": "Point", "coordinates": [-79.18215438, 43.82048007]}, "type": "Feature", "id": 753347863011323904, "properties": {"loc": [-79.18215438, 43.82048007], "centroid": [-79.37023433750593, 43.72783684199525], "screen_name": "lovers_live_on", "time": 1468465101.0, "tid": 753347863011323904, "text": "Posing for the picture @ The Toronto Zoo https://t.co/DXQm25ALuF", "created_at": "Wed Jul 13 21:58:21 +0000 2016", "klabel": 91}}, {"geometry": {"type": "Point", "coordinates": [-79.1782999, 43.82387]}, "type": "Feature", "id": 753796820032258048, "properties": {"loc": [-79.1782999, 43.82387], "centroid": [-79.37023433750593, 43.72783684199525], "screen_name": "SusheyShaui", "time": 1468572141.0, "tid": 753796820032258048, "text": "\ud83d\udc3c @ TorontoZoo https://t.co/eklCQyk4jp", "created_at": "Fri Jul 15 03:42:21 +0000 2016", "klabel": 91}}, {"geometry": {"type": "Point", "coordinates": [-79.18215438, 43.82048007]}, "type": "Feature", "id": 753838607337525248, "properties": {"loc": [-79.18215438, 43.82048007], "centroid": [-79.37023433750593, 43.72783684199525], "screen_name": "JennKnott78", "time": 1468582104.0, "tid": 753838607337525248, "text": "Spent yesterday at the #TorontoZoo #Family #Vacation #2016 @ The Toronto Zoo https://t.co/WoFJCuNdle", "created_at": "Fri Jul 15 06:28:24 +0000 2016", "klabel": 91}}, {"geometry": {"type": "Point", "coordinates": [-79.18215438, 43.82048007]}, "type": "Feature", "id": 753995442942205952, "properties": {"loc": [-79.18215438, 43.82048007], "centroid": [-79.37023433750593, 43.72783684199525], "screen_name": "heddanewman", "time": 1468619496.0, "tid": 753995442942205952, "text": "Love me some pandas, shocker but today my heart melted a little bit\u2026 https://t.co/sWnUQuu3Lz", "created_at": "Fri Jul 15 16:51:36 +0000 2016", "klabel": 91}}, {"geometry": {"type": "Point", "coordinates": [-79.18215438, 43.82048007]}, "type": "Feature", "id": 754047041492414465, "properties": {"loc": [-79.18215438, 43.82048007], "centroid": [-79.37023433750593, 43.72783684199525], "screen_name": "marajade29sm", "time": 1468631798.0, "tid": 754047041492414465, "text": "Almost left thetorontozoo without buying anything, but instead made my most ridiculous purchase\u2026 https://t.co/ZHYMYPeQgM", "created_at": "Fri Jul 15 20:16:38 +0000 2016", "klabel": 91}}, {"geometry": {"type": "Point", "coordinates": [-79.18215438, 43.82048007]}, "type": "Feature", "id": 754052778792742912, "properties": {"loc": [-79.18215438, 43.82048007], "centroid": [-79.37023433750593, 43.72783684199525], "screen_name": "marajade29sm", "time": 1468633166.0, "tid": 754052778792742912, "text": "Waitin' on a bus for to carry me home @ The Toronto Zoo https://t.co/6KzB0pGwo3", "created_at": "Fri Jul 15 20:39:26 +0000 2016", "klabel": 91}}, {"geometry": {"type": "Point", "coordinates": [-79.18215438, 43.82048007]}, "type": "Feature", "id": 754055704898445312, "properties": {"loc": [-79.18215438, 43.82048007], "centroid": [-79.37023433750593, 43.72783684199525], "screen_name": "hannnahmcgurk", "time": 1468633864.0, "tid": 754055704898445312, "text": "My hungry hippo took me to the zoo \ud83d\udc3c @ The Toronto Zoo https://t.co/zKIczXCDxy", "created_at": "Fri Jul 15 20:51:04 +0000 2016", "klabel": 91}}, {"geometry": {"type": "Point", "coordinates": [-79.18215438, 43.82048007]}, "type": "Feature", "id": 754056718464811009, "properties": {"loc": [-79.18215438, 43.82048007], "centroid": [-79.37023433750593, 43.72783684199525], "screen_name": "ApriltheLee", "time": 1468634106.0, "tid": 754056718464811009, "text": "Thinkin' that this #roof is going to get #accessorized with #birdpoop. #seagull #carwashtime\u2026 https://t.co/W76ZNMzDRC", "created_at": "Fri Jul 15 20:55:06 +0000 2016", "klabel": 91}}, {"geometry": {"type": "Point", "coordinates": [-79.198892, 43.822805]}, "type": "Feature", "id": 754114590691172356, "properties": {"loc": [-79.198892, 43.822805], "centroid": [-79.37023433750593, 43.72783684199525], "screen_name": "tpscalls", "time": 1468647903.0, "tid": 754114590691172356, "text": "Assault Just Occurred | Ww S Old Finch W Littles &amp; Old Finch Ave [42 Div.] 07/15 20:39 #Scarborough #Toronto", "created_at": "Sat Jul 16 00:45:03 +0000 2016", "klabel": 91}}, {"geometry": {"type": "Point", "coordinates": [-79.1803747, 43.8062286]}, "type": "Feature", "id": 754190087399870464, "properties": {"loc": [-79.1803747, 43.8062286], "centroid": [-79.37023433750593, 43.72783684199525], "screen_name": "tpscalls", "time": 1468665903.0, "tid": 754190087399870464, "text": "Impaired Driver | Dean Park Rd &amp; Sheppard Ave E [42 Div.] 07/16 01:40 #Rouge #Toronto", "created_at": "Sat Jul 16 05:45:03 +0000 2016", "klabel": 91}}, {"geometry": {"type": "Point", "coordinates": [-79.18190002, 43.82034694]}, "type": "Feature", "id": 754404543685877760, "properties": {"loc": [-79.18190002, 43.82034694], "centroid": [-79.37023433750593, 43.72783684199525], "screen_name": "zizzizee", "time": 1468717034.0, "tid": 754404543685877760, "text": "I'm at Toronto Zoo in Scarborough, ON https://t.co/AFJPyxh6Pa", "created_at": "Sat Jul 16 19:57:14 +0000 2016", "klabel": 91}}, {"geometry": {"type": "Point", "coordinates": [-79.18217942, 43.82256094]}, "type": "Feature", "id": 754429089558228992, "properties": {"loc": [-79.18217942, 43.82256094], "centroid": [-79.37023433750593, 43.72783684199525], "screen_name": "Krysten1428", "time": 1468722886.0, "tid": 754429089558228992, "text": "I'm at Giant Panda Exhibit https://t.co/jqC5bdRXQK", "created_at": "Sat Jul 16 21:34:46 +0000 2016", "klabel": 91}}, {"geometry": {"type": "Point", "coordinates": [-79.1784706, 43.8045635]}, "type": "Feature", "id": 754435710841659392, "properties": {"loc": [-79.1784706, 43.8045635], "centroid": [-79.37023433750593, 43.72783684199525], "screen_name": "tofireE", "time": 1468724464.0, "tid": 754435710841659392, "text": "Medical (Trouble Breathing) - Braymore Boulevard b/w Hillbeck Crescent / Hillbeck Crescent, Scarborough (2 Trucks)", "created_at": "Sat Jul 16 22:01:04 +0000 2016", "klabel": 91}}, {"geometry": {"type": "Point", "coordinates": [-79.18215438, 43.82048007]}, "type": "Feature", "id": 754497391143768064, "properties": {"loc": [-79.18215438, 43.82048007], "centroid": [-79.37023433750593, 43.72783684199525], "screen_name": "Krysten1428", "time": 1468739170.0, "tid": 754497391143768064, "text": "That tongue though. @ The Toronto Zoo https://t.co/JCSL5Zce1I", "created_at": "Sun Jul 17 02:06:10 +0000 2016", "klabel": 91}}, {"geometry": {"type": "Point", "coordinates": [-79.1662196, 43.8089912]}, "type": "Feature", "id": 754540398693982209, "properties": {"loc": [-79.1662196, 43.8089912], "centroid": [-79.37023433750593, 43.72783684199525], "screen_name": "tpscalls", "time": 1468749424.0, "tid": 754540398693982209, "text": "Personal Injury Collision | Twyn Rivers Dr &amp; Sheppard Ave E [HP] 07/17 00:53 #Rouge #Toronto", "created_at": "Sun Jul 17 04:57:04 +0000 2016", "klabel": 91}}, {"geometry": {"type": "Point", "coordinates": [-79.18148727, 43.82037772]}, "type": "Feature", "id": 754830683533676551, "properties": {"loc": [-79.18148727, 43.82037772], "centroid": [-79.37023433750593, 43.72783684199525], "screen_name": "fiskmarilia", "time": 1468818633.0, "tid": 754830683533676551, "text": "#torontozoo #stgilesjuniors #fiskmarilia @ TorontoZoo https://t.co/7c5h2TUHpx", "created_at": "Mon Jul 18 00:10:33 +0000 2016", "klabel": 91}}, {"geometry": {"type": "Point", "coordinates": [-79.18215438, 43.82048007]}, "type": "Feature", "id": 754842947624001536, "properties": {"loc": [-79.18215438, 43.82048007], "centroid": [-79.37023433750593, 43.72783684199525], "screen_name": "julianortiz", "time": 1468821557.0, "tid": 754842947624001536, "text": "Got to spend the afternoon touring the zoo and getting to see some\u2026 https://t.co/Phih3Uze00", "created_at": "Mon Jul 18 00:59:17 +0000 2016", "klabel": 91}}, {"geometry": {"type": "Point", "coordinates": [-79.18215438, 43.82048007]}, "type": "Feature", "id": 754849689690865666, "properties": {"loc": [-79.18215438, 43.82048007], "centroid": [-79.37023433750593, 43.72783684199525], "screen_name": "Dania_reyesl", "time": 1468823165.0, "tid": 754849689690865666, "text": "Con mi amigo panz\u00f3n \ud83d\ude1d\ud83d\udc12 @ The Toronto Zoo https://t.co/Q3yKAf78oE", "created_at": "Mon Jul 18 01:26:05 +0000 2016", "klabel": 91}}, {"geometry": {"type": "Point", "coordinates": [-79.18215438, 43.82048007]}, "type": "Feature", "id": 755153336349798400, "properties": {"loc": [-79.18215438, 43.82048007], "centroid": [-79.37023433750593, 43.72783684199525], "screen_name": "KBatorski", "time": 1468895560.0, "tid": 755153336349798400, "text": "Just posted a video @ The Toronto Zoo https://t.co/Ksi20edXZ3", "created_at": "Mon Jul 18 21:32:40 +0000 2016", "klabel": 91}}, {"geometry": {"type": "Point", "coordinates": [-79.18215438, 43.82048007]}, "type": "Feature", "id": 755191798679601156, "properties": {"loc": [-79.18215438, 43.82048007], "centroid": [-79.37023433750593, 43.72783684199525], "screen_name": "lthomp_", "time": 1468904730.0, "tid": 755191798679601156, "text": "Work isn't always that bad\ud83c\udf43 @ The Toronto Zoo https://t.co/NfGNGZ9y7B", "created_at": "Tue Jul 19 00:05:30 +0000 2016", "klabel": 91}}, {"geometry": {"type": "Point", "coordinates": [-79.18215438, 43.82048007]}, "type": "Feature", "id": 755588198395502593, "properties": {"loc": [-79.18215438, 43.82048007], "centroid": [-79.37023433750593, 43.72783684199525], "screen_name": "JennKnott78", "time": 1468999239.0, "tid": 755588198395502593, "text": "#Rihnos #TorontoZoo @ The Toronto Zoo https://t.co/ocryReE0Ca", "created_at": "Wed Jul 20 02:20:39 +0000 2016", "klabel": 91}}, {"geometry": {"type": "Point", "coordinates": [-79.18215438, 43.82048007]}, "type": "Feature", "id": 755588469938880512, "properties": {"loc": [-79.18215438, 43.82048007], "centroid": [-79.37023433750593, 43.72783684199525], "screen_name": "JennKnott78", "time": 1468999304.0, "tid": 755588469938880512, "text": "#Flamingos #TorontoZoo @ The Toronto Zoo https://t.co/l0pcRVe9YA", "created_at": "Wed Jul 20 02:21:44 +0000 2016", "klabel": 91}}, {"geometry": {"type": "Point", "coordinates": [-79.18122, 43.85347]}, "type": "Feature", "id": 755652961771089921, "properties": {"loc": [-79.18122, 43.85347], "centroid": [-79.37023433750593, 43.72783684199525], "screen_name": "WesHui", "time": 1469014680.0, "tid": 755652961771089921, "text": "Family shenanigans! \ud83d\ude1d\ud83d\ude1d\u2764\ufe0f\u2764\ufe0f\ud83d\ude18\ud83d\ude0a @ Whittamore's Farm https://t.co/ycVMAYaXTe", "created_at": "Wed Jul 20 06:38:00 +0000 2016", "klabel": 91}}, {"geometry": {"type": "Point", "coordinates": [-79.18215438, 43.82048007]}, "type": "Feature", "id": 755737242442670080, "properties": {"loc": [-79.18215438, 43.82048007], "centroid": [-79.37023433750593, 43.72783684199525], "screen_name": "acupo", "time": 1469034774.0, "tid": 755737242442670080, "text": "#rhinoceros @ The Toronto Zoo https://t.co/31n29PkAax", "created_at": "Wed Jul 20 12:12:54 +0000 2016", "klabel": 91}}, {"geometry": {"type": "Point", "coordinates": [-79.18148727, 43.82037772]}, "type": "Feature", "id": 755754223015436288, "properties": {"loc": [-79.18148727, 43.82037772], "centroid": [-79.37023433750593, 43.72783684199525], "screen_name": "Runmom0929", "time": 1469038822.0, "tid": 755754223015436288, "text": "Saw this when I dropped Shan off at ZooCamp.  Pokemon Go players are\u2026 https://t.co/bNmnK21Ghe", "created_at": "Wed Jul 20 13:20:22 +0000 2016", "klabel": 91}}, {"geometry": {"type": "Point", "coordinates": [-79.18215438, 43.82048007]}, "type": "Feature", "id": 755888722881773568, "properties": {"loc": [-79.18215438, 43.82048007], "centroid": [-79.37023433750593, 43.72783684199525], "screen_name": "blu3_koolaid", "time": 1469070889.0, "tid": 755888722881773568, "text": "Went to the Zoo today and saw this polar bear (and he/she reminded me of Arturo the \"World's\u2026 https://t.co/Bcdt4ja0dU", "created_at": "Wed Jul 20 22:14:49 +0000 2016", "klabel": 91}}, {"geometry": {"type": "Point", "coordinates": [-79.18190002, 43.82034694]}, "type": "Feature", "id": 755897053465743364, "properties": {"loc": [-79.18190002, 43.82034694], "centroid": [-79.37023433750593, 43.72783684199525], "screen_name": "EdwinAndaluz", "time": 1469072876.0, "tid": 755897053465743364, "text": "I'm at Toronto Zoo in Scarborough, ON https://t.co/xpyloW424C", "created_at": "Wed Jul 20 22:47:56 +0000 2016", "klabel": 91}}, {"geometry": {"type": "Point", "coordinates": [-79.18215438, 43.82048007]}, "type": "Feature", "id": 755899481690890240, "properties": {"loc": [-79.18215438, 43.82048007], "centroid": [-79.37023433750593, 43.72783684199525], "screen_name": "blu3_koolaid", "time": 1469073455.0, "tid": 755899481690890240, "text": "Australasia Pavilion #summer2016 #australia #asia #zoo #fun #snakes #turtles #birds\u2026 https://t.co/AzahmXDGFh", "created_at": "Wed Jul 20 22:57:35 +0000 2016", "klabel": 91}}, {"geometry": {"type": "Point", "coordinates": [-79.18215438, 43.82048007]}, "type": "Feature", "id": 755903579282636802, "properties": {"loc": [-79.18215438, 43.82048007], "centroid": [-79.37023433750593, 43.72783684199525], "screen_name": "blu3_koolaid", "time": 1469074431.0, "tid": 755903579282636802, "text": "This bird thooo... #blackhornbill #beautifulbird #groomingtime @ The Toronto Zoo https://t.co/wVCcK2TPG2", "created_at": "Wed Jul 20 23:13:51 +0000 2016", "klabel": 91}}, {"geometry": {"type": "Point", "coordinates": [-79.18215438, 43.82048007]}, "type": "Feature", "id": 755921612155850752, "properties": {"loc": [-79.18215438, 43.82048007], "centroid": [-79.37023433750593, 43.72783684199525], "screen_name": "blu3_koolaid", "time": 1469078731.0, "tid": 755921612155850752, "text": "Almost got a good chance to pet this alpaca \ud83d\ude02\ud83d\ude02 #alpaca #summer2016 #zoo @ The Toronto Zoo https://t.co/3Iz0fkiO13", "created_at": "Thu Jul 21 00:25:31 +0000 2016", "klabel": 91}}, {"geometry": {"type": "Point", "coordinates": [-79.18215438, 43.82048007]}, "type": "Feature", "id": 755927780722892800, "properties": {"loc": [-79.18215438, 43.82048007], "centroid": [-79.37023433750593, 43.72783684199525], "screen_name": "blu3_koolaid", "time": 1469080202.0, "tid": 755927780722892800, "text": "Capybaras are huge and beautiful #runandbefreebuddy #zoo #capybara #rodentsofinstagram #rodents\u2026 https://t.co/woSEZgKGO6", "created_at": "Thu Jul 21 00:50:02 +0000 2016", "klabel": 91}}, {"geometry": {"type": "Point", "coordinates": [-79.18215438, 43.82048007]}, "type": "Feature", "id": 755942515056967681, "properties": {"loc": [-79.18215438, 43.82048007], "centroid": [-79.37023433750593, 43.72783684199525], "screen_name": "blu3_koolaid", "time": 1469083714.0, "tid": 755942515056967681, "text": "I finally got to see the Giant Pandas!!! \u2764\ufe0f#panda #pandalife #pandagram #bearsofinstagram #zoo\u2026 https://t.co/r1iSQl69Da", "created_at": "Thu Jul 21 01:48:34 +0000 2016", "klabel": 91}}, {"geometry": {"type": "Point", "coordinates": [-79.18215438, 43.82048007]}, "type": "Feature", "id": 755945028321734656, "properties": {"loc": [-79.18215438, 43.82048007], "centroid": [-79.37023433750593, 43.72783684199525], "screen_name": "blu3_koolaid", "time": 1469084314.0, "tid": 755945028321734656, "text": "20-30 Minutes we stood inline to see these pandas! Just standing around vs the line moving \ud83d\ude06 lot\u2026 https://t.co/bIPiRQLF54", "created_at": "Thu Jul 21 01:58:34 +0000 2016", "klabel": 91}}, {"geometry": {"type": "Point", "coordinates": [-79.18215438, 43.82048007]}, "type": "Feature", "id": 755949003251060736, "properties": {"loc": [-79.18215438, 43.82048007], "centroid": [-79.37023433750593, 43.72783684199525], "screen_name": "blu3_koolaid", "time": 1469085261.0, "tid": 755949003251060736, "text": "Baby Panda's!!!!!!!!!!!!!!!!!!!!!!!!!!!!!!!!!!!!!!!!!!!!!! Finally saw them too\u2026 https://t.co/ajq4qH7CHf", "created_at": "Thu Jul 21 02:14:21 +0000 2016", "klabel": 91}}, {"geometry": {"type": "Point", "coordinates": [-79.18215438, 43.82048007]}, "type": "Feature", "id": 755949554227380224, "properties": {"loc": [-79.18215438, 43.82048007], "centroid": [-79.37023433750593, 43.72783684199525], "screen_name": "blu3_koolaid", "time": 1469085393.0, "tid": 755949554227380224, "text": "Baby Polar Bear!!!!!!!!!! #polarbear #babyanimals #baby #cubs #toocute #omg @ The Toronto Zoo https://t.co/skmgaDvGtj", "created_at": "Thu Jul 21 02:16:33 +0000 2016", "klabel": 91}}, {"geometry": {"type": "Point", "coordinates": [-79.18215438, 43.82048007]}, "type": "Feature", "id": 755950257998036997, "properties": {"loc": [-79.18215438, 43.82048007], "centroid": [-79.37023433750593, 43.72783684199525], "screen_name": "blu3_koolaid", "time": 1469085561.0, "tid": 755950257998036997, "text": "These signs were all over the place.... #omg #pokemon #iwannabetheverybest #gottacatchemall\u2026 https://t.co/ycrMspAtNC", "created_at": "Thu Jul 21 02:19:21 +0000 2016", "klabel": 91}}, {"geometry": {"type": "Point", "coordinates": [-79.18215438, 43.82048007]}, "type": "Feature", "id": 755950676711211009, "properties": {"loc": [-79.18215438, 43.82048007], "centroid": [-79.37023433750593, 43.72783684199525], "screen_name": "blu3_koolaid", "time": 1469085660.0, "tid": 755950676711211009, "text": "These birds were beautiful #birdsofinstagram #birdsofafeatherflocktogether #zoo #zoolife\u2026 https://t.co/ofVAMqQLfs", "created_at": "Thu Jul 21 02:21:00 +0000 2016", "klabel": 91}}, {"geometry": {"type": "Point", "coordinates": [-79.18215438, 43.82048007]}, "type": "Feature", "id": 755953947295248384, "properties": {"loc": [-79.18215438, 43.82048007], "centroid": [-79.37023433750593, 43.72783684199525], "screen_name": "blu3_koolaid", "time": 1469086440.0, "tid": 755953947295248384, "text": "Emerald Tree Boa &amp; Green Tree Boa! (Top) and Emerald Tree Boa (2 weeks old)  #snakes\u2026 https://t.co/KKRzhS5wEY", "created_at": "Thu Jul 21 02:34:00 +0000 2016", "klabel": 91}}, {"geometry": {"type": "Point", "coordinates": [-79.18215438, 43.82048007]}, "type": "Feature", "id": 755964071179087872, "properties": {"loc": [-79.18215438, 43.82048007], "centroid": [-79.37023433750593, 43.72783684199525], "screen_name": "blu3_koolaid", "time": 1469088854.0, "tid": 755964071179087872, "text": "Macaw Life! I want one, they wouldn't let us hold one \ud83d\ude16 \ud83d\ude02 #macawsofinstagram #macawlife\u2026 https://t.co/YHYzxFSDeW", "created_at": "Thu Jul 21 03:14:14 +0000 2016", "klabel": 91}}, {"geometry": {"type": "Point", "coordinates": [-79.185492, 43.8051284]}, "type": "Feature", "id": 756206126933377024, "properties": {"loc": [-79.185492, 43.8051284], "centroid": [-79.37023433750593, 43.72783684199525], "screen_name": "tofireE", "time": 1469146564.0, "tid": 756206126933377024, "text": "Medical (Allergy) - Sheppard Avenue b/w East Highland Creek / Shorting Road, Scarborough (2 Trucks)", "created_at": "Thu Jul 21 19:16:04 +0000 2016", "klabel": 91}}, {"geometry": {"type": "Point", "coordinates": [-79.18148727, 43.82037772]}, "type": "Feature", "id": 756254055282962432, "properties": {"loc": [-79.18148727, 43.82037772], "centroid": [-79.37023433750593, 43.72783684199525], "screen_name": "harleens__", "time": 1469157991.0, "tid": 756254055282962432, "text": "Highlight of my day\ud83d\udc99\ud83d\udc9a\ud83d\udc9c @ TorontoZoo https://t.co/5uWewYw0fm", "created_at": "Thu Jul 21 22:26:31 +0000 2016", "klabel": 91}}, {"geometry": {"type": "Point", "coordinates": [-79.18148727, 43.82037772]}, "type": "Feature", "id": 756292689700720640, "properties": {"loc": [-79.18148727, 43.82037772], "centroid": [-79.37023433750593, 43.72783684199525], "screen_name": "Yesi_Doll", "time": 1469167203.0, "tid": 756292689700720640, "text": "Day 6 \ud83d\udc3c Toronto Zoo and sightseeing \ud83d\udc3c #TorontoZoo #Zoo #Toronto #Canada #GiantPanda #GiantPandas\u2026 https://t.co/QxupV0MVAa", "created_at": "Fri Jul 22 01:00:03 +0000 2016", "klabel": 91}}, {"geometry": {"type": "Point", "coordinates": [-79.18215438, 43.82048007]}, "type": "Feature", "id": 756580013214928896, "properties": {"loc": [-79.18215438, 43.82048007], "centroid": [-79.37023433750593, 43.72783684199525], "screen_name": "caitlinbobrien", "time": 1469235706.0, "tid": 756580013214928896, "text": "The lizard queens\ud83d\udc51\ud83d\udc09 @ The Toronto Zoo https://t.co/T35G4RZmTB", "created_at": "Fri Jul 22 20:01:46 +0000 2016", "klabel": 91}}, {"geometry": {"type": "Point", "coordinates": [-79.18215438, 43.82048007]}, "type": "Feature", "id": 756880170561122304, "properties": {"loc": [-79.18215438, 43.82048007], "centroid": [-79.37023433750593, 43.72783684199525], "screen_name": "manuelcampos", "time": 1469307269.0, "tid": 756880170561122304, "text": "Toronto Zoo welcomes #PokemonGo trainers \ud83d\ude02\ud83d\ude02\ud83d\ude02 their admissions have probably doubled. @ The\u2026 https://t.co/MM868ESbW5", "created_at": "Sat Jul 23 15:54:29 +0000 2016", "klabel": 91}}, {"geometry": {"type": "Point", "coordinates": [-79.17141758, 43.81897557]}, "type": "Feature", "id": 756903268622544896, "properties": {"loc": [-79.17141758, 43.81897557], "centroid": [-79.37023433750593, 43.72783684199525], "screen_name": "Abster158", "time": 1469312776.0, "tid": 756903268622544896, "text": "When you're looking for Pokemon but the sunset catches your attention @ Rouge Valley\u2026 https://t.co/HWK7j6hkNt", "created_at": "Sat Jul 23 17:26:16 +0000 2016", "klabel": 91}}, {"geometry": {"type": "Point", "coordinates": [-79.1862793, 43.8098435]}, "type": "Feature", "id": 756906743171575808, "properties": {"loc": [-79.1862793, 43.8098435], "centroid": [-79.37023433750593, 43.72783684199525], "screen_name": "tofireE", "time": 1469313604.0, "tid": 756906743171575808, "text": "Fire (Grass/rubbish) - Upper Rouge Trail b/w Antelope Dr / Antelope Dr, Scarborough (2 Trucks)", "created_at": "Sat Jul 23 17:40:04 +0000 2016", "klabel": 91}}, {"geometry": {"type": "Point", "coordinates": [-79.1862793, 43.8098435]}, "type": "Feature", "id": 756906742383083520, "properties": {"loc": [-79.1862793, 43.8098435], "centroid": [-79.37023433750593, 43.72783684199525], "screen_name": "tofire", "time": 1469313604.0, "tid": 756906742383083520, "text": "Fire (Grass/rubbish) - Upper Rouge Trail b/w Antelope Dr / Antelope Dr, Scarborough (2 Trucks)", "created_at": "Sat Jul 23 17:40:04 +0000 2016", "klabel": 91}}, {"geometry": {"type": "Point", "coordinates": [-79.18215438, 43.82048007]}, "type": "Feature", "id": 756915971307307009, "properties": {"loc": [-79.18215438, 43.82048007], "centroid": [-79.37023433750593, 43.72783684199525], "screen_name": "marajade29sm", "time": 1469315805.0, "tid": 756915971307307009, "text": "I \u2764 #rhinos #torontozoo #tonyishandsome @ The Toronto Zoo https://t.co/ElRsQbFHht", "created_at": "Sat Jul 23 18:16:45 +0000 2016", "klabel": 91}}, {"geometry": {"type": "Point", "coordinates": [-79.18215438, 43.82048007]}, "type": "Feature", "id": 756983516521304064, "properties": {"loc": [-79.18215438, 43.82048007], "centroid": [-79.37023433750593, 43.72783684199525], "screen_name": "TKimble30", "time": 1469331909.0, "tid": 756983516521304064, "text": "It was 98 degrees yesterday, but we still had fun at the Toronto Zoo \ud83d\udc01\ud83d\udc22\ud83d\udc10\ud83d\udc2e\ud83d\udc17\ud83d\udc0d\ud83d\udc3c\ud83d\udc27\ud83d\udc12\ud83d\udc18\ud83d\udc06\ud83d\udc2f\ud83d\udc3b\ud83d\udc2b\ud83d\udc20\nTrying to\u2026 https://t.co/6kY9AmMsWu", "created_at": "Sat Jul 23 22:45:09 +0000 2016", "klabel": 91}}, {"geometry": {"type": "Point", "coordinates": [-79.1803747, 43.8062286]}, "type": "Feature", "id": 757049179487240194, "properties": {"loc": [-79.1803747, 43.8062286], "centroid": [-79.37023433750593, 43.72783684199525], "screen_name": "tpscalls", "time": 1469347564.0, "tid": 757049179487240194, "text": "Fire | Sheppard Ave E &amp; Gatineau Hydro Corridor Trl [42 Div.] 07/23 23:00 #Rouge #Toronto", "created_at": "Sun Jul 24 03:06:04 +0000 2016", "klabel": 91}}, {"geometry": {"type": "Point", "coordinates": [-79.16903837, 43.80971027]}, "type": "Feature", "id": 757227768153268224, "properties": {"loc": [-79.16903837, 43.80971027], "centroid": [-79.37023433750593, 43.72783684199525], "screen_name": "monoids", "time": 1469390143.0, "tid": 757227768153268224, "text": "@RekiJERK \ud83d\udc4d", "created_at": "Sun Jul 24 14:55:43 +0000 2016", "klabel": 91}}, {"geometry": {"type": "Point", "coordinates": [-79.17597139, 43.81564661]}, "type": "Feature", "id": 757228590215925760, "properties": {"loc": [-79.17597139, 43.81564661], "centroid": [-79.37023433750593, 43.72783684199525], "screen_name": "monoids", "time": 1469390339.0, "tid": 757228590215925760, "text": "@soreyXmikleo mikleo", "created_at": "Sun Jul 24 14:58:59 +0000 2016", "klabel": 91}}, {"geometry": {"type": "Point", "coordinates": [-79.18215438, 43.82048007]}, "type": "Feature", "id": 757305614741729280, "properties": {"loc": [-79.18215438, 43.82048007], "centroid": [-79.37023433750593, 43.72783684199525], "screen_name": "_michelaa", "time": 1469408703.0, "tid": 757305614741729280, "text": "zoo day\ud83d\udc27\ud83d\udc2f\ud83e\udd81\ud83d\udc20\ud83d\udc9b @ The Toronto Zoo https://t.co/Z1nnN2lAeH", "created_at": "Sun Jul 24 20:05:03 +0000 2016", "klabel": 91}}, {"geometry": {"type": "Point", "coordinates": [-79.171492, 43.809502]}, "type": "Feature", "id": 757423247457648640, "properties": {"loc": [-79.171492, 43.809502], "centroid": [-79.37023433750593, 43.72783684199525], "screen_name": "LStocks93", "time": 1469436749.0, "tid": 757423247457648640, "text": "Feel free to endorse me on LinkedIn for lowkey animal whisperer \ud83e\udd81\ud83d\udc2f\ud83d\udc3c\ud83d\udc28\ud83d\udc27\ud83d\udc0d #DamnAfrica\u2026 https://t.co/EA0Jc5n62E", "created_at": "Mon Jul 25 03:52:29 +0000 2016", "klabel": 91}}, {"geometry": {"type": "Point", "coordinates": [-79.1803747, 43.8062286]}, "type": "Feature", "id": 757605087648907265, "properties": {"loc": [-79.1803747, 43.8062286], "centroid": [-79.37023433750593, 43.72783684199525], "screen_name": "tpscalls", "time": 1469480103.0, "tid": 757605087648907265, "text": "Dispute | Sheppard Ave E &amp; Gatineau Hydro Corridor Trl [42 Div.] 07/25 11:49 #Rouge #Toronto", "created_at": "Mon Jul 25 15:55:03 +0000 2016", "klabel": 91}}, {"geometry": {"type": "Point", "coordinates": [-79.18136, 43.82052]}, "type": "Feature", "id": 757994709151133696, "properties": {"loc": [-79.18136, 43.82052], "centroid": [-79.37023433750593, 43.72783684199525], "screen_name": "aljoharahbs", "time": 1469572996.0, "tid": 757994709151133696, "text": "With NA7 at Toronto Zoo \u2014 https://t.co/NEj6pyesOw", "created_at": "Tue Jul 26 17:43:16 +0000 2016", "klabel": 91}}, {"geometry": {"type": "Point", "coordinates": [-79.18190002, 43.82034694]}, "type": "Feature", "id": 757994849840852992, "properties": {"loc": [-79.18190002, 43.82034694], "centroid": [-79.37023433750593, 43.72783684199525], "screen_name": "aljoharahbs", "time": 1469573029.0, "tid": 757994849840852992, "text": "I'm at Toronto Zoo in Scarborough, ON w/ @sousialsaeed https://t.co/U0jTmB0ZVE", "created_at": "Tue Jul 26 17:43:49 +0000 2016", "klabel": 91}}, {"geometry": {"type": "Point", "coordinates": [-79.18215438, 43.82048007]}, "type": "Feature", "id": 758032321132003328, "properties": {"loc": [-79.18215438, 43.82048007], "centroid": [-79.37023433750593, 43.72783684199525], "screen_name": "richpersad", "time": 1469581963.0, "tid": 758032321132003328, "text": "Vybes in session #Kingdom #LondonFuture #Soca #2017 @ The Toronto Zoo https://t.co/BodsNakkCc", "created_at": "Tue Jul 26 20:12:43 +0000 2016", "klabel": 91}}, {"geometry": {"type": "Point", "coordinates": [-79.18215438, 43.82048007]}, "type": "Feature", "id": 758047616294916096, "properties": {"loc": [-79.18215438, 43.82048007], "centroid": [-79.37023433750593, 43.72783684199525], "screen_name": "mariskameijers", "time": 1469585610.0, "tid": 758047616294916096, "text": "Amazing day with my kids at the toronto_zoo #zoo #wildlife #fish #toronto #inspiration #aquarium\u2026 https://t.co/UGqU6Xijsj", "created_at": "Tue Jul 26 21:13:30 +0000 2016", "klabel": 91}}, {"geometry": {"type": "Point", "coordinates": [-79.18215438, 43.82048007]}, "type": "Feature", "id": 758363030648487936, "properties": {"loc": [-79.18215438, 43.82048007], "centroid": [-79.37023433750593, 43.72783684199525], "screen_name": "ChrisJamelNYC", "time": 1469660810.0, "tid": 758363030648487936, "text": "African Falcon. #TorontoZoo @ The Toronto Zoo https://t.co/BAjQJFkt9X", "created_at": "Wed Jul 27 18:06:50 +0000 2016", "klabel": 91}}, {"geometry": {"type": "Point", "coordinates": [-79.18215438, 43.82048007]}, "type": "Feature", "id": 758617260927832064, "properties": {"loc": [-79.18215438, 43.82048007], "centroid": [-79.37023433750593, 43.72783684199525], "screen_name": "jtjazzy1", "time": 1469721424.0, "tid": 758617260927832064, "text": "Took my sister and her boys to the zoo yesterday. Those baby pandas are so adorable!!!\u2026 https://t.co/2oAcHYkr1y", "created_at": "Thu Jul 28 10:57:04 +0000 2016", "klabel": 91}}, {"geometry": {"type": "Point", "coordinates": [-79.18215438, 43.82048007]}, "type": "Feature", "id": 758618349890703361, "properties": {"loc": [-79.18215438, 43.82048007], "centroid": [-79.37023433750593, 43.72783684199525], "screen_name": "jtjazzy1", "time": 1469721683.0, "tid": 758618349890703361, "text": "My baby girl at the zoo!!#bactriancamel#humpday#torontozoo @ The Toronto Zoo https://t.co/OdRIWZMBBc", "created_at": "Thu Jul 28 11:01:23 +0000 2016", "klabel": 91}}, {"geometry": {"type": "Point", "coordinates": [-79.18215438, 43.82048007]}, "type": "Feature", "id": 758704056206524416, "properties": {"loc": [-79.18215438, 43.82048007], "centroid": [-79.37023433750593, 43.72783684199525], "screen_name": "BurninBaits", "time": 1469742117.0, "tid": 758704056206524416, "text": "At the Toronto Zoo. It is hot!!! #staycation #thetorontozoo #zoo #toronto #the6ix #familytime\u2026 https://t.co/qpkGP0lQ4p", "created_at": "Thu Jul 28 16:41:57 +0000 2016", "klabel": 91}}, {"geometry": {"type": "Point", "coordinates": [-79.18148727, 43.82037772]}, "type": "Feature", "id": 758749992513179649, "properties": {"loc": [-79.18148727, 43.82037772], "centroid": [-79.37023433750593, 43.72783684199525], "screen_name": "tubayildizli", "time": 1469753069.0, "tid": 758749992513179649, "text": "Evveet sonunda buldum seni \ud83d\ude46\nKanada'ya has nadir \u015feylerden \ud83d\ude04 #canada #traveller #studyandtravel\u2026 https://t.co/rVISwU83dm", "created_at": "Thu Jul 28 19:44:29 +0000 2016", "klabel": 91}}, {"geometry": {"type": "Point", "coordinates": [-79.18215438, 43.82048007]}, "type": "Feature", "id": 758813756872765441, "properties": {"loc": [-79.18215438, 43.82048007], "centroid": [-79.37023433750593, 43.72783684199525], "screen_name": "mikehannon32", "time": 1469768272.0, "tid": 758813756872765441, "text": "Toronto Zoo, nice visit to also see the two baby pandas born at the\u2026 https://t.co/NkDmbZIxfe", "created_at": "Thu Jul 28 23:57:52 +0000 2016", "klabel": 91}}, {"geometry": {"type": "Point", "coordinates": [-79.18148727, 43.82037772]}, "type": "Feature", "id": 758842969617072128, "properties": {"loc": [-79.18148727, 43.82037772], "centroid": [-79.37023433750593, 43.72783684199525], "screen_name": "CaseyZordan", "time": 1469775237.0, "tid": 758842969617072128, "text": "I would say today was a pretty successful day at the Toronto Zoo toronto_zoo with mom, Uncle\u2026 https://t.co/j2K3Tl5goF", "created_at": "Fri Jul 29 01:53:57 +0000 2016", "klabel": 91}}, {"geometry": {"type": "Point", "coordinates": [-79.171492, 43.809502]}, "type": "Feature", "id": 758855463395962880, "properties": {"loc": [-79.171492, 43.809502], "centroid": [-79.37023433750593, 43.72783684199525], "screen_name": "czarinamazing", "time": 1469778215.0, "tid": 758855463395962880, "text": "Small things that make me happy. \ud83d\udc27 @ Toronto Zoo https://t.co/6FNMCqHC9P", "created_at": "Fri Jul 29 02:43:35 +0000 2016", "klabel": 91}}, {"geometry": {"type": "Point", "coordinates": [-79.1828652, 43.8102721]}, "type": "Feature", "id": 758936858982092800, "properties": {"loc": [-79.1828652, 43.8102721], "centroid": [-79.37023433750593, 43.72783684199525], "screen_name": "tpscalls", "time": 1469797622.0, "tid": 758936858982092800, "text": "See Ambulance | Upper Rouge Trl &amp; Jaguar St [42 Div.] 07/29 04:01 #Rouge #Toronto", "created_at": "Fri Jul 29 08:07:02 +0000 2016", "klabel": 91}}, {"geometry": {"type": "Point", "coordinates": [-79.18215438, 43.82048007]}, "type": "Feature", "id": 759151790101233665, "properties": {"loc": [-79.18215438, 43.82048007], "centroid": [-79.37023433750593, 43.72783684199525], "screen_name": "nanacosone", "time": 1469848865.0, "tid": 759151790101233665, "text": "#instadaily #canada\ud83c\udde8\ud83c\udde6 #zoo @ The Toronto Zoo https://t.co/2cDOhWX8zd", "created_at": "Fri Jul 29 22:21:05 +0000 2016", "klabel": 91}}, {"geometry": {"type": "Point", "coordinates": [-79.18215438, 43.82048007]}, "type": "Feature", "id": 759218054408593408, "properties": {"loc": [-79.18215438, 43.82048007], "centroid": [-79.37023433750593, 43.72783684199525], "screen_name": "BreeZielinski", "time": 1469864664.0, "tid": 759218054408593408, "text": "We also went to the Toronto Zoo, first time for him. #Toronto #OurTrip #SummerTwentySixteen\u2026 https://t.co/M50vcBEw4I", "created_at": "Sat Jul 30 02:44:24 +0000 2016", "klabel": 91}}, {"geometry": {"type": "Point", "coordinates": [-79.18215438, 43.82048007]}, "type": "Feature", "id": 759520277323624449, "properties": {"loc": [-79.18215438, 43.82048007], "centroid": [-79.37023433750593, 43.72783684199525], "screen_name": "ElenAnaniadis", "time": 1469936719.0, "tid": 759520277323624449, "text": "Clearly the rhinos did not wanna be in our picture\ud83d\ude44 @ The Toronto Zoo https://t.co/UEXZ5yEcwh", "created_at": "Sat Jul 30 22:45:19 +0000 2016", "klabel": 91}}, {"geometry": {"type": "Point", "coordinates": [-79.1747254, 43.8414674]}, "type": "Feature", "id": 759538078046388224, "properties": {"loc": [-79.1747254, 43.8414674], "centroid": [-79.37023433750593, 43.72783684199525], "screen_name": "tofire", "time": 1469940963.0, "tid": 759538078046388224, "text": "Fire (Residential) - Beare Road b/w C P R / Plug Hat Road, Scarborough (7 Trucks)", "created_at": "Sat Jul 30 23:56:03 +0000 2016", "klabel": 91}}, {"geometry": {"type": "Point", "coordinates": [-79.18148727, 43.82037772]}, "type": "Feature", "id": 759603510157672449, "properties": {"loc": [-79.18148727, 43.82037772], "centroid": [-79.37023433750593, 43.72783684199525], "screen_name": "starlightxox", "time": 1469956564.0, "tid": 759603510157672449, "text": "Just eating some bamboo. thetorontozoo @ TorontoZoo https://t.co/vTJcglutri", "created_at": "Sun Jul 31 04:16:04 +0000 2016", "klabel": 91}}, {"geometry": {"type": "Point", "coordinates": [-79.18148727, 43.82037772]}, "type": "Feature", "id": 759608756141514752, "properties": {"loc": [-79.18148727, 43.82037772], "centroid": [-79.37023433750593, 43.72783684199525], "screen_name": "starlightxox", "time": 1469957814.0, "tid": 759608756141514752, "text": "thetorontozoo @ TorontoZoo https://t.co/YuY2nDMrXW", "created_at": "Sun Jul 31 04:36:54 +0000 2016", "klabel": 91}}, {"geometry": {"type": "Point", "coordinates": [-79.171492, 43.809502]}, "type": "Feature", "id": 759608972710207489, "properties": {"loc": [-79.171492, 43.809502], "centroid": [-79.37023433750593, 43.72783684199525], "screen_name": "ckdleon", "time": 1469957866.0, "tid": 759608972710207489, "text": "Trying to take a photo but you have a short attention span \ud83d\ude05 @ Toronto Zoo https://t.co/gspJdD20tF", "created_at": "Sun Jul 31 04:37:46 +0000 2016", "klabel": 91}}, {"geometry": {"type": "Point", "coordinates": [-79.18148727, 43.82037772]}, "type": "Feature", "id": 759609352076554240, "properties": {"loc": [-79.18148727, 43.82037772], "centroid": [-79.37023433750593, 43.72783684199525], "screen_name": "starlightxox", "time": 1469957957.0, "tid": 759609352076554240, "text": "The one on the left kept pushing the other one out of its way. thetorontozoo @ TorontoZoo https://t.co/aQ2XgBiAiC", "created_at": "Sun Jul 31 04:39:17 +0000 2016", "klabel": 91}}, {"geometry": {"type": "Point", "coordinates": [-79.18148727, 43.82037772]}, "type": "Feature", "id": 759610080065191936, "properties": {"loc": [-79.18148727, 43.82037772], "centroid": [-79.37023433750593, 43.72783684199525], "screen_name": "starlightxox", "time": 1469958130.0, "tid": 759610080065191936, "text": "Hey squinty. thetorontozoo @ TorontoZoo https://t.co/ldgVXKoDVq", "created_at": "Sun Jul 31 04:42:10 +0000 2016", "klabel": 91}}, {"geometry": {"type": "Point", "coordinates": [-79.18155126, 43.8205819]}, "type": "Feature", "id": 759754594956304384, "properties": {"loc": [-79.18155126, 43.8205819], "centroid": [-79.37023433750593, 43.72783684199525], "screen_name": "_BusterBlues_", "time": 1469992585.0, "tid": 759754594956304384, "text": "I'm at Toronto Zoo in Scarborough, ON https://t.co/ccKL8kHJCc", "created_at": "Sun Jul 31 14:16:25 +0000 2016", "klabel": 91}}, {"geometry": {"type": "Point", "coordinates": [-79.18215438, 43.82048007]}, "type": "Feature", "id": 759807272448962560, "properties": {"loc": [-79.18215438, 43.82048007], "centroid": [-79.37023433750593, 43.72783684199525], "screen_name": "XedricDC", "time": 1470005144.0, "tid": 759807272448962560, "text": "#Penguins #torontozoo #canada @ The Toronto Zoo https://t.co/PSKVO48G3W", "created_at": "Sun Jul 31 17:45:44 +0000 2016", "klabel": 91}}, {"geometry": {"type": "Point", "coordinates": [-79.18215438, 43.82048007]}, "type": "Feature", "id": 759808112517722114, "properties": {"loc": [-79.18215438, 43.82048007], "centroid": [-79.37023433750593, 43.72783684199525], "screen_name": "XedricDC", "time": 1470005345.0, "tid": 759808112517722114, "text": "#torontozoo @ The Toronto Zoo https://t.co/35Pow0wapR", "created_at": "Sun Jul 31 17:49:05 +0000 2016", "klabel": 91}}, {"geometry": {"type": "Point", "coordinates": [-79.18215438, 43.82048007]}, "type": "Feature", "id": 759839716023742465, "properties": {"loc": [-79.18215438, 43.82048007], "centroid": [-79.37023433750593, 43.72783684199525], "screen_name": "XedricDC", "time": 1470012880.0, "tid": 759839716023742465, "text": "#torontozoo @ The Toronto Zoo https://t.co/n9xSeF7gIc", "created_at": "Sun Jul 31 19:54:40 +0000 2016", "klabel": 91}}, {"geometry": {"type": "Point", "coordinates": [-79.18215438, 43.82048007]}, "type": "Feature", "id": 759849142143160320, "properties": {"loc": [-79.18215438, 43.82048007], "centroid": [-79.37023433750593, 43.72783684199525], "screen_name": "XedricDC", "time": 1470015127.0, "tid": 759849142143160320, "text": "Just posted a photo @ The Toronto Zoo https://t.co/ZIgP1GVju3", "created_at": "Sun Jul 31 20:32:07 +0000 2016", "klabel": 91}}, {"geometry": {"type": "Point", "coordinates": [-79.18148727, 43.82037772]}, "type": "Feature", "id": 759863924816764928, "properties": {"loc": [-79.18148727, 43.82037772], "centroid": [-79.37023433750593, 43.72783684199525], "screen_name": "HelloNurse20", "time": 1470018651.0, "tid": 759863924816764928, "text": "Good thing they keep this one caged. Clearly dangerous;) @ TorontoZoo https://t.co/40RYgGGpoF", "created_at": "Sun Jul 31 21:30:51 +0000 2016", "klabel": 91}}, {"geometry": {"type": "Point", "coordinates": [-79.18148727, 43.82037772]}, "type": "Feature", "id": 759876591707185152, "properties": {"loc": [-79.18148727, 43.82037772], "centroid": [-79.37023433750593, 43.72783684199525], "screen_name": "HelloNurse20", "time": 1470021671.0, "tid": 759876591707185152, "text": "Just posted a photo @ TorontoZoo https://t.co/YA7y8PJEYc", "created_at": "Sun Jul 31 22:21:11 +0000 2016", "klabel": 91}}, {"geometry": {"type": "Point", "coordinates": [-79.173128, 43.8063401]}, "type": "Feature", "id": 760036105370624000, "properties": {"loc": [-79.173128, 43.8063401], "centroid": [-79.37023433750593, 43.72783684199525], "screen_name": "tpscalls", "time": 1470059702.0, "tid": 760036105370624000, "text": "Noisy Party | Fireside Dr &amp; Fireside Dr [42 Div.] 08/01 04:49 #Rouge #Toronto", "created_at": "Mon Aug 01 08:55:02 +0000 2016", "klabel": 91}}, {"geometry": {"type": "Point", "coordinates": [-79.18215438, 43.82048007]}, "type": "Feature", "id": 760126189465853952, "properties": {"loc": [-79.18215438, 43.82048007], "centroid": [-79.37023433750593, 43.72783684199525], "screen_name": "Andrea_N", "time": 1470081180.0, "tid": 760126189465853952, "text": "Hangry hippo #nomnom #brunch #vegetarian ..... @ The Toronto Zoo https://t.co/MN9Mc4OZet", "created_at": "Mon Aug 01 14:53:00 +0000 2016", "klabel": 91}}, {"geometry": {"type": "Point", "coordinates": [-79.184902, 43.85203]}, "type": "Feature", "id": 760140979613605889, "properties": {"loc": [-79.184902, 43.85203], "centroid": [-79.37023433750593, 43.72783684199525], "screen_name": "emmanuelpalisoc", "time": 1470084706.0, "tid": 760140979613605889, "text": "All for one and one for all!\n#whittamoresfarm #the6ix #toronto #fam\u2026 https://t.co/ME9JehAj4a", "created_at": "Mon Aug 01 15:51:46 +0000 2016", "klabel": 91}}, {"geometry": {"type": "Point", "coordinates": [-79.18215438, 43.82048007]}, "type": "Feature", "id": 760165901593219078, "properties": {"loc": [-79.18215438, 43.82048007], "centroid": [-79.37023433750593, 43.72783684199525], "screen_name": "tjzmommy", "time": 1470090648.0, "tid": 760165901593219078, "text": "Family zoo time with our own little animals, Kiya, Amari, Jalen, Ty and Jayden! #zoo #family\u2026 https://t.co/ybK0mH6zGl", "created_at": "Mon Aug 01 17:30:48 +0000 2016", "klabel": 91}}, {"geometry": {"type": "Point", "coordinates": [-79.18215438, 43.82048007]}, "type": "Feature", "id": 760171273460658176, "properties": {"loc": [-79.18215438, 43.82048007], "centroid": [-79.37023433750593, 43.72783684199525], "screen_name": "tjzmommy", "time": 1470091929.0, "tid": 760171273460658176, "text": "Wrestling brothers! #gorillas #torontozoo #zoo #family #brothers @ The Toronto Zoo https://t.co/GOkvZprmRR", "created_at": "Mon Aug 01 17:52:09 +0000 2016", "klabel": 91}}, {"geometry": {"type": "Point", "coordinates": [-79.18215438, 43.82048007]}, "type": "Feature", "id": 760177252944470016, "properties": {"loc": [-79.18215438, 43.82048007], "centroid": [-79.37023433750593, 43.72783684199525], "screen_name": "AppleCiderStron", "time": 1470093355.0, "tid": 760177252944470016, "text": "\ud83d\udc3c\n\u5403\u5403\u5403\u5403 @ The Toronto Zoo https://t.co/ewKexgjVQe", "created_at": "Mon Aug 01 18:15:55 +0000 2016", "klabel": 91}}, {"geometry": {"type": "Point", "coordinates": [-79.17026553, 43.81994472]}, "type": "Feature", "id": 760190612318466049, "properties": {"loc": [-79.17026553, 43.81994472], "centroid": [-79.37023433750593, 43.72783684199525], "screen_name": "cahenri", "time": 1470096540.0, "tid": 760190612318466049, "text": "It's sunny below, but not so sunny above! \ud83e\udd14 #hiking #bridge #creek #love #Us #trail #RougeValley\u2026 https://t.co/Rv9MGv6G5a", "created_at": "Mon Aug 01 19:09:00 +0000 2016", "klabel": 91}}, {"geometry": {"type": "Point", "coordinates": [-79.1828652, 43.8102721]}, "type": "Feature", "id": 760234664288260096, "properties": {"loc": [-79.1828652, 43.8102721], "centroid": [-79.37023433750593, 43.72783684199525], "screen_name": "tpscalls", "time": 1470107043.0, "tid": 760234664288260096, "text": "See Ambulance | Upper Rouge Trl &amp; Jaguar St [42 Div.] 08/01 17:58 #Rouge #Toronto", "created_at": "Mon Aug 01 22:04:03 +0000 2016", "klabel": 91}}, {"geometry": {"type": "Point", "coordinates": [-79.18215438, 43.82048007]}, "type": "Feature", "id": 760242583662493696, "properties": {"loc": [-79.18215438, 43.82048007], "centroid": [-79.37023433750593, 43.72783684199525], "screen_name": "perfectblue106", "time": 1470108931.0, "tid": 760242583662493696, "text": "#flamingo #birds #animal #zoo #torontozoo #toronto #canada @ The Toronto Zoo https://t.co/JALSGOY98t", "created_at": "Mon Aug 01 22:35:31 +0000 2016", "klabel": 91}}, {"geometry": {"type": "Point", "coordinates": [-79.171492, 43.809502]}, "type": "Feature", "id": 760263391936151553, "properties": {"loc": [-79.171492, 43.809502], "centroid": [-79.37023433750593, 43.72783684199525], "screen_name": "LadyMimii", "time": 1470113892.0, "tid": 760263391936151553, "text": "Me and Greggy Boo at the Zoo ! \ud83d\ude38\ud83d\ude4a#toronto #torontozoo @ Toronto Zoo https://t.co/YEkbpOQH1i", "created_at": "Mon Aug 01 23:58:12 +0000 2016", "klabel": 91}}, {"geometry": {"type": "Point", "coordinates": [-79.18148727, 43.82037772]}, "type": "Feature", "id": 760287641292066816, "properties": {"loc": [-79.18148727, 43.82037772], "centroid": [-79.37023433750593, 43.72783684199525], "screen_name": "manisaywhaat", "time": 1470119673.0, "tid": 760287641292066816, "text": "Just posted a photo @ TorontoZoo https://t.co/W0ghzi4GVI", "created_at": "Tue Aug 02 01:34:33 +0000 2016", "klabel": 91}}, {"geometry": {"type": "Point", "coordinates": [-79.18155126, 43.8205819]}, "type": "Feature", "id": 760490453619924992, "properties": {"loc": [-79.18155126, 43.8205819], "centroid": [-79.37023433750593, 43.72783684199525], "screen_name": "ryo_nyamo", "time": 1470168028.0, "tid": 760490453619924992, "text": "I'm at Toronto Zoo in Scarborough, ON https://t.co/2Po7JfRQxx https://t.co/TgC4dhm89z", "created_at": "Tue Aug 02 15:00:28 +0000 2016", "klabel": 91}}, {"geometry": {"type": "Point", "coordinates": [-79.18215438, 43.82048007]}, "type": "Feature", "id": 760526112761913345, "properties": {"loc": [-79.18215438, 43.82048007], "centroid": [-79.37023433750593, 43.72783684199525], "screen_name": "ryo_nyamo", "time": 1470176529.0, "tid": 760526112761913345, "text": "\u30b0\u30ea\u30ba\u30ea\u30fc\u30d9\u30a2\uff01 @ The Toronto Zoo https://t.co/48ntbFBjkU", "created_at": "Tue Aug 02 17:22:09 +0000 2016", "klabel": 91}}, {"geometry": {"type": "Point", "coordinates": [-79.173851, 43.8076403]}, "type": "Feature", "id": 760579942270763008, "properties": {"loc": [-79.173851, 43.8076403], "centroid": [-79.37023433750593, 43.72783684199525], "screen_name": "tofire", "time": 1470189363.0, "tid": 760579942270763008, "text": "Medical (Trouble Breathing) - Hedge End Road b/w Sheppard Avenue East / Gatineau Hydro Corridor Trail, Scarborough (2 Trucks)", "created_at": "Tue Aug 02 20:56:03 +0000 2016", "klabel": 91}}, {"geometry": {"type": "Point", "coordinates": [-79.18122, 43.85347]}, "type": "Feature", "id": 760636205008580608, "properties": {"loc": [-79.18122, 43.85347], "centroid": [-79.37023433750593, 43.72783684199525], "screen_name": "kar3nmichelle", "time": 1470202777.0, "tid": 760636205008580608, "text": "We took a little day trip (on one of the hottest days) to @whittamoresfarm to pick the rippest,\u2026 https://t.co/v5PWD6K7vy", "created_at": "Wed Aug 03 00:39:37 +0000 2016", "klabel": 91}}, {"geometry": {"type": "Point", "coordinates": [-79.18215438, 43.82048007]}, "type": "Feature", "id": 760821998360596480, "properties": {"loc": [-79.18215438, 43.82048007], "centroid": [-79.37023433750593, 43.72783684199525], "screen_name": "joshsieger", "time": 1470247074.0, "tid": 760821998360596480, "text": "Fish are friends, not food @ The Toronto Zoo https://t.co/gumCw0U48b", "created_at": "Wed Aug 03 12:57:54 +0000 2016", "klabel": 91}}, {"geometry": {"type": "Point", "coordinates": [-79.184893, 43.8088185]}, "type": "Feature", "id": 760854495786070017, "properties": {"loc": [-79.184893, 43.8088185], "centroid": [-79.37023433750593, 43.72783684199525], "screen_name": "tpscalls", "time": 1470254822.0, "tid": 760854495786070017, "text": "Assault | Savanna Dr &amp; Bald Eagle Ave [42 Div.] 08/03 11:00 #Rouge #Toronto", "created_at": "Wed Aug 03 15:07:02 +0000 2016", "klabel": 91}}, {"geometry": {"type": "Point", "coordinates": [-79.18148727, 43.82037772]}, "type": "Feature", "id": 761258737738940416, "properties": {"loc": [-79.18148727, 43.82037772], "centroid": [-79.37023433750593, 43.72783684199525], "screen_name": "shun_calpis7126", "time": 1470351201.0, "tid": 761258737738940416, "text": "\ud83d\udc3b\ud83c\udfca\ud83c\udde8\ud83c\udde6\n#tbt#torontozoo#grizzly#bear#swimming#toronto @ TorontoZoo https://t.co/i79oLcsmtu", "created_at": "Thu Aug 04 17:53:21 +0000 2016", "klabel": 91}}, {"geometry": {"type": "Point", "coordinates": [-79.1732572, 43.8086392]}, "type": "Feature", "id": 761773057778278400, "properties": {"loc": [-79.1732572, 43.8086392], "centroid": [-79.37023433750593, 43.72783684199525], "screen_name": "tpscalls", "time": 1470473824.0, "tid": 761773057778278400, "text": "Noisy Party | Idagrove Gt &amp; Hedge End Rd [42 Div.] 08/05 23:51 #Rouge #Toronto", "created_at": "Sat Aug 06 03:57:04 +0000 2016", "klabel": 91}}, {"geometry": {"type": "Point", "coordinates": [-79.18148727, 43.82037772]}, "type": "Feature", "id": 761942575615975424, "properties": {"loc": [-79.18148727, 43.82037772], "centroid": [-79.37023433750593, 43.72783684199525], "screen_name": "XtianJD", "time": 1470514240.0, "tid": 761942575615975424, "text": "#GiantPanda #TorontoZoo \ud83d\udc3c\ud83c\udde8\ud83c\uddf3 @ TorontoZoo https://t.co/llm98NVU61", "created_at": "Sat Aug 06 15:10:40 +0000 2016", "klabel": 91}}, {"geometry": {"type": "Point", "coordinates": [-79.18148727, 43.82037772]}, "type": "Feature", "id": 761989899692154880, "properties": {"loc": [-79.18148727, 43.82037772], "centroid": [-79.37023433750593, 43.72783684199525], "screen_name": "XtianJD", "time": 1470525523.0, "tid": 761989899692154880, "text": "#Polarbeard #TorontoZoo \ud83d\udc3b\u2744\ufe0f @ TorontoZoo https://t.co/lWwId3CTh7", "created_at": "Sat Aug 06 18:18:43 +0000 2016", "klabel": 91}}, {"geometry": {"type": "Point", "coordinates": [-79.18148727, 43.82037772]}, "type": "Feature", "id": 762061246703304708, "properties": {"loc": [-79.18148727, 43.82037772], "centroid": [-79.37023433750593, 43.72783684199525], "screen_name": "Home4Hendersons", "time": 1470542534.0, "tid": 762061246703304708, "text": "Ellie and the otters. #ellie #4yearsold #torontozoo #otters @ TorontoZoo https://t.co/BOYyUwD3YM", "created_at": "Sat Aug 06 23:02:14 +0000 2016", "klabel": 91}}, {"geometry": {"type": "Point", "coordinates": [-79.18148727, 43.82037772]}, "type": "Feature", "id": 762076819625476096, "properties": {"loc": [-79.18148727, 43.82037772], "centroid": [-79.37023433750593, 43.72783684199525], "screen_name": "mavikiiz", "time": 1470546247.0, "tid": 762076819625476096, "text": "#torontozoo#polarbear#bluedays#bluesmiles#bluegirl#toronto#canada @ TorontoZoo https://t.co/fy5E4EBKzT", "created_at": "Sun Aug 07 00:04:07 +0000 2016", "klabel": 91}}, {"geometry": {"type": "Point", "coordinates": [-79.198892, 43.822805]}, "type": "Feature", "id": 762078818903453696, "properties": {"loc": [-79.198892, 43.822805], "centroid": [-79.37023433750593, 43.72783684199525], "screen_name": "tpscalls", "time": 1470546723.0, "tid": 762078818903453696, "text": "Fight | Zoo Rd &amp; Old Finch Ave [42 Div.] 08/06 20:07 #Scarborough #Toronto", "created_at": "Sun Aug 07 00:12:03 +0000 2016", "klabel": 91}}, {"geometry": {"type": "Point", "coordinates": [-79.18215438, 43.82048007]}, "type": "Feature", "id": 762382131058380800, "properties": {"loc": [-79.18215438, 43.82048007], "centroid": [-79.37023433750593, 43.72783684199525], "screen_name": "jojolu2013", "time": 1470619039.0, "tid": 762382131058380800, "text": "#NoFilter #NoFilterNeeded #cloudporn #clouds #Toronto #TorontoZoo #Nature @ The Toronto Zoo https://t.co/O1hd24X6fC", "created_at": "Sun Aug 07 20:17:19 +0000 2016", "klabel": 91}}, {"geometry": {"type": "Point", "coordinates": [-79.18215438, 43.82048007]}, "type": "Feature", "id": 762408612627116034, "properties": {"loc": [-79.18215438, 43.82048007], "centroid": [-79.37023433750593, 43.72783684199525], "screen_name": "KatieGaboury15", "time": 1470625352.0, "tid": 762408612627116034, "text": "Eye of the tiger\ud83d\udc2f\ud83d\ude0d @ The Toronto Zoo https://t.co/zmMDyUWRUA", "created_at": "Sun Aug 07 22:02:32 +0000 2016", "klabel": 91}}, {"geometry": {"type": "Point", "coordinates": [-79.18215438, 43.82048007]}, "type": "Feature", "id": 762435168455970817, "properties": {"loc": [-79.18215438, 43.82048007], "centroid": [-79.37023433750593, 43.72783684199525], "screen_name": "vicxss", "time": 1470631684.0, "tid": 762435168455970817, "text": "A couple of zoo activities with some white tigers &amp; the hubby \ud83e\udd81 @\u2026 https://t.co/5VgPrp6DFa", "created_at": "Sun Aug 07 23:48:04 +0000 2016", "klabel": 91}}, {"geometry": {"type": "Point", "coordinates": [-79.18215438, 43.82048007]}, "type": "Feature", "id": 762447049832828928, "properties": {"loc": [-79.18215438, 43.82048007], "centroid": [-79.37023433750593, 43.72783684199525], "screen_name": "bajean07082010", "time": 1470634516.0, "tid": 762447049832828928, "text": "I miss the elephants...so statue elephant pictures have to do! #thirdtimesacharm @ The Toronto Zoo https://t.co/R1CgICKIxC", "created_at": "Mon Aug 08 00:35:16 +0000 2016", "klabel": 91}}, {"geometry": {"type": "Point", "coordinates": [-79.18215438, 43.82048007]}, "type": "Feature", "id": 762491733615652864, "properties": {"loc": [-79.18215438, 43.82048007], "centroid": [-79.37023433750593, 43.72783684199525], "screen_name": "jojolu2013", "time": 1470645170.0, "tid": 762491733615652864, "text": "#animals at the #TorontoZoo. #Toronto #zoo #cute @ The Toronto Zoo https://t.co/mfo1ROm3Hd", "created_at": "Mon Aug 08 03:32:50 +0000 2016", "klabel": 91}}, {"geometry": {"type": "Point", "coordinates": [-79.18215438, 43.82048007]}, "type": "Feature", "id": 762496514467913729, "properties": {"loc": [-79.18215438, 43.82048007], "centroid": [-79.37023433750593, 43.72783684199525], "screen_name": "jojolu2013", "time": 1470646310.0, "tid": 762496514467913729, "text": "#NoFilterNeeded #NoFilter #Nature #naturelover #trees #sunlight #sun @ The Toronto Zoo https://t.co/gF5louLiO3", "created_at": "Mon Aug 08 03:51:50 +0000 2016", "klabel": 91}}, {"geometry": {"type": "Point", "coordinates": [-79.18215438, 43.82048007]}, "type": "Feature", "id": 762498262452416512, "properties": {"loc": [-79.18215438, 43.82048007], "centroid": [-79.37023433750593, 43.72783684199525], "screen_name": "jojolu2013", "time": 1470646726.0, "tid": 762498262452416512, "text": "This Spectacled Owl stared into my soul. #owl #AnimalLover #animals #animal #bird #Toronto\u2026 https://t.co/TsCPGrrosP", "created_at": "Mon Aug 08 03:58:46 +0000 2016", "klabel": 91}}, {"geometry": {"type": "Point", "coordinates": [-79.18215438, 43.82048007]}, "type": "Feature", "id": 762499126340694018, "properties": {"loc": [-79.18215438, 43.82048007], "centroid": [-79.37023433750593, 43.72783684199525], "screen_name": "jojolu2013", "time": 1470646932.0, "tid": 762499126340694018, "text": "I think my baby is teething. #PandaLover #pandas #pandacub #babypanda #TorontoZoo @ The Toronto Zoo https://t.co/UnOiqk5tBT", "created_at": "Mon Aug 08 04:02:12 +0000 2016", "klabel": 91}}, {"geometry": {"type": "Point", "coordinates": [-79.1708756, 43.8083184]}, "type": "Feature", "id": 762529039764557825, "properties": {"loc": [-79.1708756, 43.8083184], "centroid": [-79.37023433750593, 43.72783684199525], "screen_name": "tpscalls", "time": 1470654064.0, "tid": 762529039764557825, "text": "Theft Just Occurred | Meadowvale Rd &amp; Sheppard Ave E [42 Div.] 08/08 01:54 #Rouge #Toronto", "created_at": "Mon Aug 08 06:01:04 +0000 2016", "klabel": 91}}, {"geometry": {"type": "Point", "coordinates": [-79.1708756, 43.8083184]}, "type": "Feature", "id": 762573571088670720, "properties": {"loc": [-79.1708756, 43.8083184], "centroid": [-79.37023433750593, 43.72783684199525], "screen_name": "tpscalls", "time": 1470664681.0, "tid": 762573571088670720, "text": "Theft Just Occurred | Meadowvale Rd &amp; Sheppard Ave E [42 Div.] 08/08 04:52 #Rouge #Toronto", "created_at": "Mon Aug 08 08:58:01 +0000 2016", "klabel": 91}}, {"geometry": {"type": "Point", "coordinates": [-79.18148727, 43.82037772]}, "type": "Feature", "id": 762773989789880324, "properties": {"loc": [-79.18148727, 43.82037772], "centroid": [-79.37023433750593, 43.72783684199525], "screen_name": "isabelafurmann", "time": 1470712465.0, "tid": 762773989789880324, "text": "Tentativa tirar uma foto legal na chuva: \ud83d\udc4e\ud83c\udffb\ud83d\ude02\n\ud83d\udc95\ud83d\udc95\ud83d\udc95\ud83d\udc95 @ TorontoZoo https://t.co/G4VFyLh3OX", "created_at": "Mon Aug 08 22:14:25 +0000 2016", "klabel": 91}}, {"geometry": {"type": "Point", "coordinates": [-79.1840886, 43.8069364]}, "type": "Feature", "id": 762871036996050944, "properties": {"loc": [-79.1840886, 43.8069364], "centroid": [-79.37023433750593, 43.72783684199525], "screen_name": "tpscalls", "time": 1470735603.0, "tid": 762871036996050944, "text": "Break &amp; Enter | Sheppard Ave E &amp; Trumpeter St [42 Div.] 08/09 00:33 #Rouge #Toronto", "created_at": "Tue Aug 09 04:40:03 +0000 2016", "klabel": 91}}, {"geometry": {"type": "Point", "coordinates": [-79.176507, 43.8029864]}, "type": "Feature", "id": 762871543009464322, "properties": {"loc": [-79.176507, 43.8029864], "centroid": [-79.37023433750593, 43.72783684199525], "screen_name": "tpscalls", "time": 1470735723.0, "tid": 762871543009464322, "text": "Theft Just Occurred | Idagrove Gt &amp; Braymore Blvd [43 Div.] 08/09 00:37 #Rouge #Toronto", "created_at": "Tue Aug 09 04:42:03 +0000 2016", "klabel": 91}}, {"geometry": {"type": "Point", "coordinates": [-79.1942757, 43.8369633]}, "type": "Feature", "id": 763090486580174849, "properties": {"loc": [-79.1942757, 43.8369633], "centroid": [-79.37023433750593, 43.72783684199525], "screen_name": "tpscalls", "time": 1470787924.0, "tid": 763090486580174849, "text": "Assault | Rouge Park Finch Meander Trl &amp; Reesor Rd [42 Div.] 08/09 15:06 #Hillside #Toronto", "created_at": "Tue Aug 09 19:12:04 +0000 2016", "klabel": 91}}, {"geometry": {"type": "Point", "coordinates": [-79.18148727, 43.82037772]}, "type": "Feature", "id": 763147867213234176, "properties": {"loc": [-79.18148727, 43.82037772], "centroid": [-79.37023433750593, 43.72783684199525], "screen_name": "peterandwilliam", "time": 1470801604.0, "tid": 763147867213234176, "text": "This very bench where Peter decided to come out to his parents 5 years ago. How time flies\u2026 https://t.co/5EmuvoUfHf", "created_at": "Tue Aug 09 23:00:04 +0000 2016", "klabel": 91}}, {"geometry": {"type": "Point", "coordinates": [-79.18148727, 43.82037772]}, "type": "Feature", "id": 763168715303186432, "properties": {"loc": [-79.18148727, 43.82037772], "centroid": [-79.37023433750593, 43.72783684199525], "screen_name": "Isabellebiancca", "time": 1470806575.0, "tid": 763168715303186432, "text": "He was scared of the butterflies #truestory @ TorontoZoo https://t.co/GDqNaUbIf4", "created_at": "Wed Aug 10 00:22:55 +0000 2016", "klabel": 91}}, {"geometry": {"type": "Point", "coordinates": [-79.18148727, 43.82037772]}, "type": "Feature", "id": 763169468986056704, "properties": {"loc": [-79.18148727, 43.82037772], "centroid": [-79.37023433750593, 43.72783684199525], "screen_name": "Isabellebiancca", "time": 1470806755.0, "tid": 763169468986056704, "text": "He was scared of the butterflies #truestory @ TorontoZoo https://t.co/SCRseKxMO3", "created_at": "Wed Aug 10 00:25:55 +0000 2016", "klabel": 91}}, {"geometry": {"type": "Point", "coordinates": [-79.18215438, 43.82048007]}, "type": "Feature", "id": 763341304847884288, "properties": {"loc": [-79.18215438, 43.82048007], "centroid": [-79.37023433750593, 43.72783684199525], "screen_name": "joshryancarr", "time": 1470847723.0, "tid": 763341304847884288, "text": "This video is better than any polar-oid picture, so it should get bear likes. \ud83c\udde8\ud83c\udde6\u2744\ufe0f\ud83d\udc3b\n#torontozoo\u2026 https://t.co/sy8ovwSsEm", "created_at": "Wed Aug 10 11:48:43 +0000 2016", "klabel": 91}}, {"geometry": {"type": "Point", "coordinates": [-79.18215438, 43.82048007]}, "type": "Feature", "id": 763394889400942592, "properties": {"loc": [-79.18215438, 43.82048007], "centroid": [-79.37023433750593, 43.72783684199525], "screen_name": "andy_buck", "time": 1470860499.0, "tid": 763394889400942592, "text": "Found some #panda - how do I evolve them? #torontozoo @ The Toronto Zoo https://t.co/BwYDlGW68p", "created_at": "Wed Aug 10 15:21:39 +0000 2016", "klabel": 91}}, {"geometry": {"type": "Point", "coordinates": [-79.18215438, 43.82048007]}, "type": "Feature", "id": 763399624153530368, "properties": {"loc": [-79.18215438, 43.82048007], "centroid": [-79.37023433750593, 43.72783684199525], "screen_name": "andy_buck", "time": 1470861628.0, "tid": 763399624153530368, "text": "Too hot even for the #camels @ The Toronto Zoo https://t.co/aZB277A3Jt", "created_at": "Wed Aug 10 15:40:28 +0000 2016", "klabel": 91}}, {"geometry": {"type": "Point", "coordinates": [-79.18215438, 43.82048007]}, "type": "Feature", "id": 763403108097589248, "properties": {"loc": [-79.18215438, 43.82048007], "centroid": [-79.37023433750593, 43.72783684199525], "screen_name": "andy_buck", "time": 1470862458.0, "tid": 763403108097589248, "text": "My climbing idol. #mountaingoats #therealKOM @ The Toronto Zoo https://t.co/nH7AVu1yai", "created_at": "Wed Aug 10 15:54:18 +0000 2016", "klabel": 91}}, {"geometry": {"type": "Point", "coordinates": [-79.1803747, 43.8062286]}, "type": "Feature", "id": 763429979057229824, "properties": {"loc": [-79.1803747, 43.8062286], "centroid": [-79.37023433750593, 43.72783684199525], "screen_name": "tofiref", "time": 1470868865.0, "tid": 763429979057229824, "text": "Fire (Transformer/pole) - Sheppard Avenue East @ Dean Park Road, Scarborough (2 Trucks)", "created_at": "Wed Aug 10 17:41:05 +0000 2016", "klabel": 91}}, {"geometry": {"type": "Point", "coordinates": [-79.1708756, 43.8083184]}, "type": "Feature", "id": 763520826624860161, "properties": {"loc": [-79.1708756, 43.8083184], "centroid": [-79.37023433750593, 43.72783684199525], "screen_name": "tpscalls", "time": 1470890525.0, "tid": 763520826624860161, "text": "Fire | Sheppard Ave E &amp; Meadowvale Rd [42 Div.] 08/10 19:37 #Rouge #Toronto", "created_at": "Wed Aug 10 23:42:05 +0000 2016", "klabel": 91}}, {"geometry": {"type": "Point", "coordinates": [-79.18148727, 43.82037772]}, "type": "Feature", "id": 763608355537559552, "properties": {"loc": [-79.18148727, 43.82037772], "centroid": [-79.37023433750593, 43.72783684199525], "screen_name": "fobchick08", "time": 1470911393.0, "tid": 763608355537559552, "text": "#Tbt to the time I went and seen the baby polar bear and all I wanted to do was hug it lol #baby\u2026 https://t.co/bDpHMk4mQ8", "created_at": "Thu Aug 11 05:29:53 +0000 2016", "klabel": 91}}, {"geometry": {"type": "Point", "coordinates": [-79.18593, 43.82343]}, "type": "Feature", "id": 763763571599745024, "properties": {"loc": [-79.18593, 43.82343], "centroid": [-79.37023433750593, 43.72783684199525], "screen_name": "leaffanjlm22", "time": 1470948400.0, "tid": 763763571599745024, "text": "@MStrooo6 come to @TheTorontoZoo !!!  We have #TOPandaCubs , Indian rhino calf, Lion &amp; Polar bear cubs and #theywontbesmallforever!!!", "created_at": "Thu Aug 11 15:46:40 +0000 2016", "klabel": 91}}, {"geometry": {"type": "Point", "coordinates": [-79.18277778, 43.82027778]}, "type": "Feature", "id": 764240239401562114, "properties": {"loc": [-79.18277778, 43.82027778], "centroid": [-79.37023433750593, 43.72783684199525], "screen_name": "juliusnaredo", "time": 1471062046.0, "tid": 764240239401562114, "text": "The urbanpromiseto #CampFreedom YMAD boys having fun at thetorontozoo @ Toronto Zoo https://t.co/ovR5dITz1h", "created_at": "Fri Aug 12 23:20:46 +0000 2016", "klabel": 91}}, {"geometry": {"type": "Point", "coordinates": [-79.173128, 43.8063401]}, "type": "Feature", "id": 764267495100452864, "properties": {"loc": [-79.173128, 43.8063401], "centroid": [-79.37023433750593, 43.72783684199525], "screen_name": "tpscalls", "time": 1471068544.0, "tid": 764267495100452864, "text": "Dispute | Fireside Dr &amp; Fireside Dr [42 Div.] 08/12 21:05 #Rouge #Toronto", "created_at": "Sat Aug 13 01:09:04 +0000 2016", "klabel": 91}}, {"geometry": {"type": "Point", "coordinates": [-79.18169643, 43.82030731]}, "type": "Feature", "id": 764908089027985408, "properties": {"loc": [-79.18169643, 43.82030731], "centroid": [-79.37023433750593, 43.72783684199525], "screen_name": "BrianJLegree", "time": 1471221274.0, "tid": 764908089027985408, "text": "Going on a bear hunt. #Grizzlybear #torontozoo @ The Toronto Zoo https://t.co/IL8PcYG2zF", "created_at": "Sun Aug 14 19:34:34 +0000 2016", "klabel": 91}}, {"geometry": {"type": "Point", "coordinates": [-79.18169643, 43.82030731]}, "type": "Feature", "id": 764988335165059073, "properties": {"loc": [-79.18169643, 43.82030731], "centroid": [-79.37023433750593, 43.72783684199525], "screen_name": "ABlogAbroad", "time": 1471240406.0, "tid": 764988335165059073, "text": "So thetorontozoo did an awesome job marketing with Pokemon Go. @ The Toronto Zoo https://t.co/7rZM0bd4cv", "created_at": "Mon Aug 15 00:53:26 +0000 2016", "klabel": 91}}, {"geometry": {"type": "Point", "coordinates": [-79.18148727, 43.82037772]}, "type": "Feature", "id": 764993874578272256, "properties": {"loc": [-79.18148727, 43.82037772], "centroid": [-79.37023433750593, 43.72783684199525], "screen_name": "steveRbu", "time": 1471241727.0, "tid": 764993874578272256, "text": "Some of the animals at the Toronto Zoo! Especially loved this passed-out raccoon, haha. @\u2026 https://t.co/JPOf8vGZ8J", "created_at": "Mon Aug 15 01:15:27 +0000 2016", "klabel": 91}}, {"geometry": {"type": "Point", "coordinates": [-79.18469203, 43.81911518]}, "type": "Feature", "id": 765225659555778560, "properties": {"loc": [-79.18469203, 43.81911518], "centroid": [-79.37023433750593, 43.72783684199525], "screen_name": "MattSoleyn", "time": 1471296989.0, "tid": 765225659555778560, "text": "#TorontoZoo (@ African Savanna) https://t.co/87l9Qhm9hV", "created_at": "Mon Aug 15 16:36:29 +0000 2016", "klabel": 91}}, {"geometry": {"type": "Point", "coordinates": [-79.18169643, 43.82030731]}, "type": "Feature", "id": 765262423565623296, "properties": {"loc": [-79.18169643, 43.82030731], "centroid": [-79.37023433750593, 43.72783684199525], "screen_name": "annascribani", "time": 1471305754.0, "tid": 765262423565623296, "text": "#zoo #torontozoo2016 #benarrivatoCanada #travel #toronto\ud83c\udde8\ud83c\udde6 \u2764\ufe0f\ud83d\udc3c @ The\u2026 https://t.co/vsYQJ3HWvg", "created_at": "Mon Aug 15 19:02:34 +0000 2016", "klabel": 91}}, {"geometry": {"type": "Point", "coordinates": [-79.18169643, 43.82030731]}, "type": "Feature", "id": 765262690885394432, "properties": {"loc": [-79.18169643, 43.82030731], "centroid": [-79.37023433750593, 43.72783684199525], "screen_name": "annascribani", "time": 1471305818.0, "tid": 765262690885394432, "text": "#zoo #torontozoo2016 #panda\ud83d\udc3c #finalmente #benarrivatoCanada #travel\u2026 https://t.co/o9pZ6vyUsK", "created_at": "Mon Aug 15 19:03:38 +0000 2016", "klabel": 91}}, {"geometry": {"type": "Point", "coordinates": [-79.18169643, 43.82030731]}, "type": "Feature", "id": 765263322027470848, "properties": {"loc": [-79.18169643, 43.82030731], "centroid": [-79.37023433750593, 43.72783684199525], "screen_name": "annascribani", "time": 1471305968.0, "tid": 765263322027470848, "text": "#torontozoo2016 #zoo #panda\ud83d\udc3c #ohbellociao #finalmente\u2026 https://t.co/eFWw4fyfEE", "created_at": "Mon Aug 15 19:06:08 +0000 2016", "klabel": 91}}, {"geometry": {"type": "Point", "coordinates": [-79.18169643, 43.82030731]}, "type": "Feature", "id": 765264738221563905, "properties": {"loc": [-79.18169643, 43.82030731], "centroid": [-79.37023433750593, 43.72783684199525], "screen_name": "annascribani", "time": 1471306306.0, "tid": 765264738221563905, "text": "#foresta #zoo #torontozoo2016 #finalmente #travel #benarrivatoCanada\u2026 https://t.co/uRDxUv9YCo", "created_at": "Mon Aug 15 19:11:46 +0000 2016", "klabel": 91}}, {"geometry": {"type": "Point", "coordinates": [-79.182115, 43.822682]}, "type": "Feature", "id": 765317643012276224, "properties": {"loc": [-79.182115, 43.822682], "centroid": [-79.37023433750593, 43.72783684199525], "screen_name": "ccarolzeng", "time": 1471318919.0, "tid": 765317643012276224, "text": "This baby panda looks like a dumpling #soadorable @TorontoZoo https://t.co/kUPCZsOsx6", "created_at": "Mon Aug 15 22:41:59 +0000 2016", "klabel": 91}}, {"geometry": {"type": "Point", "coordinates": [-79.18169643, 43.82030731]}, "type": "Feature", "id": 765399995247833095, "properties": {"loc": [-79.18169643, 43.82030731], "centroid": [-79.37023433750593, 43.72783684199525], "screen_name": "jtjazzy1", "time": 1471338553.0, "tid": 765399995247833095, "text": "Baby panda on the phone!! Lol even he is staying current on social media!!! @ The Toronto Zoo https://t.co/VWGQ3qr1Vw", "created_at": "Tue Aug 16 04:09:13 +0000 2016", "klabel": 91}}, {"geometry": {"type": "Point", "coordinates": [-79.18169643, 43.82030731]}, "type": "Feature", "id": 765400403047424002, "properties": {"loc": [-79.18169643, 43.82030731], "centroid": [-79.37023433750593, 43.72783684199525], "screen_name": "jtjazzy1", "time": 1471338651.0, "tid": 765400403047424002, "text": "Komodo dragon carrying a load of kids!!\n#cousins#familyfun#summer2016\ud83d\ude0e @ The Toronto Zoo https://t.co/sfr6mUfnGD", "created_at": "Tue Aug 16 04:10:51 +0000 2016", "klabel": 91}}, {"geometry": {"type": "Point", "coordinates": [-79.18169643, 43.82030731]}, "type": "Feature", "id": 765402048154046464, "properties": {"loc": [-79.18169643, 43.82030731], "centroid": [-79.37023433750593, 43.72783684199525], "screen_name": "jtjazzy1", "time": 1471339043.0, "tid": 765402048154046464, "text": "Jordan and her cousins with Mr. Komodo dragon in the background!!#lizard#zoolife#summer @ The\u2026 https://t.co/8VliaTxFCj", "created_at": "Tue Aug 16 04:17:23 +0000 2016", "klabel": 91}}, {"geometry": {"type": "Point", "coordinates": [-79.1712786, 43.8082363]}, "type": "Feature", "id": 765657155290759168, "properties": {"loc": [-79.1712786, 43.8082363], "centroid": [-79.37023433750593, 43.72783684199525], "screen_name": "minasharif", "time": 1471399865.0, "tid": 765657155290759168, "text": "https://t.co/uMYEC88iej while so much Afghan music is annoying keyboards, I'm so much happier with old school songs. Jama Narenji", "created_at": "Tue Aug 16 21:11:05 +0000 2016", "klabel": 91}}, {"geometry": {"type": "Point", "coordinates": [-79.18169643, 43.82030731]}, "type": "Feature", "id": 765672560184832001, "properties": {"loc": [-79.18169643, 43.82030731], "centroid": [-79.37023433750593, 43.72783684199525], "screen_name": "ricky_argent", "time": 1471403538.0, "tid": 765672560184832001, "text": "Unintentional cool picture from b\u00e6 ft.Panda @ The Toronto Zoo https://t.co/CBrNXzGMYK", "created_at": "Tue Aug 16 22:12:18 +0000 2016", "klabel": 91}}, {"geometry": {"type": "Point", "coordinates": [-79.18169643, 43.82030731]}, "type": "Feature", "id": 765969261835784193, "properties": {"loc": [-79.18169643, 43.82030731], "centroid": [-79.37023433750593, 43.72783684199525], "screen_name": "Interestein", "time": 1471474277.0, "tid": 765969261835784193, "text": "Butt @ The Toronto Zoo https://t.co/Yi7Y8eYRQf", "created_at": "Wed Aug 17 17:51:17 +0000 2016", "klabel": 91}}, {"geometry": {"type": "Point", "coordinates": [-79.184893, 43.8088185]}, "type": "Feature", "id": 766109879291568129, "properties": {"loc": [-79.184893, 43.8088185], "centroid": [-79.37023433750593, 43.72783684199525], "screen_name": "tpscalls", "time": 1471507803.0, "tid": 766109879291568129, "text": "Personal Injury Collision | Bald Eagle Ave &amp; Rouge River Dr [HP] 08/17 23:03 #Rouge #Toronto", "created_at": "Thu Aug 18 03:10:03 +0000 2016", "klabel": 91}}, {"geometry": {"type": "Point", "coordinates": [-79.18169643, 43.82030731]}, "type": "Feature", "id": 766275567549317120, "properties": {"loc": [-79.18169643, 43.82030731], "centroid": [-79.37023433750593, 43.72783684199525], "screen_name": "_iam_chad_", "time": 1471547306.0, "tid": 766275567549317120, "text": "Good morning Toronto Zoo\ud83d\udc3c\n#toronto #torontozoo #familyvacation2016 #cousingoals #activeon\u2026 https://t.co/sWYekCSc1e", "created_at": "Thu Aug 18 14:08:26 +0000 2016", "klabel": 91}}, {"geometry": {"type": "Point", "coordinates": [-79.18169643, 43.82030731]}, "type": "Feature", "id": 766414745943609344, "properties": {"loc": [-79.18169643, 43.82030731], "centroid": [-79.37023433750593, 43.72783684199525], "screen_name": "nickic22", "time": 1471580489.0, "tid": 766414745943609344, "text": "Just chillin eating bamboo #lifeofapanda #torontozoo #panda\ud83d\udc3c @ The\u2026 https://t.co/BBelGmyYSe", "created_at": "Thu Aug 18 23:21:29 +0000 2016", "klabel": 91}}, {"geometry": {"type": "Point", "coordinates": [-79.18169643, 43.82030731]}, "type": "Feature", "id": 766415493058232321, "properties": {"loc": [-79.18169643, 43.82030731], "centroid": [-79.37023433750593, 43.72783684199525], "screen_name": "nickic22", "time": 1471580667.0, "tid": 766415493058232321, "text": "Stop staring people. I'm just looking for my fish #polarbear\u2026 https://t.co/YejdgV2aCj", "created_at": "Thu Aug 18 23:24:27 +0000 2016", "klabel": 91}}, {"geometry": {"type": "Point", "coordinates": [-79.18169643, 43.82030731]}, "type": "Feature", "id": 766425164833841153, "properties": {"loc": [-79.18169643, 43.82030731], "centroid": [-79.37023433750593, 43.72783684199525], "screen_name": "jinantoinette", "time": 1471582973.0, "tid": 766425164833841153, "text": "\ud83d\ude0a @ The Toronto Zoo https://t.co/OHHAi3P4FQ", "created_at": "Fri Aug 19 00:02:53 +0000 2016", "klabel": 91}}, {"geometry": {"type": "Point", "coordinates": [-79.18169643, 43.82030731]}, "type": "Feature", "id": 766464022799605761, "properties": {"loc": [-79.18169643, 43.82030731], "centroid": [-79.37023433750593, 43.72783684199525], "screen_name": "LSchinkel", "time": 1471592237.0, "tid": 766464022799605761, "text": "Don't know whose cuter us or the pandas \ud83d\udc3c\ud83d\udc3c\ud83d\udc3c #pandas #pandababies #torontozoo #babyanimals\u2026 https://t.co/SlW1RNETuy", "created_at": "Fri Aug 19 02:37:17 +0000 2016", "klabel": 91}}, {"geometry": {"type": "Point", "coordinates": [-79.176507, 43.8029864]}, "type": "Feature", "id": 766527379690795014, "properties": {"loc": [-79.176507, 43.8029864], "centroid": [-79.37023433750593, 43.72783684199525], "screen_name": "tpscalls", "time": 1471607343.0, "tid": 766527379690795014, "text": "See Ambulance | Meadowvale Rd &amp; Braymore Blvd [42 Div.] 08/19 02:43 #Rouge #Toronto", "created_at": "Fri Aug 19 06:49:03 +0000 2016", "klabel": 91}}, {"geometry": {"type": "Point", "coordinates": [-79.19652811, 43.82497727]}, "type": "Feature", "id": 766993931028488192, "properties": {"loc": [-79.19652811, 43.82497727], "centroid": [-79.37023433750593, 43.72783684199525], "screen_name": "mondolulu", "time": 1471718577.0, "tid": 766993931028488192, "text": "Scraping pegs on Twyn Rivers twisties. #funstuff #harley #roadster1200 #lifeon2 @ Old Finch. https://t.co/LqHLZg2k6F", "created_at": "Sat Aug 20 13:42:57 +0000 2016", "klabel": 91}}, {"geometry": {"type": "Point", "coordinates": [-79.18155126, 43.8205819]}, "type": "Feature", "id": 767039533019979780, "properties": {"loc": [-79.18155126, 43.8205819], "centroid": [-79.37023433750593, 43.72783684199525], "screen_name": "FranklinonFood", "time": 1471729450.0, "tid": 767039533019979780, "text": "Time to see some baby pandas (@ Toronto Zoo in Scarborough, ON) https://t.co/OAtze79aid", "created_at": "Sat Aug 20 16:44:10 +0000 2016", "klabel": 91}}, {"geometry": {"type": "Point", "coordinates": [-79.18324288, 43.82276737]}, "type": "Feature", "id": 767045217065263105, "properties": {"loc": [-79.18324288, 43.82276737], "centroid": [-79.37023433750593, 43.72783684199525], "screen_name": "BrockWager", "time": 1471730805.0, "tid": 767045217065263105, "text": "Jellyfish are cooler than pandas. (@ Great Barrier Reef Exhibit in Toronto, ON) https://t.co/49t1YuimAB", "created_at": "Sat Aug 20 17:06:45 +0000 2016", "klabel": 91}}, {"geometry": {"type": "Point", "coordinates": [-79.18213252, 43.82049248]}, "type": "Feature", "id": 767345676527112194, "properties": {"loc": [-79.18213252, 43.82049248], "centroid": [-79.37023433750593, 43.72783684199525], "screen_name": "MrMikeBax", "time": 1471802440.0, "tid": 767345676527112194, "text": "Checking out a #hippopotamus  #hippo at the toronto_zoo yesterday :) @ The Toronto Zoo https://t.co/yfi3aiCQA7", "created_at": "Sun Aug 21 13:00:40 +0000 2016", "klabel": 91}}, {"geometry": {"type": "Point", "coordinates": [-79.18213252, 43.82049248]}, "type": "Feature", "id": 767381749869477890, "properties": {"loc": [-79.18213252, 43.82049248], "centroid": [-79.37023433750593, 43.72783684199525], "screen_name": "hhead", "time": 1471811041.0, "tid": 767381749869477890, "text": "Just posted a photo @ The Toronto Zoo https://t.co/KYDBMI5WT5", "created_at": "Sun Aug 21 15:24:01 +0000 2016", "klabel": 91}}, {"geometry": {"type": "Point", "coordinates": [-79.171492, 43.809502]}, "type": "Feature", "id": 767418098471301121, "properties": {"loc": [-79.171492, 43.809502], "centroid": [-79.37023433750593, 43.72783684199525], "screen_name": "Mirpaanda", "time": 1471819707.0, "tid": 767418098471301121, "text": "Went to the zoo with bae a couple days ago \ud83d\udc12\ud83d\udc97 @ Toronto Zoo https://t.co/JFqOtzn85I", "created_at": "Sun Aug 21 17:48:27 +0000 2016", "klabel": 91}}, {"geometry": {"type": "Point", "coordinates": [-79.18145033, 43.82033812]}, "type": "Feature", "id": 767425254650241024, "properties": {"loc": [-79.18145033, 43.82033812], "centroid": [-79.37023433750593, 43.72783684199525], "screen_name": "DJ_Casilimas", "time": 1471821413.0, "tid": 767425254650241024, "text": "Gorilla climb course \ud83d\udcaa\ud83c\udffd\ud83d\udcaa\ud83c\udffd\ud83d\udcaa\ud83c\udffd @ TorontoZoo https://t.co/LzMwHw8AJt", "created_at": "Sun Aug 21 18:16:53 +0000 2016", "klabel": 91}}, {"geometry": {"type": "Point", "coordinates": [-79.18145033, 43.82033812]}, "type": "Feature", "id": 767426352937132032, "properties": {"loc": [-79.18145033, 43.82033812], "centroid": [-79.37023433750593, 43.72783684199525], "screen_name": "tifroggie", "time": 1471821675.0, "tid": 767426352937132032, "text": "The first twin pandas born in Canada and their mother at The Toronto Zoo. @ TorontoZoo https://t.co/gbQc0dEPoB", "created_at": "Sun Aug 21 18:21:15 +0000 2016", "klabel": 91}}, {"geometry": {"type": "Point", "coordinates": [-79.18145033, 43.82033812]},