{"type": "FeatureCollection", "features": [{"geometry": {"type": "Point", "coordinates": [-79.303272, 43.682088]}, "type": "Feature", "id": 705100922163081216, "properties": {"loc": [-79.303272, 43.682088], "centroid": [-79.16609702484445, 43.78395564304444], "screen_name": "micahmunro", "time": 1456962134.0, "tid": 705100922163081216, "text": "OPEN HOUSE THIS WEEKEND!  Come visit us this Saturday and Sunday from 2:00-4:00pm at 45 Norwood\u2026 https://t.co/CyKm4rbXm1", "created_at": "Wed Mar 02 18:42:14 +0000 2016", "klabel": 92}}, {"geometry": {"type": "Point", "coordinates": [-79.3024113, 43.6926871]}, "type": "Feature", "id": 705115732107984896, "properties": {"loc": [-79.3024113, 43.6926871], "centroid": [-79.16609702484445, 43.78395564304444], "screen_name": "tofireE", "time": 1456965665.0, "tid": 705115732107984896, "text": "Medical (Chest Pains) - Barrington Avenue b/w Secord Avenue / Lumsden Avenue, East York (2 Trucks)", "created_at": "Wed Mar 02 19:41:05 +0000 2016", "klabel": 92}}, {"geometry": {"type": "Point", "coordinates": [-79.3024113, 43.6926871]}, "type": "Feature", "id": 705115731025895424, "properties": {"loc": [-79.3024113, 43.6926871], "centroid": [-79.16609702484445, 43.78395564304444], "screen_name": "tofire", "time": 1456965665.0, "tid": 705115731025895424, "text": "Medical (Chest Pains) - Barrington Avenue b/w Secord Avenue / Lumsden Avenue, East York (2 Trucks)", "created_at": "Wed Mar 02 19:41:05 +0000 2016", "klabel": 92}}, {"geometry": {"type": "Point", "coordinates": [-79.30158824, 43.68890344]}, "type": "Feature", "id": 705392068693258240, "properties": {"loc": [-79.30158824, 43.68890344], "centroid": [-79.16609702484445, 43.78395564304444], "screen_name": "BarryTheBazman", "time": 1457031549.0, "tid": 705392068693258240, "text": "I'm at Main Street Subway Station in Toronto, ON https://t.co/CRw0IwZzvI", "created_at": "Thu Mar 03 13:59:09 +0000 2016", "klabel": 92}}, {"geometry": {"type": "Point", "coordinates": [-79.3099365, 43.6867218]}, "type": "Feature", "id": 705480363171291136, "properties": {"loc": [-79.3099365, 43.6867218], "centroid": [-79.16609702484445, 43.78395564304444], "screen_name": "DanforthEscape", "time": 1457052600.0, "tid": 705480363171291136, "text": "$15 escape room tickets for students!! Weeknights and with student ID.  Use code student-2016 to\u2026 https://t.co/V54PiRrnSl", "created_at": "Thu Mar 03 19:50:00 +0000 2016", "klabel": 92}}, {"geometry": {"type": "Point", "coordinates": [-79.30946627, 43.68920242]}, "type": "Feature", "id": 705601765081804800, "properties": {"loc": [-79.30946627, 43.68920242], "centroid": [-79.16609702484445, 43.78395564304444], "screen_name": "jonyazer", "time": 1457081544.0, "tid": 705601765081804800, "text": "@travisyost what about calling play dead when player loses a skate blade? unlike other equip malfunction like broken stick, player = useless", "created_at": "Fri Mar 04 03:52:24 +0000 2016", "klabel": 92}}, {"geometry": {"type": "Point", "coordinates": [-79.31541994, 43.68518527]}, "type": "Feature", "id": 705604008875048960, "properties": {"loc": [-79.31541994, 43.68518527], "centroid": [-79.16609702484445, 43.78395564304444], "screen_name": "KeithRobot", "time": 1457082079.0, "tid": 705604008875048960, "text": "Did yuk yuks Ajax. Stopped at Giggles at Groove.", "created_at": "Fri Mar 04 04:01:19 +0000 2016", "klabel": 92}}, {"geometry": {"type": "Point", "coordinates": [-79.31498173, 43.68132952]}, "type": "Feature", "id": 705707366495494144, "properties": {"loc": [-79.31498173, 43.68132952], "centroid": [-79.16609702484445, 43.78395564304444], "screen_name": "ShuckerPaddy", "time": 1457106722.0, "tid": 705707366495494144, "text": "#StPatsWeek2016 March11-17 Heated tent all week, CeiliDance Matchmakers festival, Shucking &amp; Cellarman contests https://t.co/ImPLG00BTx", "created_at": "Fri Mar 04 10:52:02 +0000 2016", "klabel": 92}}, {"geometry": {"type": "Point", "coordinates": [-79.303272, 43.682088]}, "type": "Feature", "id": 705783546909212672, "properties": {"loc": [-79.303272, 43.682088], "centroid": [-79.16609702484445, 43.78395564304444], "screen_name": "micahmunro", "time": 1457124885.0, "tid": 705783546909212672, "text": "Open house this Saturday &amp; Sunday from 2:00-4:00pm at 45 Norwood Rd in the Upper Beaches!\u2026 https://t.co/ycsB92EYI3", "created_at": "Fri Mar 04 15:54:45 +0000 2016", "klabel": 92}}, {"geometry": {"type": "Point", "coordinates": [-79.303272, 43.682088]}, "type": "Feature", "id": 705784009851179008, "properties": {"loc": [-79.303272, 43.682088], "centroid": [-79.16609702484445, 43.78395564304444], "screen_name": "micahmunro", "time": 1457124995.0, "tid": 705784009851179008, "text": "Open house this Saturday &amp; Sunday from 2:00-4:00pm at 45 Norwood Rd in the Upper Beaches!\u2026 https://t.co/VHbqjYLs8Q", "created_at": "Fri Mar 04 15:56:35 +0000 2016", "klabel": 92}}, {"geometry": {"type": "Point", "coordinates": [-79.3050429, 43.6803476]}, "type": "Feature", "id": 705841516309311492, "properties": {"loc": [-79.3050429, 43.6803476], "centroid": [-79.16609702484445, 43.78395564304444], "screen_name": "tofire", "time": 1457138706.0, "tid": 705841516309311492, "text": "Medical (Check Call) - Glen Davis Crescent b/w Glenmount Park Road / Love Crescent, Toronto (2 Trucks)", "created_at": "Fri Mar 04 19:45:06 +0000 2016", "klabel": 92}}, {"geometry": {"type": "Point", "coordinates": [-79.3050429, 43.6803476]}, "type": "Feature", "id": 705841517471076352, "properties": {"loc": [-79.3050429, 43.6803476], "centroid": [-79.16609702484445, 43.78395564304444], "screen_name": "tofireE", "time": 1457138706.0, "tid": 705841517471076352, "text": "Medical (Check Call) - Glen Davis Crescent b/w Glenmount Park Road / Love Crescent, Toronto (2 Trucks)", "created_at": "Fri Mar 04 19:45:06 +0000 2016", "klabel": 92}}, {"geometry": {"type": "Point", "coordinates": [-79.30132876, 43.68922368]}, "type": "Feature", "id": 705900562060087296, "properties": {"loc": [-79.30132876, 43.68922368], "centroid": [-79.16609702484445, 43.78395564304444], "screen_name": "caiodias", "time": 1457152783.0, "tid": 705900562060087296, "text": "@nihkmiec voc\u00ea n\u00e3o tem casaco?", "created_at": "Fri Mar 04 23:39:43 +0000 2016", "klabel": 92}}, {"geometry": {"type": "Point", "coordinates": [-79.31528631, 43.68372878]}, "type": "Feature", "id": 705906556915884036, "properties": {"loc": [-79.31528631, 43.68372878], "centroid": [-79.16609702484445, 43.78395564304444], "screen_name": "LoriAnnComeau", "time": 1457154212.0, "tid": 705906556915884036, "text": "Noah becomes a tobogganing expert. @ East Lynn Park https://t.co/VGAuDcNJmt", "created_at": "Sat Mar 05 00:03:32 +0000 2016", "klabel": 92}}, {"geometry": {"type": "Point", "coordinates": [-79.3024113, 43.6926871]}, "type": "Feature", "id": 705919779643781122, "properties": {"loc": [-79.3024113, 43.6926871], "centroid": [-79.16609702484445, 43.78395564304444], "screen_name": "tofire", "time": 1457157365.0, "tid": 705919779643781122, "text": "Medical (Assist) - Barrington Avenue b/w Secord Avenue / Lumsden Avenue, East York (2 Trucks)", "created_at": "Sat Mar 05 00:56:05 +0000 2016", "klabel": 92}}, {"geometry": {"type": "Point", "coordinates": [-79.31029, 43.686]}, "type": "Feature", "id": 705944858452750337, "properties": {"loc": [-79.31029, 43.686], "centroid": [-79.16609702484445, 43.78395564304444], "screen_name": "manzerhair", "time": 1457163344.0, "tid": 705944858452750337, "text": "Great chart for toning blond hair. @ Manzer Hair Studio https://t.co/AEwBzhtRaf", "created_at": "Sat Mar 05 02:35:44 +0000 2016", "klabel": 92}}, {"geometry": {"type": "Point", "coordinates": [-79.31029, 43.686]}, "type": "Feature", "id": 705945805836914689, "properties": {"loc": [-79.31029, 43.686], "centroid": [-79.16609702484445, 43.78395564304444], "screen_name": "manzerhair", "time": 1457163570.0, "tid": 705945805836914689, "text": "Joico temporary colour intensity's spray in - Sapphire blue.  My husband was a great sport!\u2026 https://t.co/fHKOqUh86T", "created_at": "Sat Mar 05 02:39:30 +0000 2016", "klabel": 92}}, {"geometry": {"type": "Point", "coordinates": [-79.3121944, 43.6842909]}, "type": "Feature", "id": 707625512806576129, "properties": {"loc": [-79.3121944, 43.6842909], "centroid": [-79.16609702484445, 43.78395564304444], "screen_name": "tpscalls", "time": 1457564043.0, "tid": 707625512806576129, "text": "Damage Just Occurred | Mendel Ave &amp; Ln S Danforth E Woodbine [55 Div.] 03/09 12:48 #East_Danforth #Toronto", "created_at": "Wed Mar 09 17:54:03 +0000 2016", "klabel": 92}}, {"geometry": {"type": "Point", "coordinates": [-79.3033492, 43.6951823]}, "type": "Feature", "id": 749782301513506816, "properties": {"loc": [-79.3033492, 43.6951823], "centroid": [-79.16609702484445, 43.78395564304444], "screen_name": "tofireE", "time": 1467615005.0, "tid": 749782301513506816, "text": "Natural Gas Leak - Lumsden Avenue b/w Taylor Creek Trail / Eastdale Avenue, East York (5 Trucks)", "created_at": "Mon Jul 04 01:50:05 +0000 2016", "klabel": 92}}, {"geometry": {"type": "Point", "coordinates": [-79.3100287, 43.6790816]}, "type": "Feature", "id": 749827845887782913, "properties": {"loc": [-79.3100287, 43.6790816], "centroid": [-79.16609702484445, 43.78395564304444], "screen_name": "tpscalls", "time": 1467625864.0, "tid": 749827845887782913, "text": "Fail To Remain Property Damage Collision | Woodbine Ave &amp; Cassels Ave [HP] 07/04 00:45 #Beach_Hill #Toronto", "created_at": "Mon Jul 04 04:51:04 +0000 2016", "klabel": 92}}, {"geometry": {"type": "Point", "coordinates": [-79.31257, 43.680087]}, "type": "Feature", "id": 749966039283150848, "properties": {"loc": [-79.31257, 43.680087], "centroid": [-79.16609702484445, 43.78395564304444], "screen_name": "MapleLeafTavern", "time": 1467658812.0, "tid": 749966039283150848, "text": "Have a fun summer break kids. Bring your parents to the Tavern if they need to get out of the\u2026 https://t.co/iazFys4g4F", "created_at": "Mon Jul 04 14:00:12 +0000 2016", "klabel": 92}}, {"geometry": {"type": "Point", "coordinates": [-79.30175635, 43.68899089]}, "type": "Feature", "id": 749988051657584642, "properties": {"loc": [-79.30175635, 43.68899089], "centroid": [-79.16609702484445, 43.78395564304444], "screen_name": "caiodias", "time": 1467664060.0, "tid": 749988051657584642, "text": "@desisthi algu\u00e9m est\u00e1 falhando nas preliminares", "created_at": "Mon Jul 04 15:27:40 +0000 2016", "klabel": 92}}, {"geometry": {"type": "Point", "coordinates": [-79.3080499, 43.6867995]}, "type": "Feature", "id": 750133610146041857, "properties": {"loc": [-79.3080499, 43.6867995], "centroid": [-79.16609702484445, 43.78395564304444], "screen_name": "tpscalls", "time": 1467698764.0, "tid": 750133610146041857, "text": "See Ambulance | Chatham Ave &amp; Danforth Ave [55 Div.] 07/04 21:01 #Toronto", "created_at": "Tue Jul 05 01:06:04 +0000 2016", "klabel": 92}}, {"geometry": {"type": "Point", "coordinates": [-79.3001702, 43.6839718]}, "type": "Feature", "id": 750149721331826688, "properties": {"loc": [-79.3001702, 43.6839718], "centroid": [-79.16609702484445, 43.78395564304444], "screen_name": "tofire", "time": 1467702605.0, "tid": 750149721331826688, "text": "Wires Down (Hydro) - Main St @ Gerrard St East, Toronto (2 Trucks)", "created_at": "Tue Jul 05 02:10:05 +0000 2016", "klabel": 92}}, {"geometry": {"type": "Point", "coordinates": [-79.3001702, 43.6839718]}, "type": "Feature", "id": 750149722363559936, "properties": {"loc": [-79.3001702, 43.6839718], "centroid": [-79.16609702484445, 43.78395564304444], "screen_name": "tofireE", "time": 1467702605.0, "tid": 750149722363559936, "text": "Wires Down (Hydro) - Main St @ Gerrard St East, Toronto (2 Trucks)", "created_at": "Tue Jul 05 02:10:05 +0000 2016", "klabel": 92}}, {"geometry": {"type": "Point", "coordinates": [-79.30267317, 43.67895108]}, "type": "Feature", "id": 750150426356490240, "properties": {"loc": [-79.30267317, 43.67895108], "centroid": [-79.16609702484445, 43.78395564304444], "screen_name": "jalilarealtor", "time": 1467702773.0, "tid": 750150426356490240, "text": "This bad boy is hitting the market on Wednesday. Huuuge lot. Detached.\n3 Bdrm Bungalow with a\u2026 https://t.co/dMfT9o4DWm", "created_at": "Tue Jul 05 02:12:53 +0000 2016", "klabel": 92}}, {"geometry": {"type": "Point", "coordinates": [-79.30176131, 43.68899891]}, "type": "Feature", "id": 750360155859148800, "properties": {"loc": [-79.30176131, 43.68899891], "centroid": [-79.16609702484445, 43.78395564304444], "screen_name": "caiodias", "time": 1467752776.0, "tid": 750360155859148800, "text": "@bonelam e por que eu removeria o Safari?\nSe ele funciona melhor no macOS e j\u00e1 tem as extens\u00f5es que costumo usar para me proteger.", "created_at": "Tue Jul 05 16:06:16 +0000 2016", "klabel": 92}}, {"geometry": {"type": "Point", "coordinates": [-79.30175418, 43.68900596]}, "type": "Feature", "id": 750361338799529984, "properties": {"loc": [-79.30175418, 43.68900596], "centroid": [-79.16609702484445, 43.78395564304444], "screen_name": "caiodias", "time": 1467753058.0, "tid": 750361338799529984, "text": "@victorcaparica at\u00e9 porque um carro do Google o foco deve ser em detalhar ainda mais o perfil do usu\u00e1rio para vender ad", "created_at": "Tue Jul 05 16:10:58 +0000 2016", "klabel": 92}}, {"geometry": {"type": "Point", "coordinates": [-79.3033492, 43.6951823]}, "type": "Feature", "id": 751827022989647872, "properties": {"loc": [-79.3033492, 43.6951823], "centroid": [-79.16609702484445, 43.78395564304444], "screen_name": "tofireE", "time": 1468102505.0, "tid": 751827022989647872, "text": "Medical (Unconscious) - Lumsden Avenue b/w Taylor Creek Trail / Eastdale Avenue, East York (2 Trucks)", "created_at": "Sat Jul 09 17:15:05 +0000 2016", "klabel": 92}}, {"geometry": {"type": "Point", "coordinates": [-79.2992, 43.6867]}, "type": "Feature", "id": 751849539779305472, "properties": {"loc": [-79.2992, 43.6867], "centroid": [-79.16609702484445, 43.78395564304444], "screen_name": "milneamy", "time": 1468107873.0, "tid": 751849539779305472, "text": "Selfie fun with these two. On our way to roast a pig! #pigroast #tradition #momofboys\u2026 https://t.co/WZ2AYFT5fw", "created_at": "Sat Jul 09 18:44:33 +0000 2016", "klabel": 92}}, {"geometry": {"type": "Point", "coordinates": [-79.3006078, 43.694418]}, "type": "Feature", "id": 751860994658435072, "properties": {"loc": [-79.3006078, 43.694418], "centroid": [-79.16609702484445, 43.78395564304444], "screen_name": "tpscalls", "time": 1468110604.0, "tid": 751860994658435072, "text": "See Ambulance | Taylor Creek Trl &amp; Eastdale Ave [54 Div.] 07/09 15:24 #Old_East_York #Toronto", "created_at": "Sat Jul 09 19:30:04 +0000 2016", "klabel": 92}}, {"geometry": {"type": "Point", "coordinates": [-79.3153763, 43.6854706]}, "type": "Feature", "id": 751884671487733761, "properties": {"loc": [-79.3153763, 43.6854706], "centroid": [-79.16609702484445, 43.78395564304444], "screen_name": "TeeMacx", "time": 1468116249.0, "tid": 751884671487733761, "text": "A smol woof came in today for a coffee and a nap. #dogstagram\u2026 https://t.co/awFGC3uiw7", "created_at": "Sat Jul 09 21:04:09 +0000 2016", "klabel": 92}}, {"geometry": {"type": "Point", "coordinates": [-79.3028473, 43.6833957]}, "type": "Feature", "id": 751893712939151361, "properties": {"loc": [-79.3028473, 43.6833957], "centroid": [-79.16609702484445, 43.78395564304444], "screen_name": "tofireE", "time": 1468118405.0, "tid": 751893712939151361, "text": "Medical (Unconscious) - Gerrard St b/w Norwood Road / Enderby Road, Toronto (2 Trucks)", "created_at": "Sat Jul 09 21:40:05 +0000 2016", "klabel": 92}}, {"geometry": {"type": "Point", "coordinates": [-79.3049395, 43.6925111]}, "type": "Feature", "id": 751942531030650880, "properties": {"loc": [-79.3049395, 43.6925111], "centroid": [-79.16609702484445, 43.78395564304444], "screen_name": "tpscalls", "time": 1468130044.0, "tid": 751942531030650880, "text": "See Ambulance | Westlake Ave &amp; Chisholm Ave [55 Div.] 07/09 20:50 #Woodbine_Heights #Toronto", "created_at": "Sun Jul 10 00:54:04 +0000 2016", "klabel": 92}}, {"geometry": {"type": "Point", "coordinates": [-79.3127457, 43.6856699]}, "type": "Feature", "id": 751992360083525632, "properties": {"loc": [-79.3127457, 43.6856699], "centroid": [-79.16609702484445, 43.78395564304444], "screen_name": "tpscalls", "time": 1468141924.0, "tid": 751992360083525632, "text": "Hazard | Woodbine Ave &amp; Danforth Ave [54 Div.] 07/10 00:08 #Woodbine_Lumsden #Toronto", "created_at": "Sun Jul 10 04:12:04 +0000 2016", "klabel": 92}}, {"geometry": {"type": "Point", "coordinates": [-79.3018044, 43.6881561]}, "type": "Feature", "id": 752067100462710784, "properties": {"loc": [-79.3018044, 43.6881561], "centroid": [-79.16609702484445, 43.78395564304444], "screen_name": "tpscalls", "time": 1468159744.0, "tid": 752067100462710784, "text": "Disorderlies | Danforth Ave &amp; Main St [55 Div.] 07/10 05:04 #Danforth_Village #Toronto", "created_at": "Sun Jul 10 09:09:04 +0000 2016", "klabel": 92}}, {"geometry": {"type": "Point", "coordinates": [-79.31464455, 43.69798763]}, "type": "Feature", "id": 752170504400674817, "properties": {"loc": [-79.31464455, 43.69798763], "centroid": [-79.16609702484445, 43.78395564304444], "screen_name": "JRPasicolan", "time": 1468184397.0, "tid": 752170504400674817, "text": "Semi-finals time!!! Let's get 'em BULLGOGS!!!! @ Stan Wadlow Park https://t.co/TdWv6ZbrYM", "created_at": "Sun Jul 10 15:59:57 +0000 2016", "klabel": 92}}, {"geometry": {"type": "Point", "coordinates": [-79.298824, 43.6808089]}, "type": "Feature", "id": 752183372793929728, "properties": {"loc": [-79.298824, 43.6808089], "centroid": [-79.16609702484445, 43.78395564304444], "screen_name": "tofireE", "time": 1468187465.0, "tid": 752183372793929728, "text": "Medical (Trouble Breathing) - Main St b/w Benlamond Avenue / Swanwick Avenue, Toronto (2 Trucks)", "created_at": "Sun Jul 10 16:51:05 +0000 2016", "klabel": 92}}, {"geometry": {"type": "Point", "coordinates": [-79.298824, 43.6808089]}, "type": "Feature", "id": 752183371942522880, "properties": {"loc": [-79.298824, 43.6808089], "centroid": [-79.16609702484445, 43.78395564304444], "screen_name": "tofire", "time": 1468187465.0, "tid": 752183371942522880, "text": "Medical (Trouble Breathing) - Main St b/w Benlamond Avenue / Swanwick Avenue, Toronto (2 Trucks)", "created_at": "Sun Jul 10 16:51:05 +0000 2016", "klabel": 92}}, {"geometry": {"type": "Point", "coordinates": [-79.3153974, 43.6917856]}, "type": "Feature", "id": 752209547754897408, "properties": {"loc": [-79.3153974, 43.6917856], "centroid": [-79.16609702484445, 43.78395564304444], "screen_name": "tofire", "time": 1468193706.0, "tid": 752209547754897408, "text": "Medical (Vsa) - Woodbine Avenue b/w Frater Avenue / Mortimer Avenue, East York (2 Trucks)", "created_at": "Sun Jul 10 18:35:06 +0000 2016", "klabel": 92}}, {"geometry": {"type": "Point", "coordinates": [-79.3111171, 43.6972207]}, "type": "Feature", "id": 752282521929388032, "properties": {"loc": [-79.3111171, 43.6972207], "centroid": [-79.16609702484445, 43.78395564304444], "screen_name": "tofireE", "time": 1468211104.0, "tid": 752282521929388032, "text": "Medical (Trouble Breathing) - Haldon Avenue b/w Cosburn Avenue / Taylor Creek Trail, East York (2 Trucks)", "created_at": "Sun Jul 10 23:25:04 +0000 2016", "klabel": 92}}, {"geometry": {"type": "Point", "coordinates": [-79.31528631, 43.68372878]}, "type": "Feature", "id": 752285464350978048, "properties": {"loc": [-79.31528631, 43.68372878], "centroid": [-79.16609702484445, 43.78395564304444], "screen_name": "sstanleymusic", "time": 1468211806.0, "tid": 752285464350978048, "text": "Me and the boys this Wednesday evening at #eastlynnpark #thedannylovesmusic 6-9pm... @ East Lynn\u2026 https://t.co/Y1atz35Dl0", "created_at": "Sun Jul 10 23:36:46 +0000 2016", "klabel": 92}}, {"geometry": {"type": "Point", "coordinates": [-79.30178179, 43.68896723]}, "type": "Feature", "id": 752686136653471744, "properties": {"loc": [-79.30178179, 43.68896723], "centroid": [-79.16609702484445, 43.78395564304444], "screen_name": "caiodias", "time": 1468307333.0, "tid": 752686136653471744, "text": "E com o cabo Lightning n\u00e3o morrendo em poucos meses? https://t.co/0t9X3u7Mee", "created_at": "Tue Jul 12 02:08:53 +0000 2016", "klabel": 92}}, {"geometry": {"type": "Point", "coordinates": [-79.3102992, 43.6800762]}, "type": "Feature", "id": 752712216554582016, "properties": {"loc": [-79.3102992, 43.6800762], "centroid": [-79.16609702484445, 43.78395564304444], "screen_name": "ashtontekno", "time": 1468313551.0, "tid": 752712216554582016, "text": "Love @500px but, what this with the potraits? #blacksidebarsneedtogo #500px https://t.co/cLq5wjXvbX", "created_at": "Tue Jul 12 03:52:31 +0000 2016", "klabel": 92}}, {"geometry": {"type": "Point", "coordinates": [-79.30175688, 43.68900342]}, "type": "Feature", "id": 752896722439987200, "properties": {"loc": [-79.30175688, 43.68900342], "centroid": [-79.16609702484445, 43.78395564304444], "screen_name": "caiodias", "time": 1468357541.0, "tid": 752896722439987200, "text": "@izzynobre Pok\u00e9mon theme music", "created_at": "Tue Jul 12 16:05:41 +0000 2016", "klabel": 92}}, {"geometry": {"type": "Point", "coordinates": [-79.30175688, 43.68900342]}, "type": "Feature", "id": 752896731881373696, "properties": {"loc": [-79.30175688, 43.68900342], "centroid": [-79.16609702484445, 43.78395564304444], "screen_name": "caiodias", "time": 1468357543.0, "tid": 752896731881373696, "text": "@Cardoso est\u00e3o esperando ficar mais pr\u00f3ximo para come\u00e7ar o #N\u00e3oVaiTerOlimp\u00edadas", "created_at": "Tue Jul 12 16:05:43 +0000 2016", "klabel": 92}}, {"geometry": {"type": "Point", "coordinates": [-79.30175688, 43.68900342]}, "type": "Feature", "id": 752896911909134338, "properties": {"loc": [-79.30175688, 43.68900342], "centroid": [-79.16609702484445, 43.78395564304444], "screen_name": "caiodias", "time": 1468357586.0, "tid": 752896911909134338, "text": "TL;DR; jogue #Pok\u00e9monGO para valer https://t.co/70apSvoTHh", "created_at": "Tue Jul 12 16:06:26 +0000 2016", "klabel": 92}}, {"geometry": {"type": "Point", "coordinates": [-79.3045467, 43.6864286]}, "type": "Feature", "id": 752950941440176128, "properties": {"loc": [-79.3045467, 43.6864286], "centroid": [-79.16609702484445, 43.78395564304444], "screen_name": "tofire", "time": 1468370468.0, "tid": 752950941440176128, "text": "Medical (Allergy) - Stephenson Avenue b/w Westlake Avenue / Lane West Main St North Stephenson, Toronto (2 Trucks)", "created_at": "Tue Jul 12 19:41:08 +0000 2016", "klabel": 92}}, {"geometry": {"type": "Point", "coordinates": [-79.3045467, 43.6864286]}, "type": "Feature", "id": 752950942237073408, "properties": {"loc": [-79.3045467, 43.6864286], "centroid": [-79.16609702484445, 43.78395564304444], "screen_name": "tofireE", "time": 1468370468.0, "tid": 752950942237073408, "text": "Medical (Allergy) - Stephenson Avenue b/w Westlake Avenue / Lane West Main St North Stephenson, Toronto (2 Trucks)", "created_at": "Tue Jul 12 19:41:08 +0000 2016", "klabel": 92}}, {"geometry": {"type": "Point", "coordinates": [-79.3155, 43.69276]}, "type": "Feature", "id": 752971925530423296, "properties": {"loc": [-79.3155, 43.69276], "centroid": [-79.16609702484445, 43.78395564304444], "screen_name": "mikafleur", "time": 1468375471.0, "tid": 752971925530423296, "text": "Great news! #mikafleur's #creations are now available @shopgotamago at her brand new studio!\u2026 https://t.co/p55bdEJ5G9", "created_at": "Tue Jul 12 21:04:31 +0000 2016", "klabel": 92}}, {"geometry": {"type": "Point", "coordinates": [-79.3082776, 43.6943952]}, "type": "Feature", "id": 753015348836827136, "properties": {"loc": [-79.3082776, 43.6943952], "centroid": [-79.16609702484445, 43.78395564304444], "screen_name": "tpscalls", "time": 1468385824.0, "tid": 753015348836827136, "text": "See Ambulance | Secord Ave &amp; Lumsden Ave [54 Div.] 07/12 19:53 #Old_East_York #Toronto", "created_at": "Tue Jul 12 23:57:04 +0000 2016", "klabel": 92}}, {"geometry": {"type": "Point", "coordinates": [-79.31257, 43.680087]}, "type": "Feature", "id": 753267265970266112, "properties": {"loc": [-79.31257, 43.680087], "centroid": [-79.16609702484445, 43.78395564304444], "screen_name": "MapleLeafTavern", "time": 1468445885.0, "tid": 753267265970266112, "text": "Smoked Salmon Crudo at the Maple Leaf Tavern #gerrardsteast #leslieville #tavern #mltavern @ 955\u2026 https://t.co/QPcdUYhQ6G", "created_at": "Wed Jul 13 16:38:05 +0000 2016", "klabel": 92}}, {"geometry": {"type": "Point", "coordinates": [-79.30119367, 43.68918706]}, "type": "Feature", "id": 753567704938930176, "properties": {"loc": [-79.30119367, 43.68918706], "centroid": [-79.16609702484445, 43.78395564304444], "screen_name": "scottrourk", "time": 1468517516.0, "tid": 753567704938930176, "text": "Subway kids on their way to soccer camp rendezvous_to @ Main Subway Station https://t.co/W6BUtz5CRk", "created_at": "Thu Jul 14 12:31:56 +0000 2016", "klabel": 92}}, {"geometry": {"type": "Point", "coordinates": [-79.30176572, 43.68897177]}, "type": "Feature", "id": 753639627144175616, "properties": {"loc": [-79.30176572, 43.68897177], "centroid": [-79.16609702484445, 43.78395564304444], "screen_name": "caiodias", "time": 1468534663.0, "tid": 753639627144175616, "text": "@thwtff tem que ter muita f\u00e9 nesse cara mesmo para fazer isso.", "created_at": "Thu Jul 14 17:17:43 +0000 2016", "klabel": 92}}, {"geometry": {"type": "Point", "coordinates": [-79.30176572, 43.68897177]}, "type": "Feature", "id": 753643606171353089, "properties": {"loc": [-79.30176572, 43.68897177], "centroid": [-79.16609702484445, 43.78395564304444], "screen_name": "MrCaioDias", "time": 1468535612.0, "tid": 753643606171353089, "text": "\u00af\\_(\u30c4)_/\u00af \n#InfoSec https://t.co/Zrx4jv9yUU", "created_at": "Thu Jul 14 17:33:32 +0000 2016", "klabel": 92}}, {"geometry": {"type": "Point", "coordinates": [-79.30176572, 43.68897177]}, "type": "Feature", "id": 753643871553323008, "properties": {"loc": [-79.30176572, 43.68897177], "centroid": [-79.16609702484445, 43.78395564304444], "screen_name": "caiodias", "time": 1468535675.0, "tid": 753643871553323008, "text": "@proveisso e a gente nunca jogou cc @TangoGV", "created_at": "Thu Jul 14 17:34:35 +0000 2016", "klabel": 92}}, {"geometry": {"type": "Point", "coordinates": [-79.3155622, 43.6944453]}, "type": "Feature", "id": 753690554953822208, "properties": {"loc": [-79.3155622, 43.6944453], "centroid": [-79.16609702484445, 43.78395564304444], "screen_name": "tofire", "time": 1468546805.0, "tid": 753690554953822208, "text": "Alarm Residential - Barker Avenue b/w Coleridge Avenue / Cedarvale Avenue, East York (6 Trucks)", "created_at": "Thu Jul 14 20:40:05 +0000 2016", "klabel": 92}}, {"geometry": {"type": "Point", "coordinates": [-79.3155622, 43.6944453]}, "type": "Feature", "id": 753690555830460421, "properties": {"loc": [-79.3155622, 43.6944453], "centroid": [-79.16609702484445, 43.78395564304444], "screen_name": "tofireE", "time": 1468546806.0, "tid": 753690555830460421, "text": "Alarm Residential - Barker Avenue b/w Coleridge Avenue / Cedarvale Avenue, East York (6 Trucks)", "created_at": "Thu Jul 14 20:40:06 +0000 2016", "klabel": 92}}, {"geometry": {"type": "Point", "coordinates": [-79.3100287, 43.6790816]}, "type": "Feature", "id": 753834492603752448, "properties": {"loc": [-79.3100287, 43.6790816], "centroid": [-79.16609702484445, 43.78395564304444], "screen_name": "tpscalls", "time": 1468581123.0, "tid": 753834492603752448, "text": "Stabbing | Woodbine Ave &amp; Cassels Ave [55 Div.] 07/15 02:07 #Beach_Hill #Toronto", "created_at": "Fri Jul 15 06:12:03 +0000 2016", "klabel": 92}}, {"geometry": {"type": "Point", "coordinates": [-79.3082776, 43.6943952]}, "type": "Feature", "id": 753841541152583681, "properties": {"loc": [-79.3082776, 43.6943952], "centroid": [-79.16609702484445, 43.78395564304444], "screen_name": "tpscalls", "time": 1468582803.0, "tid": 753841541152583681, "text": "Robbery | Secord Ave &amp; Lumsden Ave [54 Div.] 07/15 02:35 #Old_East_York #Toronto", "created_at": "Fri Jul 15 06:40:03 +0000 2016", "klabel": 92}}, {"geometry": {"type": "Point", "coordinates": [-79.3045467, 43.6864286]}, "type": "Feature", "id": 754018961017171972, "properties": {"loc": [-79.3045467, 43.6864286], "centroid": [-79.16609702484445, 43.78395564304444], "screen_name": "tpscalls", "time": 1468625103.0, "tid": 754018961017171972, "text": "Break &amp; Enter Just Occurred | Westlake Ave &amp; Ln W Main St N Stephenson [55 Div.] 07/15 14:20 #The_Danforth #Toronto", "created_at": "Fri Jul 15 18:25:03 +0000 2016", "klabel": 92}}, {"geometry": {"type": "Point", "coordinates": [-79.3158615, 43.6784712]}, "type": "Feature", "id": 754043622165708801, "properties": {"loc": [-79.3158615, 43.6784712], "centroid": [-79.16609702484445, 43.78395564304444], "screen_name": "tpscalls", "time": 1468630983.0, "tid": 754043622165708801, "text": "Unknown Trouble | Beaton Ave &amp; Hollywood Cres [55 Div.] 07/15 15:58 #Beach_Hill #Toronto", "created_at": "Fri Jul 15 20:03:03 +0000 2016", "klabel": 92}}, {"geometry": {"type": "Point", "coordinates": [-79.3121944, 43.6842909]}, "type": "Feature", "id": 754168950502658052, "properties": {"loc": [-79.3121944, 43.6842909], "centroid": [-79.16609702484445, 43.78395564304444], "screen_name": "tpscalls", "time": 1468660864.0, "tid": 754168950502658052, "text": "Drunk | Mendel Ave &amp; Ln S Danforth E Woodbine [55 Div.] 07/16 00:16 #East_Danforth #Toronto", "created_at": "Sat Jul 16 04:21:04 +0000 2016", "klabel": 92}}, {"geometry": {"type": "Point", "coordinates": [-79.3150126, 43.6780813]}, "type": "Feature", "id": 754289234769510401, "properties": {"loc": [-79.3150126, 43.6780813], "centroid": [-79.16609702484445, 43.78395564304444], "screen_name": "tpscalls", "time": 1468689542.0, "tid": 754289234769510401, "text": "Hazard | Bowmore Rd &amp; Gerrard St E [55 Div.] 07/16 08:13 #Beach_Hill #Toronto", "created_at": "Sat Jul 16 12:19:02 +0000 2016", "klabel": 92}}, {"geometry": {"type": "Point", "coordinates": [-79.3006078, 43.694418]}, "type": "Feature", "id": 754296030099890176, "properties": {"loc": [-79.3006078, 43.694418], "centroid": [-79.16609702484445, 43.78395564304444], "screen_name": "tpscalls", "time": 1468691162.0, "tid": 754296030099890176, "text": "Noise Complaint | Taylor Creek Trl &amp; Eastdale Ave [54 Div.] 07/16 08:40 #Old_East_York #Toronto", "created_at": "Sat Jul 16 12:46:02 +0000 2016", "klabel": 92}}, {"geometry": {"type": "Point", "coordinates": [-79.31210826, 43.68601991]}, "type": "Feature", "id": 754390631859060736, "properties": {"loc": [-79.31210826, 43.68601991], "centroid": [-79.16609702484445, 43.78395564304444], "screen_name": "mzmcgee23", "time": 1468713717.0, "tid": 754390631859060736, "text": "So thankful for Judy at Everybody's Hair on the Danforth. She has been a true friend and I could\u2026 https://t.co/bPIRLoASLD", "created_at": "Sat Jul 16 19:01:57 +0000 2016", "klabel": 92}}, {"geometry": {"type": "Point", "coordinates": [-79.298824, 43.6808089]}, "type": "Feature", "id": 754456865199665152, "properties": {"loc": [-79.298824, 43.6808089], "centroid": [-79.16609702484445, 43.78395564304444], "screen_name": "tofire", "time": 1468729508.0, "tid": 754456865199665152, "text": "Medical (Trouble Breathing) - Main St b/w Benlamond Avenue / Swanwick Avenue, Toronto (2 Trucks)", "created_at": "Sat Jul 16 23:25:08 +0000 2016", "klabel": 92}}, {"geometry": {"type": "Point", "coordinates": [-79.298824, 43.6808089]}, "type": "Feature", "id": 754456866483306496, "properties": {"loc": [-79.298824, 43.6808089], "centroid": [-79.16609702484445, 43.78395564304444], "screen_name": "tofireE", "time": 1468729508.0, "tid": 754456866483306496, "text": "Medical (Trouble Breathing) - Main St b/w Benlamond Avenue / Swanwick Avenue, Toronto (2 Trucks)", "created_at": "Sat Jul 16 23:25:08 +0000 2016", "klabel": 92}}, {"geometry": {"type": "Point", "coordinates": [-79.3045467, 43.6864286]}, "type": "Feature", "id": 754536623774236673, "properties": {"loc": [-79.3045467, 43.6864286], "centroid": [-79.16609702484445, 43.78395564304444], "screen_name": "tpscalls", "time": 1468748524.0, "tid": 754536623774236673, "text": "Noisy Party | Westlake Ave &amp; Ln W Main St N Stephenson [55 Div.] 07/17 00:36 #The_Danforth #Toronto", "created_at": "Sun Jul 17 04:42:04 +0000 2016", "klabel": 92}}, {"geometry": {"type": "Point", "coordinates": [-79.3140439, 43.6948345]}, "type": "Feature", "id": 754588207258411008, "properties": {"loc": [-79.3140439, 43.6948345], "centroid": [-79.16609702484445, 43.78395564304444], "screen_name": "tpscalls", "time": 1468760822.0, "tid": 754588207258411008, "text": "Noise Complaint | Lumsden Ave &amp; Barker Ave [54 Div.] 07/17 04:01 #Old_East_York #Toronto", "created_at": "Sun Jul 17 08:07:02 +0000 2016", "klabel": 92}}, {"geometry": {"type": "Point", "coordinates": [-79.3023491, 43.6958435]}, "type": "Feature", "id": 754591333432619008, "properties": {"loc": [-79.3023491, 43.6958435], "centroid": [-79.16609702484445, 43.78395564304444], "screen_name": "RamaabyaNatalie", "time": 1468761568.0, "tid": 754591333432619008, "text": "J Cole every fucking day \ud83d\ude4c\ud83d\ude0d\ud83d\udd25\ud83d\udcaf", "created_at": "Sun Jul 17 08:19:28 +0000 2016", "klabel": 92}}, {"geometry": {"type": "Point", "coordinates": [-79.2992, 43.6845]}, "type": "Feature", "id": 754644113832742912, "properties": {"loc": [-79.2992, 43.6845], "centroid": [-79.16609702484445, 43.78395564304444], "screen_name": "AnneMarieClune", "time": 1468774152.0, "tid": 754644113832742912, "text": "GREAT drink. New favourite friend after #sundaymorningtorturerun  #oceanspraypact @ Ted Reeve Arena https://t.co/B05Ay7NLGS", "created_at": "Sun Jul 17 11:49:12 +0000 2016", "klabel": 92}}, {"geometry": {"type": "Point", "coordinates": [-79.30176202, 43.68899326]}, "type": "Feature", "id": 754697050386817025, "properties": {"loc": [-79.30176202, 43.68899326], "centroid": [-79.16609702484445, 43.78395564304444], "screen_name": "caiodias", "time": 1468786773.0, "tid": 754697050386817025, "text": "@Cardoso falhei antes mesmo de terminar de ler o seu tu\u00edte.", "created_at": "Sun Jul 17 15:19:33 +0000 2016", "klabel": 92}}, {"geometry": {"type": "Point", "coordinates": [-79.29767, 43.68281]}, "type": "Feature", "id": 754700596876185600, "properties": {"loc": [-79.29767, 43.68281], "centroid": [-79.16609702484445, 43.78395564304444], "screen_name": "mrdcoolteacher", "time": 1468787618.0, "tid": 754700596876185600, "text": "Just posted a photo @ St Saviours Anglican Church https://t.co/14gn8ILKar", "created_at": "Sun Jul 17 15:33:38 +0000 2016", "klabel": 92}}, {"geometry": {"type": "Point", "coordinates": [-79.31464455, 43.69798763]}, "type": "Feature", "id": 754810420498575360, "properties": {"loc": [-79.31464455, 43.69798763], "centroid": [-79.16609702484445, 43.78395564304444], "screen_name": "ChefCorbin", "time": 1468813802.0, "tid": 754810420498575360, "text": "Sunday night baseball practise. Go Bulldogs! #baseball #theoldballgame @ Stan Wadlow Park https://t.co/jsfVTYtAyV", "created_at": "Sun Jul 17 22:50:02 +0000 2016", "klabel": 92}}, {"geometry": {"type": "Point", "coordinates": [-79.3018044, 43.6881561]}, "type": "Feature", "id": 755020557565956096, "properties": {"loc": [-79.3018044, 43.6881561], "centroid": [-79.16609702484445, 43.78395564304444], "screen_name": "tpscalls", "time": 1468863903.0, "tid": 755020557565956096, "text": "Dispute | Main St &amp; Danforth Ave [55 Div.] 07/18 08:41 #Danforth_Village #Toronto", "created_at": "Mon Jul 18 12:45:03 +0000 2016", "klabel": 92}}, {"geometry": {"type": "Point", "coordinates": [-79.3082472, 43.6859907]}, "type": "Feature", "id": 755068879496417284, "properties": {"loc": [-79.3082472, 43.6859907], "centroid": [-79.16609702484445, 43.78395564304444], "screen_name": "tpscalls", "time": 1468875424.0, "tid": 755068879496417284, "text": "Break &amp; Enter | Cedarvale Ave &amp; Patricia Dr [54 Div.] 07/18 11:53 #Woodbine_Lumsden #Toronto", "created_at": "Mon Jul 18 15:57:04 +0000 2016", "klabel": 92}}, {"geometry": {"type": "Point", "coordinates": [-79.3113397, 43.6869492]}, "type": "Feature", "id": 755102607320969217, "properties": {"loc": [-79.3113397, 43.6869492], "centroid": [-79.16609702484445, 43.78395564304444], "screen_name": "tofireE", "time": 1468883465.0, "tid": 755102607320969217, "text": "Fire (Residential) - Cedarvale Avenue b/w Strathmore Boulevard / Milverton Boulevard, East York (7 Trucks)", "created_at": "Mon Jul 18 18:11:05 +0000 2016", "klabel": 92}}, {"geometry": {"type": "Point", "coordinates": [-79.3034944, 43.681247]}, "type": "Feature", "id": 755103618815098880, "properties": {"loc": [-79.3034944, 43.681247], "centroid": [-79.16609702484445, 43.78395564304444], "screen_name": "tofire", "time": 1468883706.0, "tid": 755103618815098880, "text": "Wires Down (Hydro) -  Toronto (2 Trucks)", "created_at": "Mon Jul 18 18:15:06 +0000 2016", "klabel": 92}}, {"geometry": {"type": "Point", "coordinates": [-79.3127457, 43.6856699]}, "type": "Feature", "id": 755156455532134401, "properties": {"loc": [-79.3127457, 43.6856699], "centroid": [-79.16609702484445, 43.78395564304444], "screen_name": "tpscalls", "time": 1468896303.0, "tid": 755156455532134401, "text": "Arrest | Danforth Ave &amp; Ln N Danforth W Woodbine [54 Div.] 07/18 17:41 #Woodbine_Lumsden #Toronto", "created_at": "Mon Jul 18 21:45:03 +0000 2016", "klabel": 92}}, {"geometry": {"type": "Point", "coordinates": [-79.3127457, 43.6856699]}, "type": "Feature", "id": 755209308288192512, "properties": {"loc": [-79.3127457, 43.6856699], "centroid": [-79.16609702484445, 43.78395564304444], "screen_name": "tpscalls", "time": 1468908904.0, "tid": 755209308288192512, "text": "Arrest | Danforth Ave &amp; Ln N Danforth W Woodbine [54 Div.] 07/18 21:11 #Woodbine_Lumsden #Toronto", "created_at": "Tue Jul 19 01:15:04 +0000 2016", "klabel": 92}}, {"geometry": {"type": "Point", "coordinates": [-79.303736, 43.687824]}, "type": "Feature", "id": 755243781583089664, "properties": {"loc": [-79.303736, 43.687824], "centroid": [-79.16609702484445, 43.78395564304444], "screen_name": "y_Khanua", "time": 1468917123.0, "tid": 755243781583089664, "text": "Just posted a photo @ Legion of Mary Toronto Regia https://t.co/vYuXuDFbpi", "created_at": "Tue Jul 19 03:32:03 +0000 2016", "klabel": 92}}, {"geometry": {"type": "Point", "coordinates": [-79.3080499, 43.6867995]}, "type": "Feature", "id": 755353502076006400, "properties": {"loc": [-79.3080499, 43.6867995], "centroid": [-79.16609702484445, 43.78395564304444], "screen_name": "tpscalls", "time": 1468943283.0, "tid": 755353502076006400, "text": "Disorderlies | Harcourt Ave &amp; Danforth Ave [55 Div.] 07/19 06:44 #Toronto", "created_at": "Tue Jul 19 10:48:03 +0000 2016", "klabel": 92}}, {"geometry": {"type": "Point", "coordinates": [-79.3088692, 43.695837]}, "type": "Feature", "id": 755355768262651908, "properties": {"loc": [-79.3088692, 43.695837], "centroid": [-79.16609702484445, 43.78395564304444], "screen_name": "tpscalls", "time": 1468943823.0, "tid": 755355768262651908, "text": "Wires Down | Westlake Ave &amp; Cambrai Ave [54 Div.] 07/19 06:51 #Old_East_York #Toronto", "created_at": "Tue Jul 19 10:57:03 +0000 2016", "klabel": 92}}, {"geometry": {"type": "Point", "coordinates": [-79.31231393, 43.67986074]}, "type": "Feature", "id": 755416145792905216, "properties": {"loc": [-79.31231393, 43.67986074], "centroid": [-79.16609702484445, 43.78395564304444], "screen_name": "sspboyd", "time": 1468958218.0, "tid": 755416145792905216, "text": "This church gets it. #pokestop @ Forward Baptist Church (Toronto) https://t.co/qOs3mmW4ey", "created_at": "Tue Jul 19 14:56:58 +0000 2016", "klabel": 92}}, {"geometry": {"type": "Point", "coordinates": [-79.3107504, 43.6807883]}, "type": "Feature", "id": 755445611432992768, "properties": {"loc": [-79.3107504, 43.6807883], "centroid": [-79.16609702484445, 43.78395564304444], "screen_name": "tpscalls", "time": 1468965243.0, "tid": 755445611432992768, "text": "Hazard | Woodbine Ave &amp; Gerrard St E [5GRP] 07/19 12:49 #Beach_Hill #Toronto", "created_at": "Tue Jul 19 16:54:03 +0000 2016", "klabel": 92}}, {"geometry": {"type": "Point", "coordinates": [-79.3006509, 43.6837361]}, "type": "Feature", "id": 755471576032645120, "properties": {"loc": [-79.3006509, 43.6837361], "centroid": [-79.16609702484445, 43.78395564304444], "screen_name": "thecubetech", "time": 1468971434.0, "tid": 755471576032645120, "text": "Boys &amp; Girls\u2019 After School Robotics - WeDo 2.0 LEGO Robotics  https://t.co/Xit4WtcYEn", "created_at": "Tue Jul 19 18:37:14 +0000 2016", "klabel": 92}}, {"geometry": {"type": "Point", "coordinates": [-79.3006509, 43.6837361]}, "type": "Feature", "id": 755477194449661952, "properties": {"loc": [-79.3006509, 43.6837361], "centroid": [-79.16609702484445, 43.78395564304444], "screen_name": "thecubetech", "time": 1468972773.0, "tid": 755477194449661952, "text": "EV3 LEGO Robotics- Grades 5 to 7  https://t.co/nsL0lIERQd", "created_at": "Tue Jul 19 18:59:33 +0000 2016", "klabel": 92}}, {"geometry": {"type": "Point", "coordinates": [-79.3006509, 43.6837361]}, "type": "Feature", "id": 755479416352874498, "properties": {"loc": [-79.3006509, 43.6837361], "centroid": [-79.16609702484445, 43.78395564304444], "screen_name": "thecubetech", "time": 1468973303.0, "tid": 755479416352874498, "text": "Intro to Web Programming with HTML &amp; CSS, Grades 4 to 6  https://t.co/dh2dap1Zvh", "created_at": "Tue Jul 19 19:08:23 +0000 2016", "klabel": 92}}, {"geometry": {"type": "Point", "coordinates": [-79.3006509, 43.6837361]}, "type": "Feature", "id": 755480250272800769, "properties": {"loc": [-79.3006509, 43.6837361], "centroid": [-79.16609702484445, 43.78395564304444], "screen_name": "thecubetech", "time": 1468973502.0, "tid": 755480250272800769, "text": "Web Programming with HTML &amp; CSS Level 2 Grades 4 to 6  https://t.co/UQG0dwlmX0", "created_at": "Tue Jul 19 19:11:42 +0000 2016", "klabel": 92}}, {"geometry": {"type": "Point", "coordinates": [-79.3134715, 43.6840181]}, "type": "Feature", "id": 755481092740751360, "properties": {"loc": [-79.3134715, 43.6840181], "centroid": [-79.16609702484445, 43.78395564304444], "screen_name": "tpscalls", "time": 1468973703.0, "tid": 755481092740751360, "text": "Personal Injury Collision | East Lynn Ave &amp; Moberly Ave [HP] 07/19 15:11 #The_Danforth #Toronto", "created_at": "Tue Jul 19 19:15:03 +0000 2016", "klabel": 92}}, {"geometry": {"type": "Point", "coordinates": [-79.2992, 43.6845]}, "type": "Feature", "id": 755489837067669504, "properties": {"loc": [-79.2992, 43.6845], "centroid": [-79.16609702484445, 43.78395564304444], "screen_name": "DEdwards88", "time": 1468975788.0, "tid": 755489837067669504, "text": "Less than a month away to secure your spot at the first annual\u2026 https://t.co/JLKpbXED94", "created_at": "Tue Jul 19 19:49:48 +0000 2016", "klabel": 92}}, {"geometry": {"type": "Point", "coordinates": [-79.3006509, 43.6837361]}, "type": "Feature", "id": 755496760949170176, "properties": {"loc": [-79.3006509, 43.6837361], "centroid": [-79.16609702484445, 43.78395564304444], "screen_name": "thecubetech", "time": 1468977438.0, "tid": 755496760949170176, "text": "Web Design and Technology Level 2, Grades 7+  https://t.co/Glie4QxO7V", "created_at": "Tue Jul 19 20:17:18 +0000 2016", "klabel": 92}}, {"geometry": {"type": "Point", "coordinates": [-79.31257725, 43.68557903]}, "type": "Feature", "id": 755502834628657152, "properties": {"loc": [-79.31257725, 43.68557903], "centroid": [-79.16609702484445, 43.78395564304444], "screen_name": "BarryTheBazman", "time": 1468978886.0, "tid": 755502834628657152, "text": "I'm at Danforth Village in Toronto, ON https://t.co/VZusgsSSEQ", "created_at": "Tue Jul 19 20:41:26 +0000 2016", "klabel": 92}}, {"geometry": {"type": "Point", "coordinates": [-79.3006509, 43.6837361]}, "type": "Feature", "id": 755505284546605056, "properties": {"loc": [-79.3006509, 43.6837361], "centroid": [-79.16609702484445, 43.78395564304444], "screen_name": "thecubetech", "time": 1468979471.0, "tid": 755505284546605056, "text": "Learn to Code Thursdays - designed for beginners, Adults  https://t.co/co0vpLb7qZ", "created_at": "Tue Jul 19 20:51:11 +0000 2016", "klabel": 92}}, {"geometry": {"type": "Point", "coordinates": [-79.30090427, 43.68629281]}, "type": "Feature", "id": 755508446095605760, "properties": {"loc": [-79.30090427, 43.68629281], "centroid": [-79.16609702484445, 43.78395564304444], "screen_name": "whitestar2009", "time": 1468980224.0, "tid": 755508446095605760, "text": "Checked in automatically with the Uber Checkin app! https://t.co/BYHxUki1A7 (@ Danforth GO Station) https://t.co/CJXVK28Blb", "created_at": "Tue Jul 19 21:03:44 +0000 2016", "klabel": 92}}, {"geometry": {"type": "Point", "coordinates": [-79.30060124, 43.68840049]}, "type": "Feature", "id": 755508551313940480, "properties": {"loc": [-79.30060124, 43.68840049], "centroid": [-79.16609702484445, 43.78395564304444], "screen_name": "whitestar2009", "time": 1468980249.0, "tid": 755508551313940480, "text": "Checked in automatically with the Uber Checkin app! https://t.co/BYHxUki1A7 (at @TimHortons in Toronto, ON) https://t.co/Gva660GhJu", "created_at": "Tue Jul 19 21:04:09 +0000 2016", "klabel": 92}}, {"geometry": {"type": "Point", "coordinates": [-79.30181745, 43.68898898]}, "type": "Feature", "id": 755508620779986944, "properties": {"loc": [-79.30181745, 43.68898898], "centroid": [-79.16609702484445, 43.78395564304444], "screen_name": "whitestar2009", "time": 1468980266.0, "tid": 755508620779986944, "text": "Checked in automatically with the Uber Checkin app! https://t.co/BYHxUki1A7 (@ Main Street Subway Station) https://t.co/wfAr5RtjEr", "created_at": "Tue Jul 19 21:04:26 +0000 2016", "klabel": 92}}, {"geometry": {"type": "Point", "coordinates": [-79.29996286, 43.68865573]}, "type": "Feature", "id": 755508764824985600, "properties": {"loc": [-79.29996286, 43.68865573], "centroid": [-79.16609702484445, 43.78395564304444], "screen_name": "whitestar2009", "time": 1468980300.0, "tid": 755508764824985600, "text": "Checked in automatically with the Uber Checkin app! https://t.co/BYHxUki1A7 (at @Duckworths Fish and Chips) https://t.co/9eLuyXqnH4", "created_at": "Tue Jul 19 21:05:00 +0000 2016", "klabel": 92}}, {"geometry": {"type": "Point", "coordinates": [-79.29997937, 43.68853617]}, "type": "Feature", "id": 755508770546016256, "properties": {"loc": [-79.29997937, 43.68853617], "centroid": [-79.16609702484445, 43.78395564304444], "screen_name": "whitestar2009", "time": 1468980302.0, "tid": 755508770546016256, "text": "Checked in automatically with the Uber Checkin app! https://t.co/BYHxUki1A7 (@ Grillies) https://t.co/dwCMR47s7X", "created_at": "Tue Jul 19 21:05:02 +0000 2016", "klabel": 92}}, {"geometry": {"type": "Point", "coordinates": [-79.2998886, 43.6785184]}, "type": "Feature", "id": 755516579673214976, "properties": {"loc": [-79.2998886, 43.6785184], "centroid": [-79.16609702484445, 43.78395564304444], "screen_name": "tpscalls", "time": 1468982164.0, "tid": 755516579673214976, "text": "Dispute | Glen Stewart Cres &amp; Ln W Main N Kingston [55 Div.] 07/19 17:31 #The_Beach #Toronto", "created_at": "Tue Jul 19 21:36:04 +0000 2016", "klabel": 92}}, {"geometry": {"type": "Point", "coordinates": [-79.3127457, 43.6856699]}, "type": "Feature", "id": 755682163601866753, "properties": {"loc": [-79.3127457, 43.6856699], "centroid": [-79.16609702484445, 43.78395564304444], "screen_name": "tpscalls", "time": 1469021642.0, "tid": 755682163601866753, "text": "Unknown Trouble | Danforth Ave &amp; Woodbine Ave [54 Div.] 07/20 04:27 #Woodbine_Lumsden #Toronto", "created_at": "Wed Jul 20 08:34:02 +0000 2016", "klabel": 92}}, {"geometry": {"type": "Point", "coordinates": [-79.31257, 43.680087]}, "type": "Feature", "id": 755803348188663808, "properties": {"loc": [-79.31257, 43.680087], "centroid": [-79.16609702484445, 43.78395564304444], "screen_name": "MapleLeafTavern", "time": 1469050535.0, "tid": 755803348188663808, "text": "Roasted Vegetable Salad at the Maple Leaf Tavern. Bar opens at 3:00pm #mltavern #leslieville\u2026 https://t.co/jDM0XxKA4s", "created_at": "Wed Jul 20 16:35:35 +0000 2016", "klabel": 92}}, {"geometry": {"type": "Point", "coordinates": [-79.3018044, 43.6881561]}, "type": "Feature", "id": 755808523028758530, "properties": {"loc": [-79.3018044, 43.6881561], "centroid": [-79.16609702484445, 43.78395564304444], "screen_name": "tofireE", "time": 1469051768.0, "tid": 755808523028758530, "text": "Medical (Trouble Breathing) - Main St @ Danforth Avenue, Toronto (2 Trucks)", "created_at": "Wed Jul 20 16:56:08 +0000 2016", "klabel": 92}}, {"geometry": {"type": "Point", "coordinates": [-79.3005567, 43.6884737]}, "type": "Feature", "id": 755809760327401472, "properties": {"loc": [-79.3005567, 43.6884737], "centroid": [-79.16609702484445, 43.78395564304444], "screen_name": "tofireE", "time": 1469052063.0, "tid": 755809760327401472, "text": "UD: Medical (Trouble Breathing) - Danforth Avenue b/w Barrington Avenue / Guest Avenue, Toronto (2 Trucks)", "created_at": "Wed Jul 20 17:01:03 +0000 2016", "klabel": 92}}, {"geometry": {"type": "Point", "coordinates": [-79.3127457, 43.6856699]}, "type": "Feature", "id": 755931309252509696, "properties": {"loc": [-79.3127457, 43.6856699], "centroid": [-79.16609702484445, 43.78395564304444], "screen_name": "tpscalls", "time": 1469081043.0, "tid": 755931309252509696, "text": "Arrest | Danforth Ave &amp; Ln N Danforth W Woodbine [54 Div.] 07/20 20:58 #Woodbine_Lumsden #Toronto", "created_at": "Thu Jul 21 01:04:03 +0000 2016", "klabel": 92}}, {"geometry": {"type": "Point", "coordinates": [-79.311, 43.68138]}, "type": "Feature", "id": 756100787705679872, "properties": {"loc": [-79.311, 43.68138], "centroid": [-79.16609702484445, 43.78395564304444], "screen_name": "jallisonphoto", "time": 1469121450.0, "tid": 756100787705679872, "text": "Today is the beginning of a new adventure. Of taking control and focusing my energy into my\u2026 https://t.co/0tvJCDYLgN", "created_at": "Thu Jul 21 12:17:30 +0000 2016", "klabel": 92}}, {"geometry": {"type": "Point", "coordinates": [-79.30996627, 43.68640986]}, "type": "Feature", "id": 756149447445315584, "properties": {"loc": [-79.30996627, 43.68640986], "centroid": [-79.16609702484445, 43.78395564304444], "screen_name": "DanforthEscape", "time": 1469133051.0, "tid": 756149447445315584, "text": "Just dropped a lure right near us! Come say 'hi' while you are out hunting and we will give you\u2026 https://t.co/WWmruSZh53", "created_at": "Thu Jul 21 15:30:51 +0000 2016", "klabel": 92}}, {"geometry": {"type": "Point", "coordinates": [-79.31257725, 43.68557903]}, "type": "Feature", "id": 756230761930432512, "properties": {"loc": [-79.31257725, 43.68557903], "centroid": [-79.16609702484445, 43.78395564304444], "screen_name": "BarryTheBazman", "time": 1469152438.0, "tid": 756230761930432512, "text": "I'm at Danforth Village in Toronto, ON https://t.co/cMP6NtlKYj", "created_at": "Thu Jul 21 20:53:58 +0000 2016", "klabel": 92}}, {"geometry": {"type": "Point", "coordinates": [-79.3006078, 43.694418]}, "type": "Feature", "id": 756275328625049604, "properties": {"loc": [-79.3006078, 43.694418], "centroid": [-79.16609702484445, 43.78395564304444], "screen_name": "tpscalls", "time": 1469163063.0, "tid": 756275328625049604, "text": "Unknown Trouble | Taylor Creek Trl &amp; Eastdale Ave [54 Div.] 07/21 19:46 #Old_East_York #Toronto", "created_at": "Thu Jul 21 23:51:03 +0000 2016", "klabel": 92}}, {"geometry": {"type": "Point", "coordinates": [-79.3131209, 43.686492]}, "type": "Feature", "id": 756295209118494720, "properties": {"loc": [-79.3131209, 43.686492], "centroid": [-79.16609702484445, 43.78395564304444], "screen_name": "tpscalls", "time": 1469167803.0, "tid": 756295209118494720, "text": "Dispute | Woodbine Ave &amp; Strathmore Blvd [54 Div.] 07/21 21:05 #Woodbine_Heights #Toronto", "created_at": "Fri Jul 22 01:10:03 +0000 2016", "klabel": 92}}, {"geometry": {"type": "Point", "coordinates": [-79.3124313, 43.6855011]}, "type": "Feature", "id": 756341169752158208, "properties": {"loc": [-79.3124313, 43.6855011], "centroid": [-79.16609702484445, 43.78395564304444], "screen_name": "jefflagerquist", "time": 1469178761.0, "tid": 756341169752158208, "text": "Watering your lawn at midnight is cool right? #nonozzle @ Danforth\u2026 https://t.co/KgnvTQMxDC", "created_at": "Fri Jul 22 04:12:41 +0000 2016", "klabel": 92}}, {"geometry": {"type": "Point", "coordinates": [-79.3124313, 43.6855011]}, "type": "Feature", "id": 756460101054132224, "properties": {"loc": [-79.3124313, 43.6855011], "centroid": [-79.16609702484445, 43.78395564304444], "screen_name": "jbromcom", "time": 1469207117.0, "tid": 756460101054132224, "text": "They work hard and do a great job. #cityoftoronto #respectforworkets #sweatandtoil @ Danforth\u2026 https://t.co/G3VMMEmobi", "created_at": "Fri Jul 22 12:05:17 +0000 2016", "klabel": 92}}, {"geometry": {"type": "Point", "coordinates": [-79.31277778, 43.68638889]}, "type": "Feature", "id": 756589092977147904, "properties": {"loc": [-79.31277778, 43.68638889], "centroid": [-79.16609702484445, 43.78395564304444], "screen_name": "jbromcom", "time": 1469237871.0, "tid": 756589092977147904, "text": "Yup. It's hot, hot, hot! #heatwave #cityoftoronto #coldbeer @ Woodbine https://t.co/zN6uajXJMk", "created_at": "Fri Jul 22 20:37:51 +0000 2016", "klabel": 92}}, {"geometry": {"type": "Point", "coordinates": [-79.30953, 43.6897]}, "type": "Feature", "id": 756589804138205185, "properties": {"loc": [-79.30953, 43.6897], "centroid": [-79.16609702484445, 43.78395564304444], "screen_name": "wademuir", "time": 1469238040.0, "tid": 756589804138205185, "text": "carry the world on your shoulders they said \u2611\ufe0f\u2728\n\n#mylifeinabox #ontheroadagain #wanderlust\u2026 https://t.co/EHfrvte7tR", "created_at": "Fri Jul 22 20:40:40 +0000 2016", "klabel": 92}}, {"geometry": {"type": "Point", "coordinates": [-79.3080499, 43.6867995]}, "type": "Feature", "id": 756710448523800577, "properties": {"loc": [-79.3080499, 43.6867995], "centroid": [-79.16609702484445, 43.78395564304444], "screen_name": "tpscalls", "time": 1469266804.0, "tid": 756710448523800577, "text": "Person With A Knife | Mansion Ave &amp; Danforth Ave [41 Div.] 07/23 00:35 #Toronto", "created_at": "Sat Jul 23 04:40:04 +0000 2016", "klabel": 92}}, {"geometry": {"type": "Point", "coordinates": [-79.30060124, 43.68840049]}, "type": "Feature", "id": 756738796910219264, "properties": {"loc": [-79.30060124, 43.68840049], "centroid": [-79.16609702484445, 43.78395564304444], "screen_name": "whitestar2009", "time": 1469273563.0, "tid": 756738796910219264, "text": "Checked in automatically with the Uber Checkin app! https://t.co/BYHxUki1A7 (at @TimHortons in Toronto, ON) https://t.co/wCSSS03vG8", "created_at": "Sat Jul 23 06:32:43 +0000 2016", "klabel": 92}}, {"geometry": {"type": "Point", "coordinates": [-79.30181745, 43.68898898]}, "type": "Feature", "id": 756738824680706048, "properties": {"loc": [-79.30181745, 43.68898898], "centroid": [-79.16609702484445, 43.78395564304444], "screen_name": "whitestar2009", "time": 1469273569.0, "tid": 756738824680706048, "text": "Checked in automatically with the Uber Checkin app! https://t.co/BYHxUki1A7 (@ Main Street Subway Station) https://t.co/t5ECZNBzbu", "created_at": "Sat Jul 23 06:32:49 +0000 2016", "klabel": 92}}, {"geometry": {"type": "Point", "coordinates": [-79.30201556, 43.68895159]}, "type": "Feature", "id": 756738854976192512, "properties": {"loc": [-79.30201556, 43.68895159], "centroid": [-79.16609702484445, 43.78395564304444], "screen_name": "whitestar2009", "time": 1469273577.0, "tid": 756738854976192512, "text": "Checked in automatically with the Uber Checkin app! https://t.co/BYHxUki1A7 https://t.co/g8rA8NzANQ", "created_at": "Sat Jul 23 06:32:57 +0000 2016", "klabel": 92}}, {"geometry": {"type": "Point", "coordinates": [-79.3017067, 43.6879423]}, "type": "Feature", "id": 756822684424634369, "properties": {"loc": [-79.3017067, 43.6879423], "centroid": [-79.16609702484445, 43.78395564304444], "screen_name": "tpscalls", "time": 1469293563.0, "tid": 756822684424634369, "text": "See Ambulance | Ln 1 N Danforth E Main St &amp; Ln 2 N Danforth E Main St [54 Div.] 07/23 08:00 #Toronto", "created_at": "Sat Jul 23 12:06:03 +0000 2016", "klabel": 92}}, {"geometry": {"type": "Point", "coordinates": [-79.2969507, 43.6881897]}, "type": "Feature", "id": 756859926098698240, "properties": {"loc": [-79.2969507, 43.6881897], "centroid": [-79.16609702484445, 43.78395564304444], "screen_name": "tpscalls", "time": 1469302442.0, "tid": 756859926098698240, "text": "Damage Just Occurred | Guest Ave &amp; Dawes Rd [55 Div.] 07/23 10:28 #The_Danforth #Toronto", "created_at": "Sat Jul 23 14:34:02 +0000 2016", "klabel": 92}}, {"geometry": {"type": "Point", "coordinates": [-79.3078254, 43.6795352]}, "type": "Feature", "id": 756896923106340864, "properties": {"loc": [-79.3078254, 43.6795352], "centroid": [-79.16609702484445, 43.78395564304444], "screen_name": "tpscalls", "time": 1469311263.0, "tid": 756896923106340864, "text": "Person With A Knife | Devon Rd &amp; Golfview Ave [55 Div.] 07/23 12:54 #Beach_Hill #Toronto", "created_at": "Sat Jul 23 17:01:03 +0000 2016", "klabel": 92}}, {"geometry": {"type": "Point", "coordinates": [-79.3135567, 43.6791805]}, "type": "Feature", "id": 756947007948849152, "properties": {"loc": [-79.3135567, 43.6791805], "centroid": [-79.16609702484445, 43.78395564304444], "screen_name": "tofireE", "time": 1469323204.0, "tid": 756947007948849152, "text": "Check Call - Gerrard St b/w Normandy Boulevard / Kingsmount Park Road, Toronto (2 Trucks)", "created_at": "Sat Jul 23 20:20:04 +0000 2016", "klabel": 92}}, {"geometry": {"type": "Point", "coordinates": [-79.3119908, 43.6785411]}, "type": "Feature", "id": 756957075046035457, "properties": {"loc": [-79.3119908, 43.6785411], "centroid": [-79.16609702484445, 43.78395564304444], "screen_name": "tpscalls", "time": 1469325604.0, "tid": 756957075046035457, "text": "See Fire Dept | Normandy Blvd &amp; Kingsmount Park Rd [55 Div.] 07/23 16:56 #Upper_Beaches #Toronto", "created_at": "Sat Jul 23 21:00:04 +0000 2016", "klabel": 92}}, {"geometry": {"type": "Point", "coordinates": [-79.303272, 43.682088]}, "type": "Feature", "id": 756977200491008000, "properties": {"loc": [-79.303272, 43.682088], "centroid": [-79.16609702484445, 43.78395564304444], "screen_name": "marysataylor", "time": 1469330403.0, "tid": 756977200491008000, "text": "Taking in the #sun in our backyard. \ud83d\ude4c\ud83c\udffb\u2600\ufe0f #sunbeams #letthesunshine #toronto @ Upper Beach https://t.co/Jo37vINApJ", "created_at": "Sat Jul 23 22:20:03 +0000 2016", "klabel": 92}}, {"geometry": {"type": "Point", "coordinates": [-79.30019592, 43.68619955]}, "type": "Feature", "id": 757026612114317313, "properties": {"loc": [-79.30019592, 43.68619955], "centroid": [-79.16609702484445, 43.78395564304444], "screen_name": "xmxxnhxi", "time": 1469342183.0, "tid": 757026612114317313, "text": "you gotta keep up cause I've been gone", "created_at": "Sun Jul 24 01:36:23 +0000 2016", "klabel": 92}}, {"geometry": {"type": "Point", "coordinates": [-79.3082776, 43.6943952]}, "type": "Feature", "id": 757227603984019456, "properties": {"loc": [-79.3082776, 43.6943952], "centroid": [-79.16609702484445, 43.78395564304444], "screen_name": "tpscalls", "time": 1469390104.0, "tid": 757227603984019456, "text": "Unknown Trouble | Secord Ave &amp; Lumsden Ave [54 Div.] 07/24 10:50 #Old_East_York #Toronto", "created_at": "Sun Jul 24 14:55:04 +0000 2016", "klabel": 92}}, {"geometry": {"type": "Point", "coordinates": [-79.303616, 43.6893728]}, "type": "Feature", "id": 757319461384888321, "properties": {"loc": [-79.303616, 43.6893728], "centroid": [-79.16609702484445, 43.78395564304444], "screen_name": "tofire", "time": 1469412004.0, "tid": 757319461384888321, "text": "Medical (Crime Related) - Chisholm Avenue @ Gates Avenue, Toronto (2 Trucks)", "created_at": "Sun Jul 24 21:00:04 +0000 2016", "klabel": 92}}, {"geometry": {"type": "Point", "coordinates": [-79.303616, 43.6893728]}, "type": "Feature", "id": 757319462265688065, "properties": {"loc": [-79.303616, 43.6893728], "centroid": [-79.16609702484445, 43.78395564304444], "screen_name": "tofireE", "time": 1469412004.0, "tid": 757319462265688065, "text": "Medical (Crime Related) - Chisholm Avenue @ Gates Avenue, Toronto (2 Trucks)", "created_at": "Sun Jul 24 21:00:04 +0000 2016", "klabel": 92}}, {"geometry": {"type": "Point", "coordinates": [-79.303616, 43.6893728]}, "type": "Feature", "id": 757319463234658304, "properties": {"loc": [-79.303616, 43.6893728], "centroid": [-79.16609702484445, 43.78395564304444], "screen_name": "tofirep", "time": 1469412005.0, "tid": 757319463234658304, "text": "Medical (Crime Related) - Chisholm Avenue @ Gates Avenue, Toronto (2 Trucks)", "created_at": "Sun Jul 24 21:00:05 +0000 2016", "klabel": 92}}, {"geometry": {"type": "Point", "coordinates": [-79.303616, 43.6893728]}, "type": "Feature", "id": 757319708685115392, "properties": {"loc": [-79.303616, 43.6893728], "centroid": [-79.16609702484445, 43.78395564304444], "screen_name": "tpscalls", "time": 1469412063.0, "tid": 757319708685115392, "text": "Shooting | Chisholm Ave &amp; Gates Ave [54 Div.] 07/24 16:56 #Woodbine_Lumsden #Toronto", "created_at": "Sun Jul 24 21:01:03 +0000 2016", "klabel": 92}}, {"geometry": {"type": "Point", "coordinates": [-79.3130002, 43.6828332]}, "type": "Feature", "id": 757333301954744320, "properties": {"loc": [-79.3130002, 43.6828332], "centroid": [-79.16609702484445, 43.78395564304444], "screen_name": "tofireE", "time": 1469415304.0, "tid": 757333301954744320, "text": "Tems Transferred (Read Remarks) - Moberly Avenue b/w Merrill Avenue East / Mendel Avenue, Toronto (2 Trucks)", "created_at": "Sun Jul 24 21:55:04 +0000 2016", "klabel": 92}}, {"geometry": {"type": "Point", "coordinates": [-79.3120821, 43.6919826]}, "type": "Feature", "id": 757352683456069632, "properties": {"loc": [-79.3120821, 43.6919826], "centroid": [-79.16609702484445, 43.78395564304444], "screen_name": "tpscalls", "time": 1469419925.0, "tid": 757352683456069632, "text": "Sound Of Gunshots | Ln N Danforth E Gledhill &amp; King Edward Ave [54 Div.] 07/24 19:08 #Woodbine_Lumsden #Toronto", "created_at": "Sun Jul 24 23:12:05 +0000 2016", "klabel": 92}}, {"geometry": {"type": "Point", "coordinates": [-79.3070439, 43.691642]}, "type": "Feature", "id": 757422891046666240, "properties": {"loc": [-79.3070439, 43.691642], "centroid": [-79.16609702484445, 43.78395564304444], "screen_name": "tpscalls", "time": 1469436664.0, "tid": 757422891046666240, "text": "Noisy Party | Epsom Ave &amp; Westlake Ave [54 Div.] 07/24 23:47 #Old_East_York #Toronto", "created_at": "Mon Jul 25 03:51:04 +0000 2016", "klabel": 92}}, {"geometry": {"type": "Point", "coordinates": [-79.2976319, 43.6883759]}, "type": "Feature", "id": 757531096913436672, "properties": {"loc": [-79.2976319, 43.6883759], "centroid": [-79.16609702484445, 43.78395564304444], "screen_name": "tpscalls", "time": 1469462462.0, "tid": 757531096913436672, "text": "Assault Just Occurred | Barrington Ave &amp; Guest Ave [54 Div.] 07/25 06:54 #East_Danforth #Toronto", "created_at": "Mon Jul 25 11:01:02 +0000 2016", "klabel": 92}}, {"geometry": {"type": "Point", "coordinates": [-79.30903, 43.68636]}, "type": "Feature", "id": 757591900744519680, "properties": {"loc": [-79.30903, 43.68636], "centroid": [-79.16609702484445, 43.78395564304444], "screen_name": "AgentFoo", "time": 1469476959.0, "tid": 757591900744519680, "text": "Poetry @ Hollandaise Diner https://t.co/4LHjySuLP0", "created_at": "Mon Jul 25 15:02:39 +0000 2016", "klabel": 92}}, {"geometry": {"type": "Point", "coordinates": [-79.3017067, 43.6879423]}, "type": "Feature", "id": 757644345659056128, "properties": {"loc": [-79.3017067, 43.6879423], "centroid": [-79.16609702484445, 43.78395564304444], "screen_name": "tpscalls", "time": 1469489463.0, "tid": 757644345659056128, "text": "See Ambulance | Ln 1 N Danforth E Main St &amp; Ln 2 N Danforth E Main St [54 Div.] 07/25 14:25 #Toronto", "created_at": "Mon Jul 25 18:31:03 +0000 2016", "klabel": 92}}, {"geometry": {"type": "Point", "coordinates": [-79.3001702, 43.6839718]}, "type": "Feature", "id": 757661717233078272, "properties": {"loc": [-79.3001702, 43.6839718], "centroid": [-79.16609702484445, 43.78395564304444], "screen_name": "tofire", "time": 1469493604.0, "tid": 757661717233078272, "text": "Medical (Trouble Breathing) - Main St b/w Gerrard St East / C North R, Toronto (2 Trucks)", "created_at": "Mon Jul 25 19:40:04 +0000 2016", "klabel": 92}}, {"geometry": {"type": "Point", "coordinates": [-79.3001702, 43.6839718]}, "type": "Feature", "id": 757661718210351104, "properties": {"loc": [-79.3001702, 43.6839718], "centroid": [-79.16609702484445, 43.78395564304444], "screen_name": "tofireE", "time": 1469493604.0, "tid": 757661718210351104, "text": "Medical (Trouble Breathing) - Main St b/w Gerrard St East / C North R, Toronto (2 Trucks)", "created_at": "Mon Jul 25 19:40:04 +0000 2016", "klabel": 92}}, {"geometry": {"type": "Point", "coordinates": [-79.30178318, 43.68895644]}, "type": "Feature", "id": 757763529919246336, "properties": {"loc": [-79.30178318, 43.68895644], "centroid": [-79.16609702484445, 43.78395564304444], "screen_name": "caiodias", "time": 1469517878.0, "tid": 757763529919246336, "text": "@proveisso ainda n\u00e3o.", "created_at": "Tue Jul 26 02:24:38 +0000 2016", "klabel": 92}}, {"geometry": {"type": "Point", "coordinates": [-79.3055364, 43.6881742]}, "type": "Feature", "id": 757771182330482689, "properties": {"loc": [-79.3055364, 43.6881742], "centroid": [-79.16609702484445, 43.78395564304444], "screen_name": "tpscalls", "time": 1469519703.0, "tid": 757771182330482689, "text": "Found Property | Danforth Ave &amp; Harris Ave [54 Div.] 07/25 22:48 #The_Danforth #Toronto", "created_at": "Tue Jul 26 02:55:03 +0000 2016", "klabel": 92}}, {"geometry": {"type": "Point", "coordinates": [-79.30178318, 43.68895644]}, "type": "Feature", "id": 757776191101231104, "properties": {"loc": [-79.30178318, 43.68895644], "centroid": [-79.16609702484445, 43.78395564304444], "screen_name": "caiodias", "time": 1469520897.0, "tid": 757776191101231104, "text": "@buchecha bom que emagrece tamb\u00e9m. O corpo deve adorar.", "created_at": "Tue Jul 26 03:14:57 +0000 2016", "klabel": 92}}, {"geometry": {"type": "Point", "coordinates": [-79.3017067, 43.6879423]}, "type": "Feature", "id": 757789307021119489, "properties": {"loc": [-79.3017067, 43.6879423], "centroid": [-79.16609702484445, 43.78395564304444], "screen_name": "tpscalls", "time": 1469524024.0, "tid": 757789307021119489, "text": "Disorderlies | Ln 1 N Danforth E Main St &amp; Ln 2 N Danforth E Main St [54 Div.] 07/26 00:02 #Toronto", "created_at": "Tue Jul 26 04:07:04 +0000 2016", "klabel": 92}}, {"geometry": {"type": "Point", "coordinates": [-79.3080499, 43.6867995]}, "type": "Feature", "id": 757796098807181312, "properties": {"loc": [-79.3080499, 43.6867995], "centroid": [-79.16609702484445, 43.78395564304444], "screen_name": "tpscalls", "time": 1469525643.0, "tid": 757796098807181312, "text": "Unknown Trouble | Mansion Ave &amp; Danforth Ave [55 Div.] 07/26 00:28 #Toronto", "created_at": "Tue Jul 26 04:34:03 +0000 2016", "klabel": 92}}, {"geometry": {"type": "Point", "coordinates": [-79.30179216, 43.68893908]}, "type": "Feature", "id": 757988612277317633, "properties": {"loc": [-79.30179216, 43.68893908], "centroid": [-79.16609702484445, 43.78395564304444], "screen_name": "caiodias", "time": 1469571542.0, "tid": 757988612277317633, "text": "@CaioCorraini at\u00e9 porque um port\u00e1til com liga\u00e7\u00f5es simples com a TV j\u00e1 temos os celulares", "created_at": "Tue Jul 26 17:19:02 +0000 2016", "klabel": 92}}, {"geometry": {"type": "Point", "coordinates": [-79.3010442, 43.6835597]}, "type": "Feature", "id": 758014313164447744, "properties": {"loc": [-79.3010442, 43.6835597], "centroid": [-79.16609702484445, 43.78395564304444], "screen_name": "thecubetech", "time": 1469577670.0, "tid": 758014313164447744, "text": "Technology PA Days Grades 4 to 6  https://t.co/WxSgUJl2NK", "created_at": "Tue Jul 26 19:01:10 +0000 2016", "klabel": 92}}, {"geometry": {"type": "Point", "coordinates": [-79.3006509, 43.6837361]}, "type": "Feature", "id": 758016520718954496, "properties": {"loc": [-79.3006509, 43.6837361], "centroid": [-79.16609702484445, 43.78395564304444], "screen_name": "thecubetech", "time": 1469578196.0, "tid": 758016520718954496, "text": "Digital Art in Multi-Media Program, Ages 11-15  https://t.co/caV90nxvVN", "created_at": "Tue Jul 26 19:09:56 +0000 2016", "klabel": 92}}, {"geometry": {"type": "Point", "coordinates": [-79.3020946, 43.6814363]}, "type": "Feature", "id": 758028132712603648, "properties": {"loc": [-79.3020946, 43.6814363], "centroid": [-79.16609702484445, 43.78395564304444], "screen_name": "tofire", "time": 1469580964.0, "tid": 758028132712603648, "text": "Alarm Residential - (Glen Oak Dr @ Benlamond Dr), Toronto (6 Trucks)", "created_at": "Tue Jul 26 19:56:04 +0000 2016", "klabel": 92}}, {"geometry": {"type": "Point", "coordinates": [-79.3020946, 43.6814363]}, "type": "Feature", "id": 758028133664694272, "properties": {"loc": [-79.3020946, 43.6814363], "centroid": [-79.16609702484445, 43.78395564304444], "screen_name": "tofireE", "time": 1469580965.0, "tid": 758028133664694272, "text": "Alarm Residential - (Glen Oak Dr @ Benlamond Dr), Toronto (6 Trucks)", "created_at": "Tue Jul 26 19:56:05 +0000 2016", "klabel": 92}}, {"geometry": {"type": "Point", "coordinates": [-79.3006509, 43.6837361]}, "type": "Feature", "id": 758034365339176960, "properties": {"loc": [-79.3006509, 43.6837361], "centroid": [-79.16609702484445, 43.78395564304444], "screen_name": "thecubetech", "time": 1469582450.0, "tid": 758034365339176960, "text": "Intro to Video Game Design with Unity - Grades 4 to 6 and Grades 7+  https://t.co/hZRdOIwOdh", "created_at": "Tue Jul 26 20:20:50 +0000 2016", "klabel": 92}}, {"geometry": {"type": "Point", "coordinates": [-79.29994635, 43.68651556]}, "type": "Feature", "id": 758181420498026496, "properties": {"loc": [-79.29994635, 43.68651556], "centroid": [-79.16609702484445, 43.78395564304444], "screen_name": "whitestar2009", "time": 1469617511.0, "tid": 758181420498026496, "text": "Checked in automatically with the Uber Checkin app! https://t.co/BYHxUki1A7 (@ Danforth GO Station) https://t.co/QIimEbjsrm", "created_at": "Wed Jul 27 06:05:11 +0000 2016", "klabel": 92}}, {"geometry": {"type": "Point", "coordinates": [-79.30060124, 43.68840049]}, "type": "Feature", "id": 758181481030127617, "properties": {"loc": [-79.30060124, 43.68840049], "centroid": [-79.16609702484445, 43.78395564304444], "screen_name": "whitestar2009", "time": 1469617526.0, "tid": 758181481030127617, "text": "Checked in automatically with the Uber Checkin app! https://t.co/BYHxUkzCrF (at @TimHortons in Toronto, ON) https://t.co/Xf8NJJv7ak", "created_at": "Wed Jul 27 06:05:26 +0000 2016", "klabel": 92}}, {"geometry": {"type": "Point", "coordinates": [-79.30201556, 43.68895159]}, "type": "Feature", "id": 758181607350136832, "properties": {"loc": [-79.30201556, 43.68895159], "centroid": [-79.16609702484445, 43.78395564304444], "screen_name": "whitestar2009", "time": 1469617556.0, "tid": 758181607350136832, "text": "Checked in automatically with the Uber Checkin app! https://t.co/BYHxUki1A7 https://t.co/cVXcMUbTok", "created_at": "Wed Jul 27 06:05:56 +0000 2016", "klabel": 92}}, {"geometry": {"type": "Point", "coordinates": [-79.29997937, 43.68853617]}, "type": "Feature", "id": 758181658176557057, "properties": {"loc": [-79.29997937, 43.68853617], "centroid": [-79.16609702484445, 43.78395564304444], "screen_name": "whitestar2009", "time": 1469617568.0, "tid": 758181658176557057, "text": "Checked in automatically with the Uber Checkin app! https://t.co/BYHxUkzCrF (@ Grillies) https://t.co/XlRWVvzccv", "created_at": "Wed Jul 27 06:06:08 +0000 2016", "klabel": 92}}, {"geometry": {"type": "Point", "coordinates": [-79.31547, 43.685424]}, "type": "Feature", "id": 758195981225779200, "properties": {"loc": [-79.31547, 43.685424], "centroid": [-79.16609702484445, 43.78395564304444], "screen_name": "whitestar2009", "time": 1469620983.0, "tid": 758195981225779200, "text": "Checked in automatically with the Uber Checkin app! https://t.co/BYHxUki1A7 (at @CartersIceCream) https://t.co/2YcSvgzfHZ", "created_at": "Wed Jul 27 07:03:03 +0000 2016", "klabel": 92}}, {"geometry": {"type": "Point", "coordinates": [-79.31257725, 43.68557903]}, "type": "Feature", "id": 758338391821979649, "properties": {"loc": [-79.31257725, 43.68557903], "centroid": [-79.16609702484445, 43.78395564304444], "screen_name": "BarryTheBazman", "time": 1469654936.0, "tid": 758338391821979649, "text": "I'm at Danforth Village in Toronto, ON https://t.co/zak2qBFAxn", "created_at": "Wed Jul 27 16:28:56 +0000 2016", "klabel": 92}}, {"geometry": {"type": "Point", "coordinates": [-79.31536674, 43.68376352]}, "type": "Feature", "id": 758414125462646784, "properties": {"loc": [-79.31536674, 43.68376352], "centroid": [-79.16609702484445, 43.78395564304444], "screen_name": "BlueHazeJazz", "time": 1469672992.0, "tid": 758414125462646784, "text": "#thedannylovesmusic #festival #gumboyaya (@ East Lynn Park in Toronto, ON) https://t.co/0lrW0epmFu", "created_at": "Wed Jul 27 21:29:52 +0000 2016", "klabel": 92}}, {"geometry": {"type": "Point", "coordinates": [-79.31544178, 43.68419541]}, "type": "Feature", "id": 758415882146107392, "properties": {"loc": [-79.31544178, 43.68419541], "centroid": [-79.16609702484445, 43.78395564304444], "screen_name": "BlueHazeJazz", "time": 1469673411.0, "tid": 758415882146107392, "text": "#backstage #tedpetersandgumboyaya #thedannylovesmusic danforthmosaicbia #festival #trombone\u2026 https://t.co/XUHL3uYRv9", "created_at": "Wed Jul 27 21:36:51 +0000 2016", "klabel": 92}}, {"geometry": {"type": "Point", "coordinates": [-79.3120821, 43.6919826]}, "type": "Feature", "id": 758417441164754944, "properties": {"loc": [-79.3120821, 43.6919826], "centroid": [-79.16609702484445, 43.78395564304444], "screen_name": "tpscalls", "time": 1469673783.0, "tid": 758417441164754944, "text": "Unknown Trouble | Ln N Danforth E Gledhill &amp; King Edward Ave [54 Div.] 07/27 17:36 #Woodbine_Lumsden #Toronto", "created_at": "Wed Jul 27 21:43:03 +0000 2016", "klabel": 92}}, {"geometry": {"type": "Point", "coordinates": [-79.2976319, 43.6883759]}, "type": "Feature", "id": 758447641629954048, "properties": {"loc": [-79.2976319, 43.6883759], "centroid": [-79.16609702484445, 43.78395564304444], "screen_name": "tpscalls", "time": 1469680983.0, "tid": 758447641629954048, "text": "Attempt Break &amp; Enter | Barrington Ave &amp; Guest Ave [55 Div.] 07/27 19:36 #East_Danforth #Toronto", "created_at": "Wed Jul 27 23:43:03 +0000 2016", "klabel": 92}}, {"geometry": {"type": "Point", "coordinates": [-79.31547, 43.6971]}, "type": "Feature", "id": 758495310025003009, "properties": {"loc": [-79.31547, 43.6971], "centroid": [-79.16609702484445, 43.78395564304444], "screen_name": "xleighannemarie", "time": 1469692348.0, "tid": 758495310025003009, "text": "Just posted a photo @ Stan Wadlow Park https://t.co/vrJZ4ibwsH", "created_at": "Thu Jul 28 02:52:28 +0000 2016", "klabel": 92}}, {"geometry": {"type": "Point", "coordinates": [-79.3018044, 43.6881561]}, "type": "Feature", "id": 758690737957564421, "properties": {"loc": [-79.3018044, 43.6881561], "centroid": [-79.16609702484445, 43.78395564304444], "screen_name": "tpscalls", "time": 1469738942.0, "tid": 758690737957564421, "text": "Impaired Driver | Danforth Ave &amp; Main St [54 Div.] 07/28 11:44 #Danforth_Village #Toronto", "created_at": "Thu Jul 28 15:49:02 +0000 2016", "klabel": 92}}, {"geometry": {"type": "Point", "coordinates": [-79.31257, 43.680087]}, "type": "Feature", "id": 758705093223022592, "properties": {"loc": [-79.31257, 43.680087], "centroid": [-79.16609702484445, 43.78395564304444], "screen_name": "MapleLeafTavern", "time": 1469742364.0, "tid": 758705093223022592, "text": "The Bar is Open daily at 3:00pm. Stop by and escape the day. #daydrinking #mltavern\u2026 https://t.co/8xp719HwPe", "created_at": "Thu Jul 28 16:46:04 +0000 2016", "klabel": 92}}, {"geometry": {"type": "Point", "coordinates": [-79.2976319, 43.6883759]}, "type": "Feature", "id": 758757182443819008, "properties": {"loc": [-79.2976319, 43.6883759], "centroid": [-79.16609702484445, 43.78395564304444], "screen_name": "tpscalls", "time": 1469754783.0, "tid": 758757182443819008, "text": "See Ambulance | Barrington Ave &amp; Guest Ave [54 Div.] 07/28 16:08 #East_Danforth #Toronto", "created_at": "Thu Jul 28 20:13:03 +0000 2016", "klabel": 92}}, {"geometry": {"type": "Point", "coordinates": [-79.30394741, 43.67717077]}, "type": "Feature", "id": 758839107732680704, "properties": {"loc": [-79.30394741, 43.67717077], "centroid": [-79.16609702484445, 43.78395564304444], "screen_name": "HAJEWEST", "time": 1469774316.0, "tid": 758839107732680704, "text": "such a great day \ud83d\ude0d https://t.co/0QBZcui2jm", "created_at": "Fri Jul 29 01:38:36 +0000 2016", "klabel": 92}}, {"geometry": {"type": "Point", "coordinates": [-79.3045467, 43.6864286]}, "type": "Feature", "id": 758878732203401216, "properties": {"loc": [-79.3045467, 43.6864286], "centroid": [-79.16609702484445, 43.78395564304444], "screen_name": "tpscalls", "time": 1469783763.0, "tid": 758878732203401216, "text": "Missing Person Located | C N R &amp; Stephenson Ave [55 Div.] 07/29 00:11 #East_Danforth #Toronto", "created_at": "Fri Jul 29 04:16:03 +0000 2016", "klabel": 92}}, {"geometry": {"type": "Point", "coordinates": [-79.3082776, 43.6943952]}, "type": "Feature", "id": 758893834713522176, "properties": {"loc": [-79.3082776, 43.6943952], "centroid": [-79.16609702484445, 43.78395564304444], "screen_name": "tpscalls", "time": 1469787364.0, "tid": 758893834713522176, "text": "Dispute | Goodwood Park Cres &amp; Lumsden Ave [54 Div.] 07/29 01:11 #Old_East_York #Toronto", "created_at": "Fri Jul 29 05:16:04 +0000 2016", "klabel": 92}}, {"geometry": {"type": "Point", "coordinates": [-79.311, 43.68138]}, "type": "Feature", "id": 758999027698413568, "properties": {"loc": [-79.311, 43.68138], "centroid": [-79.16609702484445, 43.78395564304444], "screen_name": "jallisonphoto", "time": 1469812444.0, "tid": 758999027698413568, "text": "New promos coming to a neighbourhood near you! @ Jen Allison Photography https://t.co/WgPGAAjSLd", "created_at": "Fri Jul 29 12:14:04 +0000 2016", "klabel": 92}}, {"geometry": {"type": "Point", "coordinates": [-79.31305625, 43.6795013]}, "type": "Feature", "id": 759016706463326208, "properties": {"loc": [-79.31305625, 43.6795013], "centroid": [-79.16609702484445, 43.78395564304444], "screen_name": "TeddyMakwa", "time": 1469816659.0, "tid": 759016706463326208, "text": "All quiet in my old neighborhood. @ Harrys https://t.co/2E3yRQqIJK", "created_at": "Fri Jul 29 13:24:19 +0000 2016", "klabel": 92}}, {"geometry": {"type": "Point", "coordinates": [-79.31282195, 43.67969915]}, "type": "Feature", "id": 759018457660657665, "properties": {"loc": [-79.31282195, 43.67969915], "centroid": [-79.16609702484445, 43.78395564304444], "screen_name": "TeddyMakwa", "time": 1469817076.0, "tid": 759018457660657665, "text": "Coffee here and got PW for the.Wifi @ City Jug Milk, https://t.co/hVCgL21F39", "created_at": "Fri Jul 29 13:31:16 +0000 2016", "klabel": 92}}, {"geometry": {"type": "Point", "coordinates": [-79.3163952, 43.6829802]}, "type": "Feature", "id": 759066718111141888, "properties": {"loc": [-79.3163952, 43.6829802], "centroid": [-79.16609702484445, 43.78395564304444], "screen_name": "tpscalls", "time": 1469828583.0, "tid": 759066718111141888, "text": "Fight | Glebemount Ave &amp; Aldridge Ave [55 Div.] 07/29 12:38 #The_Danforth #Toronto", "created_at": "Fri Jul 29 16:43:03 +0000 2016", "klabel": 92}}, {"geometry": {"type": "Point", "coordinates": [-79.30996627, 43.68640986]}, "type": "Feature", "id": 759071041419354112, "properties": {"loc": [-79.30996627, 43.68640986], "centroid": [-79.16609702484445, 43.78395564304444], "screen_name": "DanforthEscape", "time": 1469829613.0, "tid": 759071041419354112, "text": "This week's time to beat is 40:49 minutes-- great job team les scouts jaunes!! #games #yyz #todo\u2026 https://t.co/DEkS8PCP22", "created_at": "Fri Jul 29 17:00:13 +0000 2016", "klabel": 92}}, {"geometry": {"type": "Point", "coordinates": [-79.3082776, 43.6943952]}, "type": "Feature", "id": 759097669876903936, "properties": {"loc": [-79.3082776, 43.6943952], "centroid": [-79.16609702484445, 43.78395564304444], "screen_name": "tpscalls", "time": 1469835962.0, "tid": 759097669876903936, "text": "Animal Comp | Crewe Ave &amp; Lumsden Ave [54 Div.] 07/29 14:41 #Old_East_York #Toronto", "created_at": "Fri Jul 29 18:46:02 +0000 2016", "klabel": 92}}, {"geometry": {"type": "Point", "coordinates": [-79.3021762, 43.6835341]}, "type": "Feature", "id": 759192045932142592, "properties": {"loc": [-79.3021762, 43.6835341], "centroid": [-79.16609702484445, 43.78395564304444], "screen_name": "tpscalls", "time": 1469858463.0, "tid": 759192045932142592, "text": "Assault Just Occurred | Oak St &amp; Gerrard St E [51 Div.] 07/29 20:54 #Toronto", "created_at": "Sat Jul 30 01:01:03 +0000 2016", "klabel": 92}}, {"geometry": {"type": "Point", "coordinates": [-79.3133936, 43.6949811]}, "type": "Feature", "id": 759339263196618752, "properties": {"loc": [-79.3133936, 43.6949811], "centroid": [-79.16609702484445, 43.78395564304444], "screen_name": "tpscalls", "time": 1469893562.0, "tid": 759339263196618752, "text": "See Ambulance | Barker Ave &amp; King Edward Ave [54 Div.] 07/30 06:39 #Old_East_York #Toronto", "created_at": "Sat Jul 30 10:46:02 +0000 2016", "klabel": 92}}, {"geometry": {"type": "Point", "coordinates": [-79.3045467, 43.6864286]}, "type": "Feature", "id": 759346058111643648, "properties": {"loc": [-79.3045467, 43.6864286], "centroid": [-79.16609702484445, 43.78395564304444], "screen_name": "tpscalls", "time": 1469895182.0, "tid": 759346058111643648, "text": "Assault Just Occurred | C N R &amp; Stephenson Ave [55 Div.] 07/30 07:07 #East_Danforth #Toronto", "created_at": "Sat Jul 30 11:13:02 +0000 2016", "klabel": 92}}, {"geometry": {"type": "Point", "coordinates": [-79.3033129, 43.6886668]}, "type": "Feature", "id": 759472893222916096, "properties": {"loc": [-79.3033129, 43.6886668], "centroid": [-79.16609702484445, 43.78395564304444], "screen_name": "tpscalls", "time": 1469925422.0, "tid": 759472893222916096, "text": "Disorderlies | Harris Ave &amp; Chisholm Ave [54 Div.] 07/30 15:30 #Woodbine_Heights #Toronto", "created_at": "Sat Jul 30 19:37:02 +0000 2016", "klabel": 92}}, {"geometry": {"type": "Point", "coordinates": [-79.3045467, 43.6864286]}, "type": "Feature", "id": 759496572304580608, "properties": {"loc": [-79.3045467, 43.6864286], "centroid": [-79.16609702484445, 43.78395564304444], "screen_name": "tofire", "time": 1469931068.0, "tid": 759496572304580608, "text": "Medical (Assist) - Stephenson Avenue b/w Westlake Avenue / Lane West Main St North Stephenson, Toronto (2 Trucks)", "created_at": "Sat Jul 30 21:11:08 +0000 2016", "klabel": 92}}, {"geometry": {"type": "Point", "coordinates": [-79.31388, 43.68566]}, "type": "Feature", "id": 759507563406823424, "properties": {"loc": [-79.31388, 43.68566], "centroid": [-79.16609702484445, 43.78395564304444], "screen_name": "bakedbeauty_", "time": 1469933688.0, "tid": 759507563406823424, "text": "WE OUT HERE\ud83c\udf19\u2728\ud83d\udc96\n#sailormooncafe #sailormoon #popupcafe #toronto #ticket420 #usagitsukino\u2026 https://t.co/qIiljUdN0t", "created_at": "Sat Jul 30 21:54:48 +0000 2016", "klabel": 92}}, {"geometry": {"type": "Point", "coordinates": [-79.30060124, 43.68840049]}, "type": "Feature", "id": 759508794372153344, "properties": {"loc": [-79.30060124, 43.68840049], "centroid": [-79.16609702484445, 43.78395564304444], "screen_name": "whitestar2009", "time": 1469933982.0, "tid": 759508794372153344, "text": "Checked in automatically with the Uber Checkin app! https://t.co/BYHxUki1A7 (at @TimHortons in Toronto, ON) https://t.co/DQZXepY9ox", "created_at": "Sat Jul 30 21:59:42 +0000 2016", "klabel": 92}}, {"geometry": {"type": "Point", "coordinates": [-79.29997937, 43.68853617]}, "type": "Feature", "id": 759508836482949120, "properties": {"loc": [-79.29997937, 43.68853617], "centroid": [-79.16609702484445, 43.78395564304444], "screen_name": "whitestar2009", "time": 1469933992.0, "tid": 759508836482949120, "text": "Checked in automatically with the Uber Checkin app! https://t.co/BYHxUki1A7 (@ Grillies) https://t.co/tPCpKzKXzo", "created_at": "Sat Jul 30 21:59:52 +0000 2016", "klabel": 92}}, {"geometry": {"type": "Point", "coordinates": [-79.29996286, 43.68865573]}, "type": "Feature", "id": 759508843965648902, "properties": {"loc": [-79.29996286, 43.68865573], "centroid": [-79.16609702484445, 43.78395564304444], "screen_name": "whitestar2009", "time": 1469933994.0, "tid": 759508843965648902, "text": "Checked in automatically with the Uber Checkin app! https://t.co/BYHxUki1A7 (at @Duckworths Fish and Chips) https://t.co/DbtKjORRw0", "created_at": "Sat Jul 30 21:59:54 +0000 2016", "klabel": 92}}, {"geometry": {"type": "Point", "coordinates": [-79.29994635, 43.68651556]}, "type": "Feature", "id": 759509243674370048, "properties": {"loc": [-79.29994635, 43.68651556], "centroid": [-79.16609702484445, 43.78395564304444], "screen_name": "whitestar2009", "time": 1469934089.0, "tid": 759509243674370048, "text": "Checked in automatically with the Uber Checkin app! https://t.co/BYHxUki1A7 (@ Danforth GO Station) https://t.co/8Ak8q8QzYt", "created_at": "Sat Jul 30 22:01:29 +0000 2016", "klabel": 92}}, {"geometry": {"type": "Point", "coordinates": [-79.3017067, 43.6879423]}, "type": "Feature", "id": 759523989052071936, "properties": {"loc": [-79.3017067, 43.6879423], "centroid": [-79.16609702484445, 43.78395564304444], "screen_name": "tpscalls", "time": 1469937604.0, "tid": 759523989052071936, "text": "Disorderlies | Ln 1 N Danforth E Main St &amp; Ln 2 N Danforth E Main St [54 Div.] 07/30 18:56 #Toronto", "created_at": "Sat Jul 30 23:00:04 +0000 2016", "klabel": 92}}, {"geometry": {"type": "Point", "coordinates": [-79.3001702, 43.6839718]}, "type": "Feature", "id": 759535566723612677, "properties": {"loc": [-79.3001702, 43.6839718], "centroid": [-79.16609702484445, 43.78395564304444], "screen_name": "tofire", "time": 1469940365.0, "tid": 759535566723612677, "text": "Medical (Trouble Breathing) - Main St b/w Gerrard St East / C North R, Toronto (2 Trucks)", "created_at": "Sat Jul 30 23:46:05 +0000 2016", "klabel": 92}}, {"geometry": {"type": "Point", "coordinates": [-79.3001702, 43.6839718]}, "type": "Feature", "id": 759535567482851328, "properties": {"loc": [-79.3001702, 43.6839718], "centroid": [-79.16609702484445, 43.78395564304444], "screen_name": "tofireE", "time": 1469940365.0, "tid": 759535567482851328, "text": "Medical (Trouble Breathing) - Main St b/w Gerrard St East / C North R, Toronto (2 Trucks)", "created_at": "Sat Jul 30 23:46:05 +0000 2016", "klabel": 92}}, {"geometry": {"type": "Point", "coordinates": [-79.31257, 43.680087]}, "type": "Feature", "id": 759741073493225472, "properties": {"loc": [-79.31257, 43.680087], "centroid": [-79.16609702484445, 43.78395564304444], "screen_name": "MapleLeafTavern", "time": 1469989361.0, "tid": 759741073493225472, "text": "Brunch at the Tavern. #gerrardsteast #leslieville #brunchto #mltavern @ 955 Gerrard St E. https://t.co/4Vk1JOnlVe", "created_at": "Sun Jul 31 13:22:41 +0000 2016", "klabel": 92}}, {"geometry": {"type": "Point", "coordinates": [-79.30119367, 43.68918706]}, "type": "Feature", "id": 759780435572371456, "properties": {"loc": [-79.30119367, 43.68918706], "centroid": [-79.16609702484445, 43.78395564304444], "screen_name": "TeddyMakwa", "time": 1469998746.0, "tid": 759780435572371456, "text": "Almost.forgot to get a pass. @ Main Subway Station https://t.co/ZIbkFAcvIm", "created_at": "Sun Jul 31 15:59:06 +0000 2016", "klabel": 92}}, {"geometry": {"type": "Point", "coordinates": [-79.3107504, 43.6807883]}, "type": "Feature", "id": 759802067452125184, "properties": {"loc": [-79.3107504, 43.6807883], "centroid": [-79.16609702484445, 43.78395564304444], "screen_name": "tpscalls", "time": 1470003903.0, "tid": 759802067452125184, "text": "Missing Child | Gerrard St E &amp; Woodbine Ave [55 Div.] 07/31 13:19 #Beach_Hill #Toronto", "created_at": "Sun Jul 31 17:25:03 +0000 2016", "klabel": 92}}, {"geometry": {"type": "Point", "coordinates": [-79.3011517, 43.678151]}, "type": "Feature", "id": 759833776004489216, "properties": {"loc": [-79.3011517, 43.678151], "centroid": [-79.16609702484445, 43.78395564304444], "screen_name": "tofire", "time": 1470011463.0, "tid": 759833776004489216, "text": "Medical (Assist) - Kingston Road b/w Lee Avenue / Glen Stewart Crescent, Toronto (2 Trucks)", "created_at": "Sun Jul 31 19:31:03 +0000 2016", "klabel": 92}}, {"geometry": {"type": "Point", "coordinates": [-79.3018044, 43.6881561]}, "type": "Feature", "id": 759849891510251520, "properties": {"loc": [-79.3018044, 43.6881561], "centroid": [-79.16609702484445, 43.78395564304444], "screen_name": "tofire", "time": 1470015306.0, "tid": 759849891510251520, "text": "Medical (Crime Related) - Main St @ Danforth Avenue, Toronto (3 Trucks)", "created_at": "Sun Jul 31 20:35:06 +0000 2016", "klabel": 92}}, {"geometry": {"type": "Point", "coordinates": [-79.3018044, 43.6881561]}, "type": "Feature", "id": 759849892516864000, "properties": {"loc": [-79.3018044, 43.6881561], "centroid": [-79.16609702484445, 43.78395564304444], "screen_name": "tofireE", "time": 1470015306.0, "tid": 759849892516864000, "text": "Medical (Crime Related) - Main St @ Danforth Avenue, Toronto (3 Trucks)", "created_at": "Sun Jul 31 20:35:06 +0000 2016", "klabel": 92}}, {"geometry": {"type": "Point", "coordinates": [-79.30060124, 43.68840049]}, "type": "Feature", "id": 759885842563334144, "properties": {"loc": [-79.30060124, 43.68840049], "centroid": [-79.16609702484445, 43.78395564304444], "screen_name": "whitestar2009", "time": 1470023877.0, "tid": 759885842563334144, "text": "Checked in automatically with the Uber Checkin app! https://t.co/BYHxUki1A7 (at @TimHortons in Toronto, ON) https://t.co/niWyGvslkK", "created_at": "Sun Jul 31 22:57:57 +0000 2016", "klabel": 92}}, {"geometry": {"type": "Point", "coordinates": [-79.29996286, 43.68865573]}, "type": "Feature", "id": 759886411478728704, "properties": {"loc": [-79.29996286, 43.68865573], "centroid": [-79.16609702484445, 43.78395564304444], "screen_name": "whitestar2009", "time": 1470024013.0, "tid": 759886411478728704, "text": "Checked in automatically with the Uber Checkin app! https://t.co/BYHxUki1A7 (at @Duckworths Fish and Chips) https://t.co/qtoObH334l", "created_at": "Sun Jul 31 23:00:13 +0000 2016", "klabel": 92}}, {"geometry": {"type": "Point", "coordinates": [-79.3009821, 43.6894368]}, "type": "Feature", "id": 759886387567005696, "properties": {"loc": [-79.3009821, 43.6894368], "centroid": [-79.16609702484445, 43.78395564304444], "screen_name": "tofireE", "time": 1470024007.0, "tid": 759886387567005696, "text": "Medical (Unconscious) - Coleman Avenue @ Barrington Avenue, Toronto (2 Trucks)", "created_at": "Sun Jul 31 23:00:07 +0000 2016", "klabel": 92}}, {"geometry": {"type": "Point", "coordinates": [-79.29997937, 43.68853617]}, "type": "Feature", "id": 759886427979190272, "properties": {"loc": [-79.29997937, 43.68853617], "centroid": [-79.16609702484445, 43.78395564304444], "screen_name": "whitestar2009", "time": 1470024017.0, "tid": 759886427979190272, "text": "Checked in automatically with the Uber Checkin app! https://t.co/BYHxUki1A7 (@ Grillies) https://t.co/dA9IRvYDgr", "created_at": "Sun Jul 31 23:00:17 +0000 2016", "klabel": 92}}, {"geometry": {"type": "Point", "coordinates": [-79.3120821, 43.6919826]}, "type": "Feature", "id": 759895438497615873, "properties": {"loc": [-79.3120821, 43.6919826], "centroid": [-79.16609702484445, 43.78395564304444], "screen_name": "tpscalls", "time": 1470026165.0, "tid": 759895438497615873, "text": "Dispute | Ln N Danforth E Gledhill &amp; King Edward Ave [54 Div.] 07/31 19:31 #Woodbine_Lumsden #Toronto", "created_at": "Sun Jul 31 23:36:05 +0000 2016", "klabel": 92}}, {"geometry": {"type": "Point", "coordinates": [-79.3135999, 43.68579]}, "type": "Feature", "id": 759973309673078784, "properties": {"loc": [-79.3135999, 43.68579], "centroid": [-79.16609702484445, 43.78395564304444], "screen_name": "GeoffBusbridge", "time": 1470044731.0, "tid": 759973309673078784, "text": "When you're at the bar working on an essay and someone comes by to \"help\" ... @ Firkin on Danforth https://t.co/oUqfPjH2Ps", "created_at": "Mon Aug 01 04:45:31 +0000 2016", "klabel": 92}}, {"geometry": {"type": "Point", "coordinates": [-79.29994635, 43.68651556]}, "type": "Feature", "id": 760004417475280896, "properties": {"loc": [-79.29994635, 43.68651556], "centroid": [-79.16609702484445, 43.78395564304444], "screen_name": "whitestar2009", "time": 1470052147.0, "tid": 760004417475280896, "text": "Checked in automatically with the Uber Checkin app! https://t.co/BYHxUki1A7 (@ Danforth GO Station) https://t.co/DsLl7A98DS", "created_at": "Mon Aug 01 06:49:07 +0000 2016", "klabel": 92}}, {"geometry": {"type": "Point", "coordinates": [-79.31305625, 43.6795013]}, "type": "Feature", "id": 760118549104865280, "properties": {"loc": [-79.31305625, 43.6795013], "centroid": [-79.16609702484445, 43.78395564304444], "screen_name": "TeddyMakwa", "time": 1470079359.0, "tid": 760118549104865280, "text": "Chatting with Analo. @ Harrys https://t.co/Qxsy5wbPfU", "created_at": "Mon Aug 01 14:22:39 +0000 2016", "klabel": 92}}, {"geometry": {"type": "Point", "coordinates": [-79.3000728, 43.6914752]}, "type": "Feature", "id": 760131233800159236, "properties": {"loc": [-79.3000728, 43.6914752], "centroid": [-79.16609702484445, 43.78395564304444], "screen_name": "tpscalls", "time": 1470082383.0, "tid": 760131233800159236, "text": "Dispute | Palmer St &amp; Dentonia Park Ave [54 Div.] 08/01 11:08 #Old_East_York #Toronto", "created_at": "Mon Aug 01 15:13:03 +0000 2016", "klabel": 92}}, {"geometry": {"type": "Point", "coordinates": [-79.3115968, 43.6828384]}, "type": "Feature", "id": 760157660582850560, "properties": {"loc": [-79.3115968, 43.6828384], "centroid": [-79.16609702484445, 43.78395564304444], "screen_name": "tpscalls", "time": 1470088683.0, "tid": 760157660582850560, "text": "Disorderlies | Woodmount Ave &amp; Woodbine Ave [54 Div.] 08/01 12:52 #Toronto", "created_at": "Mon Aug 01 16:58:03 +0000 2016", "klabel": 92}}, {"geometry": {"type": "Point", "coordinates": [-79.31, 43.69399]}, "type": "Feature", "id": 760221958361477120, "properties": {"loc": [-79.31, 43.69399], "centroid": [-79.16609702484445, 43.78395564304444], "screen_name": "radaction", "time": 1470104013.0, "tid": 760221958361477120, "text": "The kids are too scared but dave_mccaig &amp; @coreysllvn decided to start our bike tour out with\u2026 https://t.co/IGoXh2jIaY", "created_at": "Mon Aug 01 21:13:33 +0000 2016", "klabel": 92}}, {"geometry": {"type": "Point", "coordinates": [-79.31547, 43.685424]}, "type": "Feature", "id": 760227169859690496, "properties": {"loc": [-79.31547, 43.685424], "centroid": [-79.16609702484445, 43.78395564304444], "screen_name": "CaseP", "time": 1470105256.0, "tid": 760227169859690496, "text": "Because we spoil our kid. (at @CartersIceCream in Toronto, Canada) https://t.co/VYTpRBTMWn", "created_at": "Mon Aug 01 21:34:16 +0000 2016", "klabel": 92}}, {"geometry": {"type": "Point", "coordinates": [-79.3001702, 43.6839718]}, "type": "Feature", "id": 760271411260850176, "properties": {"loc": [-79.3001702, 43.6839718], "centroid": [-79.16609702484445, 43.78395564304444], "screen_name": "tofire", "time": 1470115804.0, "tid": 760271411260850176, "text": "Fire (Residential) - Main St b/w Gerrard St East / C North R, Toronto (7 Trucks)", "created_at": "Tue Aug 02 00:30:04 +0000 2016", "klabel": 92}}, {"geometry": {"type": "Point", "coordinates": [-79.3001702, 43.6839718]}, "type": "Feature", "id": 760271413324476416, "properties": {"loc": [-79.3001702, 43.6839718], "centroid": [-79.16609702484445, 43.78395564304444], "screen_name": "tofiref", "time": 1470115804.0, "tid": 760271413324476416, "text": "Fire (Residential) - Main St b/w Gerrard St East / C North R, Toronto (7 Trucks)", "created_at": "Tue Aug 02 00:30:04 +0000 2016", "klabel": 92}}, {"geometry": {"type": "Point", "coordinates": [-79.315636, 43.6859631]}, "type": "Feature", "id": 760282739836846080, "properties": {"loc": [-79.315636, 43.6859631], "centroid": [-79.16609702484445, 43.78395564304444], "screen_name": "tofire", "time": 1470118505.0, "tid": 760282739836846080, "text": "Fire (Residential) - Strathmore Boulevard b/w Woodmount Avenue / Woodbine Avenue, Toronto (8 Trucks)", "created_at": "Tue Aug 02 01:15:05 +0000 2016", "klabel": 92}}, {"geometry": {"type": "Point", "coordinates": [-79.315636, 43.6859631]}, "type": "Feature", "id": 760282741581709312, "properties": {"loc": [-79.315636, 43.6859631], "centroid": [-79.16609702484445, 43.78395564304444], "screen_name": "tofiref", "time": 1470118505.0, "tid": 760282741581709312, "text": "Fire (Residential) - Strathmore Boulevard b/w Woodmount Avenue / Woodbine Avenue, Toronto (8 Trucks)", "created_at": "Tue Aug 02 01:15:05 +0000 2016", "klabel": 92}}, {"geometry": {"type": "Point", "coordinates": [-79.315636, 43.6859631]}, "type": "Feature", "id": 760282740747014144, "properties": {"loc": [-79.315636, 43.6859631], "centroid": [-79.16609702484445, 43.78395564304444], "screen_name": "tofireE", "time": 1470118505.0, "tid": 760282740747014144, "text": "Fire (Residential) - Strathmore Boulevard b/w Woodmount Avenue / Woodbine Avenue, Toronto (8 Trucks)", "created_at": "Tue Aug 02 01:15:05 +0000 2016", "klabel": 92}}, {"geometry": {"type": "Point", "coordinates": [-79.31257725, 43.68557903]}, "type": "Feature", "id": 760509429825564677, "properties": {"loc": [-79.31257725, 43.68557903], "centroid": [-79.16609702484445, 43.78395564304444], "screen_name": "BarryTheBazman", "time": 1470172552.0, "tid": 760509429825564677, "text": "I'm at Danforth Village in Toronto, ON https://t.co/JTjLMAy0rG", "created_at": "Tue Aug 02 16:15:52 +0000 2016", "klabel": 92}}, {"geometry": {"type": "Point", "coordinates": [-79.31590138, 43.69840695]}, "type": "Feature", "id": 760519211802243073, "properties": {"loc": [-79.31590138, 43.69840695], "centroid": [-79.16609702484445, 43.78395564304444], "screen_name": "stardchiu", "time": 1470174884.0, "tid": 760519211802243073, "text": "I like a nice wall = outfit post! \ud83d\ude02#bloggerslife #weekendlook #dchiuoutfit #outfit @ Kiwanis Pool https://t.co/H59Ce5BNwE", "created_at": "Tue Aug 02 16:54:44 +0000 2016", "klabel": 92}}, {"geometry": {"type": "Point", "coordinates": [-79.3049395, 43.6925111]}, "type": "Feature", "id": 760544960286433281, "properties": {"loc": [-79.3049395, 43.6925111], "centroid": [-79.16609702484445, 43.78395564304444], "screen_name": "tpscalls", "time": 1470181023.0, "tid": 760544960286433281, "text": "Arrest | Westlake Ave &amp; Chisholm Ave [54 Div.] 08/02 14:30 #Woodbine_Heights #Toronto", "created_at": "Tue Aug 02 18:37:03 +0000 2016", "klabel": 92}}, {"geometry": {"type": "Point", "coordinates": [-79.3103698, 43.6909098]},