{"type": "FeatureCollection", "features": [{"geometry": {"type": "Point", "coordinates": [-79.61174011, 43.68059921]}, "type": "Feature", "id": 705046543364177920, "properties": {"loc": [-79.61174011, 43.68059921], "centroid": [-79.19026526340683, 43.77727804520397], "screen_name": "wxTO", "time": 1456949169.0, "tid": 705046543364177920, "text": "10am: Drifting Snow -7.7C - Feels: -17C - Wind: NW 33km/h - Bar: 101.5 kPa ^ - Hum: 58% #Toronto #Weather", "created_at": "Wed Mar 02 15:06:09 +0000 2016", "klabel": 9}}, {"geometry": {"type": "Point", "coordinates": [-79.61582285, 43.681823]}, "type": "Feature", "id": 705049445545746433, "properties": {"loc": [-79.61582285, 43.681823], "centroid": [-79.19026526340683, 43.77727804520397], "screen_name": "Thesocakitchen", "time": 1456949861.0, "tid": 705049445545746433, "text": "We can see #Toronto almost there #Ottawa #socakitchen #socapub #ottawa #foodporn #ottawafood\u2026 https://t.co/5FUJ4DrSgE", "created_at": "Wed Mar 02 15:17:41 +0000 2016", "klabel": 9}}, {"geometry": {"type": "Point", "coordinates": [-79.61582285, 43.681823]}, "type": "Feature", "id": 705058544177917952, "properties": {"loc": [-79.61582285, 43.681823], "centroid": [-79.19026526340683, 43.77727804520397], "screen_name": "Mommy_Jennof3", "time": 1456952030.0, "tid": 705058544177917952, "text": "Locked and load and waiting for my flight to #Montreal with canadiantire #CTwinterTireTesting @\u2026 https://t.co/FHsPrbcbFG", "created_at": "Wed Mar 02 15:53:50 +0000 2016", "klabel": 9}}, {"geometry": {"type": "Point", "coordinates": [-79.61582285, 43.681823]}, "type": "Feature", "id": 705059423266463749, "properties": {"loc": [-79.61582285, 43.681823], "centroid": [-79.19026526340683, 43.77727804520397], "screen_name": "danisdriven", "time": 1456952240.0, "tid": 705059423266463749, "text": "\u27a1\ufe0fChoices\u2757\ufe0f\n\u2796\nIt's what life is about. Consciously and subconsciously we make hundreds of\u2026 https://t.co/DqfF5HYzLm", "created_at": "Wed Mar 02 15:57:20 +0000 2016", "klabel": 9}}, {"geometry": {"type": "Point", "coordinates": [-79.61174011, 43.68059921]}, "type": "Feature", "id": 705091827247005697, "properties": {"loc": [-79.61174011, 43.68059921], "centroid": [-79.19026526340683, 43.77727804520397], "screen_name": "wxTO", "time": 1456959966.0, "tid": 705091827247005697, "text": "1pm: Mainly Sunny -5.6C - Feels: -14C - Wind: NW 31km/h Gusts to 42km/h - Bar: 101.6 kPa ^ - Hum: 51% #Toronto #Weather", "created_at": "Wed Mar 02 18:06:06 +0000 2016", "klabel": 9}}, {"geometry": {"type": "Point", "coordinates": [-79.61208344, 43.68065997]}, "type": "Feature", "id": 705092566547570688, "properties": {"loc": [-79.61208344, 43.68065997], "centroid": [-79.19026526340683, 43.77727804520397], "screen_name": "andraspapp", "time": 1456960142.0, "tid": 705092566547570688, "text": "I'm at @TorontoPearson International Airport (YYZ) in Mississauga, ON https://t.co/IjzT5YVEjL", "created_at": "Wed Mar 02 18:09:02 +0000 2016", "klabel": 9}}, {"geometry": {"type": "Point", "coordinates": [-79.61582285, 43.681823]}, "type": "Feature", "id": 705092883968335872, "properties": {"loc": [-79.61582285, 43.681823], "centroid": [-79.19026526340683, 43.77727804520397], "screen_name": "quintynesmall", "time": 1456960218.0, "tid": 705092883968335872, "text": "Time to get used to seeing this everyday... @ Toronto Pearson\u2026 https://t.co/kiJN5rmJgj", "created_at": "Wed Mar 02 18:10:18 +0000 2016", "klabel": 9}}, {"geometry": {"type": "Point", "coordinates": [-79.62045193, 43.68564886]}, "type": "Feature", "id": 705106392848470016, "properties": {"loc": [-79.62045193, 43.68564886], "centroid": [-79.19026526340683, 43.77727804520397], "screen_name": "djnamttor", "time": 1456963438.0, "tid": 705106392848470016, "text": "I'm at Terminal 3 - @torontopearson in Mississauga, ON https://t.co/Mlw6jRaxQR", "created_at": "Wed Mar 02 19:03:58 +0000 2016", "klabel": 9}}, {"geometry": {"type": "Point", "coordinates": [-79.62089469, 43.68569529]}, "type": "Feature", "id": 705106490785460225, "properties": {"loc": [-79.62089469, 43.68569529], "centroid": [-79.19026526340683, 43.77727804520397], "screen_name": "djnamttor", "time": 1456963462.0, "tid": 705106490785460225, "text": "I'm at Canada Customs in Mississauga, ON https://t.co/j4iKrADGBp", "created_at": "Wed Mar 02 19:04:22 +0000 2016", "klabel": 9}}, {"geometry": {"type": "Point", "coordinates": [-79.61174011, 43.68059921]}, "type": "Feature", "id": 705122046087450627, "properties": {"loc": [-79.61174011, 43.68059921], "centroid": [-79.19026526340683, 43.77727804520397], "screen_name": "wxTO", "time": 1456967170.0, "tid": 705122046087450627, "text": "3pm: Drifting Snow -5.0C - Feels: -13C - Wind: NW 31km/h - Bar: 101.7 kPa ^ - Hum: 50% #Toronto #Weather", "created_at": "Wed Mar 02 20:06:10 +0000 2016", "klabel": 9}}, {"geometry": {"type": "Point", "coordinates": [-79.61582285, 43.681823]}, "type": "Feature", "id": 705125567322943488, "properties": {"loc": [-79.61582285, 43.681823], "centroid": [-79.19026526340683, 43.77727804520397], "screen_name": "cfiessinger", "time": 1456968010.0, "tid": 705125567322943488, "text": "Terminal 1 #yyz #toronto @ Toronto Pearson International Airport https://t.co/aJc2PTnGMj", "created_at": "Wed Mar 02 20:20:10 +0000 2016", "klabel": 9}}, {"geometry": {"type": "Point", "coordinates": [-79.61582285, 43.681823]}, "type": "Feature", "id": 705133008626413568, "properties": {"loc": [-79.61582285, 43.681823], "centroid": [-79.19026526340683, 43.77727804520397], "screen_name": "elmago_1970", "time": 1456969784.0, "tid": 705133008626413568, "text": "Pre-boarding pasty white selfies! Me &amp; Nicole! I haven't seen this girl in 20 years!\u2026 https://t.co/ZC3yOi8fI1", "created_at": "Wed Mar 02 20:49:44 +0000 2016", "klabel": 9}}, {"geometry": {"type": "Point", "coordinates": [-79.61582285, 43.681823]}, "type": "Feature", "id": 705133500987379712, "properties": {"loc": [-79.61582285, 43.681823], "centroid": [-79.19026526340683, 43.77727804520397], "screen_name": "elmago_1970", "time": 1456969902.0, "tid": 705133500987379712, "text": "The rest of our travel mates: Nicole, Megan &amp; Kaitlin #girlstrip #2016 #cayococo #vacation #sun\u2026 https://t.co/zwRKMgwWpi", "created_at": "Wed Mar 02 20:51:42 +0000 2016", "klabel": 9}}, {"geometry": {"type": "Point", "coordinates": [-79.61129047, 43.6795965]}, "type": "Feature", "id": 705134199129255937, "properties": {"loc": [-79.61129047, 43.6795965], "centroid": [-79.19026526340683, 43.77727804520397], "screen_name": "cfiessinger", "time": 1456970068.0, "tid": 705134199129255937, "text": "Chicken schnitzel &amp; Molson &gt; the Canadian dream?", "created_at": "Wed Mar 02 20:54:28 +0000 2016", "klabel": 9}}, {"geometry": {"type": "Point", "coordinates": [-79.61174011, 43.68059921]}, "type": "Feature", "id": 705137136731815940, "properties": {"loc": [-79.61174011, 43.68059921], "centroid": [-79.19026526340683, 43.77727804520397], "screen_name": "wxTO", "time": 1456970768.0, "tid": 705137136731815940, "text": "4pm: Drifting Snow -5.2C - Feels: -13C - Wind: WNW 31km/h Gusts to 49km/h - Bar: 101.8 kPa ^ - Hum: 49% #Toronto #Weather", "created_at": "Wed Mar 02 21:06:08 +0000 2016", "klabel": 9}}, {"geometry": {"type": "Point", "coordinates": [-79.61208344, 43.68065997]}, "type": "Feature", "id": 705143227989565442, "properties": {"loc": [-79.61208344, 43.68065997], "centroid": [-79.19026526340683, 43.77727804520397], "screen_name": "cfiessinger", "time": 1456972221.0, "tid": 705143227989565442, "text": "goodbye Toronto, it was fun (at @TorontoPearson International Airport (YYZ) in Mississauga, ON) https://t.co/vs9E8pmO4o", "created_at": "Wed Mar 02 21:30:21 +0000 2016", "klabel": 9}}, {"geometry": {"type": "Point", "coordinates": [-79.6206158, 43.6821214]}, "type": "Feature", "id": 705151763066662912, "properties": {"loc": [-79.6206158, 43.6821214], "centroid": [-79.19026526340683, 43.77727804520397], "screen_name": "seanstshibe", "time": 1456974256.0, "tid": 705151763066662912, "text": "@KLM made it! Thanks though :)", "created_at": "Wed Mar 02 22:04:16 +0000 2016", "klabel": 9}}, {"geometry": {"type": "Point", "coordinates": [-79.61174011, 43.68059921]}, "type": "Feature", "id": 705152227615309824, "properties": {"loc": [-79.61174011, 43.68059921], "centroid": [-79.19026526340683, 43.77727804520397], "screen_name": "wxTO", "time": 1456974366.0, "tid": 705152227615309824, "text": "5pm: Mostly Cloudy -6.1C - Feels: -15C - Wind: WNW 33km/h Gusts to 44km/h - Bar: 101.9 kPa ^ - Hum: 49% #Toronto #Weather", "created_at": "Wed Mar 02 22:06:06 +0000 2016", "klabel": 9}}, {"geometry": {"type": "Point", "coordinates": [-79.61174011, 43.68059921]}, "type": "Feature", "id": 705153729532706816, "properties": {"loc": [-79.61174011, 43.68059921], "centroid": [-79.19026526340683, 43.77727804520397], "screen_name": "wxTO", "time": 1456974724.0, "tid": 705153729532706816, "text": "5pm: Drifting Snow -6.1C - Feels: -15C - Wind: WNW 33km/h Gusts to 44km/h - Bar: 101.9 kPa ^ - Hum: 49% #Toronto #Weather", "created_at": "Wed Mar 02 22:12:04 +0000 2016", "klabel": 9}}, {"geometry": {"type": "Point", "coordinates": [-79.61582285, 43.681823]}, "type": "Feature", "id": 705169346402914304, "properties": {"loc": [-79.61582285, 43.681823], "centroid": [-79.19026526340683, 43.77727804520397], "screen_name": "XCGriff94", "time": 1456978448.0, "tid": 705169346402914304, "text": "View outside my window flight home!! Well though #PHL #americanairlines #ocanada #toronto\u2026 https://t.co/QWP6NdX5FU", "created_at": "Wed Mar 02 23:14:08 +0000 2016", "klabel": 9}}, {"geometry": {"type": "Point", "coordinates": [-79.61208344, 43.68065997]}, "type": "Feature", "id": 705173931645390852, "properties": {"loc": [-79.61208344, 43.68065997], "centroid": [-79.19026526340683, 43.77727804520397], "screen_name": "lenny_", "time": 1456979541.0, "tid": 705173931645390852, "text": "I'm at @TorontoPearson International Airport (YYZ) in Mississauga, ON https://t.co/R9wdlMEU4X", "created_at": "Wed Mar 02 23:32:21 +0000 2016", "klabel": 9}}, {"geometry": {"type": "Point", "coordinates": [-79.61208344, 43.68065997]}, "type": "Feature", "id": 705174085802840064, "properties": {"loc": [-79.61208344, 43.68065997], "centroid": [-79.19026526340683, 43.77727804520397], "screen_name": "rwangsa", "time": 1456979578.0, "tid": 705174085802840064, "text": "Toronto!!  First time. (@ Toronto Pearson International Airport (YYZ) in Mississauga, ON) https://t.co/YK4OA7djSD https://t.co/7anGh9McXY", "created_at": "Wed Mar 02 23:32:58 +0000 2016", "klabel": 9}}, {"geometry": {"type": "Point", "coordinates": [-79.61582285, 43.681823]}, "type": "Feature", "id": 705180692037111809, "properties": {"loc": [-79.61582285, 43.681823], "centroid": [-79.19026526340683, 43.77727804520397], "screen_name": "KirstenSmillie", "time": 1456981153.0, "tid": 705180692037111809, "text": "Oh this just made this flight WAY BETTER!!!!!!! @ Toronto Pearson International Airport https://t.co/UKRGTWWZUj", "created_at": "Wed Mar 02 23:59:13 +0000 2016", "klabel": 9}}, {"geometry": {"type": "Point", "coordinates": [-79.61174011, 43.68059921]}, "type": "Feature", "id": 705182426000179202, "properties": {"loc": [-79.61174011, 43.68059921], "centroid": [-79.19026526340683, 43.77727804520397], "screen_name": "wxTO", "time": 1456981566.0, "tid": 705182426000179202, "text": "7pm: Drifting Snow -8.3C - Feels: -17C - Wind: NW 30km/h Gusts to 47km/h - Bar: 102.2 kPa ^ - Hum: 53% #Toronto #Weather", "created_at": "Thu Mar 03 00:06:06 +0000 2016", "klabel": 9}}, {"geometry": {"type": "Point", "coordinates": [-79.61972222, 43.68611111]}, "type": "Feature", "id": 705183666805157889, "properties": {"loc": [-79.61972222, 43.68611111], "centroid": [-79.19026526340683, 43.77727804520397], "screen_name": "glenncalderon", "time": 1456981862.0, "tid": 705183666805157889, "text": "Waiting for my flight to Iceland. Wasn't really hungry but they have a Caplansky's by the gate,\u2026 https://t.co/BMq8GB6GDi", "created_at": "Thu Mar 03 00:11:02 +0000 2016", "klabel": 9}}, {"geometry": {"type": "Point", "coordinates": [-79.60862421, 43.67977805]}, "type": "Feature", "id": 705196340955840512, "properties": {"loc": [-79.60862421, 43.67977805], "centroid": [-79.19026526340683, 43.77727804520397], "screen_name": "shayman", "time": 1456984884.0, "tid": 705196340955840512, "text": "Flight delayed an hour? Go to the gate. Maybe you'll find an earlier flight that's also late but ready to leave. #HeShootsHeScores", "created_at": "Thu Mar 03 01:01:24 +0000 2016", "klabel": 9}}, {"geometry": {"type": "Point", "coordinates": [-79.61174011, 43.68059921]}, "type": "Feature", "id": 705197533254062080, "properties": {"loc": [-79.61174011, 43.68059921], "centroid": [-79.19026526340683, 43.77727804520397], "screen_name": "wxTO", "time": 1456985168.0, "tid": 705197533254062080, "text": "8pm: Mainly Clear -9.1C - Feels: -16C - Wind: NW 18km/h - Bar: 102.2 kPa ^ - Hum: 55% #Toronto #Weather", "created_at": "Thu Mar 03 01:06:08 +0000 2016", "klabel": 9}}, {"geometry": {"type": "Point", "coordinates": [-79.61946418, 43.68597033]}, "type": "Feature", "id": 705201489384329216, "properties": {"loc": [-79.61946418, 43.68597033], "centroid": [-79.19026526340683, 43.77727804520397], "screen_name": "prankoyss", "time": 1456986111.0, "tid": 705201489384329216, "text": "Home sweet home! https://t.co/UetthJlpGl", "created_at": "Thu Mar 03 01:21:51 +0000 2016", "klabel": 9}}, {"geometry": {"type": "Point", "coordinates": [-79.60902213, 43.67960951]}, "type": "Feature", "id": 705202357487800320, "properties": {"loc": [-79.60902213, 43.67960951], "centroid": [-79.19026526340683, 43.77727804520397], "screen_name": "shayman", "time": 1456986318.0, "tid": 705202357487800320, "text": "Delayed flight. We have just been informed: \"There are no cups.\"\n\nLet's go. We'll manage.", "created_at": "Thu Mar 03 01:25:18 +0000 2016", "klabel": 9}}, {"geometry": {"type": "Point", "coordinates": [-79.60977008, 43.67894297]}, "type": "Feature", "id": 705206187281686529, "properties": {"loc": [-79.60977008, 43.67894297], "centroid": [-79.19026526340683, 43.77727804520397], "screen_name": "shayman", "time": 1456987231.0, "tid": 705206187281686529, "text": "This earlier delayed flight is so delayed that we're all getting discount code in apology. Unexpected bonus.", "created_at": "Thu Mar 03 01:40:31 +0000 2016", "klabel": 9}}, {"geometry": {"type": "Point", "coordinates": [-79.60965371, 43.67908385]}, "type": "Feature", "id": 705206987600953344, "properties": {"loc": [-79.60965371, 43.67908385], "centroid": [-79.19026526340683, 43.77727804520397], "screen_name": "shayman", "time": 1456987422.0, "tid": 705206987600953344, "text": "And my original flight has been delayed another hour. Thank you O God of Travel, for thy capriciousness is working out nicely in my favour.", "created_at": "Thu Mar 03 01:43:42 +0000 2016", "klabel": 9}}, {"geometry": {"type": "Point", "coordinates": [-79.60955389, 43.67902365]}, "type": "Feature", "id": 705208467334701056, "properties": {"loc": [-79.60955389, 43.67902365], "centroid": [-79.19026526340683, 43.77727804520397], "screen_name": "shayman", "time": 1456987775.0, "tid": 705208467334701056, "text": ".@myflightcomp What a useless retweeting robot you are.", "created_at": "Thu Mar 03 01:49:35 +0000 2016", "klabel": 9}}, {"geometry": {"type": "Point", "coordinates": [-79.61582285, 43.681823]}, "type": "Feature", "id": 705217101628350464, "properties": {"loc": [-79.61582285, 43.681823], "centroid": [-79.19026526340683, 43.77727804520397], "screen_name": "ronperronphoto", "time": 1456989833.0, "tid": 705217101628350464, "text": "On board. This plane is tiny. robleoni66 barely fit.. \ud83d\ude02\ud83d\udeeb see shortly #Columbus #arnoldclassic\u2026 https://t.co/mRP9i6tln8", "created_at": "Thu Mar 03 02:23:53 +0000 2016", "klabel": 9}}, {"geometry": {"type": "Point", "coordinates": [-79.61174011, 43.68059921]}, "type": "Feature", "id": 705226970863427584, "properties": {"loc": [-79.61174011, 43.68059921], "centroid": [-79.19026526340683, 43.77727804520397], "screen_name": "wxTO", "time": 1456992186.0, "tid": 705226970863427584, "text": "10pm: Mostly Cloudy -8.5C - Feels: -16C - Wind: W 18km/h - Bar: 102.3 kPa ^ - Hum: 61% #Toronto #Weather", "created_at": "Thu Mar 03 03:03:06 +0000 2016", "klabel": 9}}, {"geometry": {"type": "Point", "coordinates": [-79.61582285, 43.681823]}, "type": "Feature", "id": 705228877170405376, "properties": {"loc": [-79.61582285, 43.681823], "centroid": [-79.19026526340683, 43.77727804520397], "screen_name": "rebeccafelgate", "time": 1456992641.0, "tid": 705228877170405376, "text": "One last sip of Canada before I guzzle up England for a few days \ud83c\udde8\ud83c\udde6\u2764\ufe0f\ud83c\uddec\ud83c\udde7 #travel #travelgram\u2026 https://t.co/lBoTSkxnNZ", "created_at": "Thu Mar 03 03:10:41 +0000 2016", "klabel": 9}}, {"geometry": {"type": "Point", "coordinates": [-79.61174011, 43.68059921]}, "type": "Feature", "id": 705242071540568064, "properties": {"loc": [-79.61174011, 43.68059921], "centroid": [-79.19026526340683, 43.77727804520397], "screen_name": "wxTO", "time": 1456995787.0, "tid": 705242071540568064, "text": "11pm: Mostly Cloudy -8.3C - Feels: -15C - Wind: NW 18km/h - Bar: 102.4 kPa ^ - Hum: 58% #Toronto #Weather", "created_at": "Thu Mar 03 04:03:07 +0000 2016", "klabel": 9}}, {"geometry": {"type": "Point", "coordinates": [-79.61174011, 43.68059921]}, "type": "Feature", "id": 705257917654691840, "properties": {"loc": [-79.61174011, 43.68059921], "centroid": [-79.19026526340683, 43.77727804520397], "screen_name": "wxTO", "time": 1456999565.0, "tid": 705257917654691840, "text": "12am: Mostly Cloudy -9.2C - Feels: -15C - Wind: NNE 13km/h - Bar: 102.4 kPa ^ - Hum: 62% #Toronto #Weather", "created_at": "Thu Mar 03 05:06:05 +0000 2016", "klabel": 9}}, {"geometry": {"type": "Point", "coordinates": [-79.61208344, 43.68065997]}, "type": "Feature", "id": 705280568460763136, "properties": {"loc": [-79.61208344, 43.68065997], "centroid": [-79.19026526340683, 43.77727804520397], "screen_name": "daimanuel", "time": 1457004965.0, "tid": 705280568460763136, "text": "I'm at @TorontoPearson International Airport (YYZ) in Mississauga, ON https://t.co/twOhcfeZ0q", "created_at": "Thu Mar 03 06:36:05 +0000 2016", "klabel": 9}}, {"geometry": {"type": "Point", "coordinates": [-79.61174011, 43.68059921]}, "type": "Feature", "id": 705302468381577216, "properties": {"loc": [-79.61174011, 43.68059921], "centroid": [-79.19026526340683, 43.77727804520397], "screen_name": "wxTO", "time": 1457010187.0, "tid": 705302468381577216, "text": "3am: Cloudy -9.4C - Wind: N 1km/h - Bar: 102.5 kPa ^ - Hum: 66% #Toronto #Weather", "created_at": "Thu Mar 03 08:03:07 +0000 2016", "klabel": 9}}, {"geometry": {"type": "Point", "coordinates": [-79.62185988, 43.69014363]}, "type": "Feature", "id": 705308074203021312, "properties": {"loc": [-79.62185988, 43.69014363], "centroid": [-79.19026526340683, 43.77727804520397], "screen_name": "Doug1022", "time": 1457011523.0, "tid": 705308074203021312, "text": "I'm at Four Points by Sheraton Toronto Airport in Mississauga, ON https://t.co/un8XBC2voU", "created_at": "Thu Mar 03 08:25:23 +0000 2016", "klabel": 9}}, {"geometry": {"type": "Point", "coordinates": [-79.61174011, 43.68059921]}, "type": "Feature", "id": 705318327984508928, "properties": {"loc": [-79.61174011, 43.68059921], "centroid": [-79.19026526340683, 43.77727804520397], "screen_name": "wxTO", "time": 1457013968.0, "tid": 705318327984508928, "text": "4am: Cloudy -9.4C - Feels: -12C - Wind: NNE 5km/h - Bar: 102.5 kPa ^ - Hum: 69% #Toronto #Weather", "created_at": "Thu Mar 03 09:06:08 +0000 2016", "klabel": 9}}, {"geometry": {"type": "Point", "coordinates": [-79.62045193, 43.68564886]}, "type": "Feature", "id": 705318501569921024, "properties": {"loc": [-79.62045193, 43.68564886], "centroid": [-79.19026526340683, 43.77727804520397], "screen_name": "Doug1022", "time": 1457014009.0, "tid": 705318501569921024, "text": "I'm at Terminal 3 - @torontopearson in Mississauga, ON https://t.co/LepdKGYzbw", "created_at": "Thu Mar 03 09:06:49 +0000 2016", "klabel": 9}}, {"geometry": {"type": "Point", "coordinates": [-79.62206828, 43.68597568]}, "type": "Feature", "id": 705327176435044352, "properties": {"loc": [-79.62206828, 43.68597568], "centroid": [-79.19026526340683, 43.77727804520397], "screen_name": "Doug1022", "time": 1457016077.0, "tid": 705327176435044352, "text": "I'm at Concourse A https://t.co/1mdF7Yq9cC", "created_at": "Thu Mar 03 09:41:17 +0000 2016", "klabel": 9}}, {"geometry": {"type": "Point", "coordinates": [-79.62385056, 43.68513792]}, "type": "Feature", "id": 705327266893602816, "properties": {"loc": [-79.62385056, 43.68513792], "centroid": [-79.19026526340683, 43.77727804520397], "screen_name": "Doug1022", "time": 1457016099.0, "tid": 705327266893602816, "text": "Ahhhhh (@ Starbucks in Mississauga, ON) https://t.co/t2505qWg3s", "created_at": "Thu Mar 03 09:41:39 +0000 2016", "klabel": 9}}, {"geometry": {"type": "Point", "coordinates": [-79.6237683, 43.68470071]}, "type": "Feature", "id": 705329251076218880, "properties": {"loc": [-79.6237683, 43.68470071], "centroid": [-79.19026526340683, 43.77727804520397], "screen_name": "Doug1022", "time": 1457016572.0, "tid": 705329251076218880, "text": "I'm at Gate A18 - @torontopearson in Mississauga, ON https://t.co/CbL2VqMpEY", "created_at": "Thu Mar 03 09:49:32 +0000 2016", "klabel": 9}}, {"geometry": {"type": "Point", "coordinates": [-79.61174011, 43.68059921]}, "type": "Feature", "id": 705333425184645120, "properties": {"loc": [-79.61174011, 43.68059921], "centroid": [-79.19026526340683, 43.77727804520397], "screen_name": "wxTO", "time": 1457017567.0, "tid": 705333425184645120, "text": "5am: Mostly Cloudy -9.3C - Feels: -13C - Wind: NE 6km/h - Bar: 102.5 kPa ^ - Hum: 66% #Toronto #Weather", "created_at": "Thu Mar 03 10:06:07 +0000 2016", "klabel": 9}}, {"geometry": {"type": "Point", "coordinates": [-79.6239, 43.684343]}, "type": "Feature", "id": 705341107178229760, "properties": {"loc": [-79.6239, 43.684343], "centroid": [-79.19026526340683, 43.77727804520397], "screen_name": "Doug1022", "time": 1457019399.0, "tid": 705341107178229760, "text": "Leaving the tundra for just the \"cold\" \ud83d\ude0a (@ Delta Flight:  YYZ to JFK in Toronto) https://t.co/KrIb3z4O4C", "created_at": "Thu Mar 03 10:36:39 +0000 2016", "klabel": 9}}, {"geometry": {"type": "Point", "coordinates": [-79.62103728, 43.67088061]}, "type": "Feature", "id": 705343603032399872, "properties": {"loc": [-79.62103728, 43.67088061], "centroid": [-79.19026526340683, 43.77727804520397], "screen_name": "Doug1022", "time": 1457019994.0, "tid": 705343603032399872, "text": "I'm at De-icing Pad in Mississauga, ON https://t.co/hpjeLmzk1b", "created_at": "Thu Mar 03 10:46:34 +0000 2016", "klabel": 9}}, {"geometry": {"type": "Point", "coordinates": [-79.61582285, 43.681823]}, "type": "Feature", "id": 705344877467402240, "properties": {"loc": [-79.61582285, 43.681823], "centroid": [-79.19026526340683, 43.77727804520397], "screen_name": "morboywnder", "time": 1457020298.0, "tid": 705344877467402240, "text": "Leaving Toronto take2 #americanairlines #getmeoutofhere @ Toronto Pearson International Airport https://t.co/FgSUnsvTbU", "created_at": "Thu Mar 03 10:51:38 +0000 2016", "klabel": 9}}, {"geometry": {"type": "Point", "coordinates": [-79.61208344, 43.68065997]}, "type": "Feature", "id": 705348296437587968, "properties": {"loc": [-79.61208344, 43.68065997], "centroid": [-79.19026526340683, 43.77727804520397], "screen_name": "sayaendou_", "time": 1457021113.0, "tid": 705348296437587968, "text": "gb (at @TorontoPearson International Airport (YYZ) in Mississauga, ON) https://t.co/m4cat9X5rZ", "created_at": "Thu Mar 03 11:05:13 +0000 2016", "klabel": 9}}, {"geometry": {"type": "Point", "coordinates": [-79.61208344, 43.68065997]}, "type": "Feature", "id": 705358280504287232, "properties": {"loc": [-79.61208344, 43.68065997], "centroid": [-79.19026526340683, 43.77727804520397], "screen_name": "AjayHolmes", "time": 1457023493.0, "tid": 705358280504287232, "text": "Almost there! #ACPA16 (at @TorontoPearson International Airport (YYZ) in Mississauga, ON) https://t.co/Vmn64czgJc", "created_at": "Thu Mar 03 11:44:53 +0000 2016", "klabel": 9}}, {"geometry": {"type": "Point", "coordinates": [-79.61208344, 43.68065997]}, "type": "Feature", "id": 705372972991823873, "properties": {"loc": [-79.61208344, 43.68065997], "centroid": [-79.19026526340683, 43.77727804520397], "screen_name": "mrmassimog", "time": 1457026996.0, "tid": 705372972991823873, "text": "Good Morning #airCanada.  I sure enjoy these morning flights.\u2026 https://t.co/8VUF7qz7HP", "created_at": "Thu Mar 03 12:43:16 +0000 2016", "klabel": 9}}, {"geometry": {"type": "Point", "coordinates": [-79.61414337, 43.68121862]}, "type": "Feature", "id": 705375855745372160, "properties": {"loc": [-79.61414337, 43.68121862], "centroid": [-79.19026526340683, 43.77727804520397], "screen_name": "coreyeastman", "time": 1457027683.0, "tid": 705375855745372160, "text": "I'm at Maple Leaf Lounge (Domestic) in Mississauga, ON https://t.co/TwgkfnVE5V", "created_at": "Thu Mar 03 12:54:43 +0000 2016", "klabel": 9}}, {"geometry": {"type": "Point", "coordinates": [-79.61174011, 43.68059921]}, "type": "Feature", "id": 705378722136911872, "properties": {"loc": [-79.61174011, 43.68059921], "centroid": [-79.19026526340683, 43.77727804520397], "screen_name": "wxTO", "time": 1457028367.0, "tid": 705378722136911872, "text": "8am: Light Snow -9.3C - Feels: -14C - Wind: ENE 9km/h - Bar: 102.5 kPa ^ - Hum: 62% #Toronto #Weather", "created_at": "Thu Mar 03 13:06:07 +0000 2016", "klabel": 9}}, {"geometry": {"type": "Point", "coordinates": [-79.61174011, 43.68059921]}, "type": "Feature", "id": 705387785251917824, "properties": {"loc": [-79.61174011, 43.68059921], "centroid": [-79.19026526340683, 43.77727804520397], "screen_name": "wxTO", "time": 1457030528.0, "tid": 705387785251917824, "text": "8am: Mostly Cloudy -8.7C - Feels: -13C - Wind: E 9km/h - Bar: 102.6 kPa ^ - Hum: 63% #Toronto #Weather", "created_at": "Thu Mar 03 13:42:08 +0000 2016", "klabel": 9}}, {"geometry": {"type": "Point", "coordinates": [-79.61174011, 43.68059921]}, "type": "Feature", "id": 705393843550687232, "properties": {"loc": [-79.61174011, 43.68059921], "centroid": [-79.19026526340683, 43.77727804520397], "screen_name": "wxTO", "time": 1457031972.0, "tid": 705393843550687232, "text": "9am: Mostly Cloudy -8.4C - Feels: -13C - Wind: E 9km/h - Bar: 102.6 kPa ^ - Hum: 62% #Toronto #Weather", "created_at": "Thu Mar 03 14:06:12 +0000 2016", "klabel": 9}}, {"geometry": {"type": "Point", "coordinates": [-79.61174011, 43.68059921]}, "type": "Feature", "id": 705408185432186880, "properties": {"loc": [-79.61174011, 43.68059921], "centroid": [-79.19026526340683, 43.77727804520397], "screen_name": "wxTO", "time": 1457035391.0, "tid": 705408185432186880, "text": "10am: Mostly Cloudy -6.4C - Feels: -13C - Wind: ESE 17km/h - Bar: 102.6 kPa ^ - Hum: 66% #Toronto #Weather", "created_at": "Thu Mar 03 15:03:11 +0000 2016", "klabel": 9}}, {"geometry": {"type": "Point", "coordinates": [-79.61174011, 43.68059921]}, "type": "Feature", "id": 705424041998491648, "properties": {"loc": [-79.61174011, 43.68059921], "centroid": [-79.19026526340683, 43.77727804520397], "screen_name": "wxTO", "time": 1457039172.0, "tid": 705424041998491648, "text": "11am: Light Snow -5.6C - Feels: -12C - Wind: ESE 18km/h - Bar: 102.6 kPa ^ - Hum: 71% #Toronto #Weather", "created_at": "Thu Mar 03 16:06:12 +0000 2016", "klabel": 9}}, {"geometry": {"type": "Point", "coordinates": [-79.61582285, 43.681823]}, "type": "Feature", "id": 705446007925030912, "properties": {"loc": [-79.61582285, 43.681823], "centroid": [-79.19026526340683, 43.77727804520397], "screen_name": "ksong12", "time": 1457044409.0, "tid": 705446007925030912, "text": "TFW when my cellular speeds while ROAMING in Canada are WAY faster than anything I've seen in\u2026 https://t.co/Jn6liBCk0P", "created_at": "Thu Mar 03 17:33:29 +0000 2016", "klabel": 9}}, {"geometry": {"type": "Point", "coordinates": [-79.6097621, 43.6876384]}, "type": "Feature", "id": 705463599033024512, "properties": {"loc": [-79.6097621, 43.6876384], "centroid": [-79.19026526340683, 43.77727804520397], "screen_name": "tmj_usa_adm", "time": 1457048603.0, "tid": 705463599033024512, "text": "Want to work at Yardi Systems? We're #hiring in #Mississauga, ON! Click for details: https://t.co/i7zOutaDTp #IT #Veterans #Job #Jobs", "created_at": "Thu Mar 03 18:43:23 +0000 2016", "klabel": 9}}, {"geometry": {"type": "Point", "coordinates": [-79.61582285, 43.681823]}, "type": "Feature", "id": 705465540823945216, "properties": {"loc": [-79.61582285, 43.681823], "centroid": [-79.19026526340683, 43.77727804520397], "screen_name": "Ellevanmusic", "time": 1457049066.0, "tid": 705465540823945216, "text": "And WE'RE OFF!! \n@winnyclarke &amp; I will be unavailable to the world as you know it this entire\u2026 https://t.co/sOIH0TuiXp", "created_at": "Thu Mar 03 18:51:06 +0000 2016", "klabel": 9}}, {"geometry": {"type": "Point", "coordinates": [-79.61582285, 43.681823]}, "type": "Feature", "id": 705478298642452480, "properties": {"loc": [-79.61582285, 43.681823], "centroid": [-79.19026526340683, 43.77727804520397], "screen_name": "cathleenfarrell", "time": 1457052108.0, "tid": 705478298642452480, "text": "A warm welcome to Syrian refugees at Toronto airport. #welcomethestrangeramongyou @ Toronto\u2026 https://t.co/4zPSoWRDSg", "created_at": "Thu Mar 03 19:41:48 +0000 2016", "klabel": 9}}, {"geometry": {"type": "Point", "coordinates": [-79.61582285, 43.681823]}, "type": "Feature", "id": 705490162508169216, "properties": {"loc": [-79.61582285, 43.681823], "centroid": [-79.19026526340683, 43.77727804520397], "screen_name": "jaclyngenovese", "time": 1457054936.0, "tid": 705490162508169216, "text": "FLA here I come \u2708\ufe0f\u2600\ufe0f\ud83c\udf34 @ Toronto Pearson International Airport https://t.co/fhgveqId6P", "created_at": "Thu Mar 03 20:28:56 +0000 2016", "klabel": 9}}, {"geometry": {"type": "Point", "coordinates": [-79.6097621, 43.6876384]}, "type": "Feature", "id": 705498304113565696, "properties": {"loc": [-79.6097621, 43.6876384], "centroid": [-79.19026526340683, 43.77727804520397], "screen_name": "YardiJobs", "time": 1457056877.0, "tid": 705498304113565696, "text": "#CustomerService #Job in #Mississauga, ON: Associate Application Specialist at Yardi Systems https://t.co/aurbRLPyiH #Veterans #Jobs", "created_at": "Thu Mar 03 21:01:17 +0000 2016", "klabel": 9}}, {"geometry": {"type": "Point", "coordinates": [-79.61208344, 43.68065997]}, "type": "Feature", "id": 705500770830053376, "properties": {"loc": [-79.61208344, 43.68065997], "centroid": [-79.19026526340683, 43.77727804520397], "screen_name": "CjPhx", "time": 1457057465.0, "tid": 705500770830053376, "text": "Snow (at @TorontoPearson International Airport (YYZ) in Mississauga, ON) https://t.co/ZdqZyZ5joE https://t.co/eQc3rijcnb", "created_at": "Thu Mar 03 21:11:05 +0000 2016", "klabel": 9}}, {"geometry": {"type": "Point", "coordinates": [-79.61582285, 43.681823]}, "type": "Feature", "id": 705518272704217088, "properties": {"loc": [-79.61582285, 43.681823], "centroid": [-79.19026526340683, 43.77727804520397], "screen_name": "1FilmProduction", "time": 1457061638.0, "tid": 705518272704217088, "text": "Thanks to my team my new business cards are done and will be in on the 8th.. \n\n#1Filmproductions\u2026 https://t.co/CKa23nK8tm", "created_at": "Thu Mar 03 22:20:38 +0000 2016", "klabel": 9}}, {"geometry": {"type": "Point", "coordinates": [-79.61208344, 43.68065997]}, "type": "Feature", "id": 705518869901910016, "properties": {"loc": [-79.61208344, 43.68065997], "centroid": [-79.19026526340683, 43.77727804520397], "screen_name": "ASephiroth", "time": 1457061781.0, "tid": 705518869901910016, "text": "I'm at @TorontoPearson International Airport (YYZ) in Mississauga, ON https://t.co/UsP73EB8mc", "created_at": "Thu Mar 03 22:23:01 +0000 2016", "klabel": 9}}, {"geometry": {"type": "Point", "coordinates": [-79.62045193, 43.68564886]}, "type": "Feature", "id": 705519159711506436, "properties": {"loc": [-79.62045193, 43.68564886], "centroid": [-79.19026526340683, 43.77727804520397], "screen_name": "ASephiroth", "time": 1457061850.0, "tid": 705519159711506436, "text": "I'm at Terminal 3 - @torontopearson in Mississauga, ON https://t.co/GTJdLEOxwW", "created_at": "Thu Mar 03 22:24:10 +0000 2016", "klabel": 9}}, {"geometry": {"type": "Point", "coordinates": [-79.62089469, 43.68569529]}, "type": "Feature", "id": 705519741759307776, "properties": {"loc": [-79.62089469, 43.68569529], "centroid": [-79.19026526340683, 43.77727804520397], "screen_name": "ASephiroth", "time": 1457061989.0, "tid": 705519741759307776, "text": "I'm at Canada Customs in Mississauga, ON https://t.co/fg70a5m1AF", "created_at": "Thu Mar 03 22:26:29 +0000 2016", "klabel": 9}}, {"geometry": {"type": "Point", "coordinates": [-79.61174011, 43.68059921]}, "type": "Feature", "id": 705529793303990274, "properties": {"loc": [-79.61174011, 43.68059921], "centroid": [-79.19026526340683, 43.77727804520397], "screen_name": "wxTO", "time": 1457064385.0, "tid": 705529793303990274, "text": "6pm: Mostly Cloudy -4.9C - Feels: -10C - Wind: E 13km/h - Bar: 102.3 kPa v - Hum: 65% #Toronto #Weather", "created_at": "Thu Mar 03 23:06:25 +0000 2016", "klabel": 9}}, {"geometry": {"type": "Point", "coordinates": [-79.61235559, 43.67669597]}, "type": "Feature", "id": 705536157765996545, "properties": {"loc": [-79.61235559, 43.67669597], "centroid": [-79.19026526340683, 43.77727804520397], "screen_name": "dezjeff", "time": 1457065902.0, "tid": 705536157765996545, "text": "Relaxing &amp; eating good food before boarding my flight to #CDG #jeffontheroad (@ Lee Kitchen) https://t.co/VtNLtVj6Bq https://t.co/TmLLKWAPS3", "created_at": "Thu Mar 03 23:31:42 +0000 2016", "klabel": 9}}, {"geometry": {"type": "Point", "coordinates": [-79.61174011, 43.68059921]}, "type": "Feature", "id": 705544921369976833, "properties": {"loc": [-79.61174011, 43.68059921], "centroid": [-79.19026526340683, 43.77727804520397], "screen_name": "wxTO", "time": 1457067992.0, "tid": 705544921369976833, "text": "7pm: Mostly Cloudy -4.9C - Feels: -9C - Wind: ENE 10km/h - Bar: 102.2 kPa v - Hum: 66% #Toronto #Weather", "created_at": "Fri Mar 04 00:06:32 +0000 2016", "klabel": 9}}, {"geometry": {"type": "Point", "coordinates": [-79.6273727, 43.6931]}, "type": "Feature", "id": 705548064673501184, "properties": {"loc": [-79.6273727, 43.6931], "centroid": [-79.19026526340683, 43.77727804520397], "screen_name": "mommy4life1976", "time": 1457068741.0, "tid": 705548064673501184, "text": "my favorite place zetsrestaurant #zetsrestaurant @ Zet's https://t.co/Q730Yqw6bR", "created_at": "Fri Mar 04 00:19:01 +0000 2016", "klabel": 9}}, {"geometry": {"type": "Point", "coordinates": [-79.612474, 43.676243]}, "type": "Feature", "id": 705552200056094722, "properties": {"loc": [-79.612474, 43.676243], "centroid": [-79.19026526340683, 43.77727804520397], "screen_name": "dezjeff", "time": 1457069727.0, "tid": 705552200056094722, "text": "Can't wait to board! #jeffontheroad (@ Gate E74 - @torontopearson in Mississauga, ON) https://t.co/QPfuCjJkhy", "created_at": "Fri Mar 04 00:35:27 +0000 2016", "klabel": 9}}, {"geometry": {"type": "Point", "coordinates": [-79.61582285, 43.681823]}, "type": "Feature", "id": 705552366842413056, "properties": {"loc": [-79.61582285, 43.681823], "centroid": [-79.19026526340683, 43.77727804520397], "screen_name": "OfficialSydcan", "time": 1457069767.0, "tid": 705552366842413056, "text": "Now I at Toronto Pearson International Airport. Waiting for depart to Istanbul,Turkey.\u2026 https://t.co/7UQ9yD6iAQ", "created_at": "Fri Mar 04 00:36:07 +0000 2016", "klabel": 9}}, {"geometry": {"type": "Point", "coordinates": [-79.61174011, 43.68059921]}, "type": "Feature", "id": 705559158490341376, "properties": {"loc": [-79.61174011, 43.68059921], "centroid": [-79.19026526340683, 43.77727804520397], "screen_name": "wxTO", "time": 1457071386.0, "tid": 705559158490341376, "text": "8pm: Mostly Cloudy -5.1C - Feels: -9C - Wind: ENE 10km/h - Bar: 102.3 kPa v - Hum: 67% #Toronto #Weather", "created_at": "Fri Mar 04 01:03:06 +0000 2016", "klabel": 9}}, {"geometry": {"type": "Point", "coordinates": [-79.60545672, 43.67234881]}, "type": "Feature", "id": 705562979115278336, "properties": {"loc": [-79.60545672, 43.67234881], "centroid": [-79.19026526340683, 43.77727804520397], "screen_name": "shayman", "time": 1457072297.0, "tid": 705562979115278336, "text": "@terryw1994 cool! Who's he?", "created_at": "Fri Mar 04 01:18:17 +0000 2016", "klabel": 9}}, {"geometry": {"type": "Point", "coordinates": [-79.61209148, 43.67664644]}, "type": "Feature", "id": 705563770333036545, "properties": {"loc": [-79.61209148, 43.67664644], "centroid": [-79.19026526340683, 43.77727804520397], "screen_name": "Taggio", "time": 1457072486.0, "tid": 705563770333036545, "text": "Thank you @TurkishAirlines for the upgrade! (@ Maple Leaf Lounge (International)) https://t.co/DUAp4Y1M2q https://t.co/q7qQuJiZ8h", "created_at": "Fri Mar 04 01:21:26 +0000 2016", "klabel": 9}}, {"geometry": {"type": "Point", "coordinates": [-79.61174011, 43.68059921]}, "type": "Feature", "id": 705575020483969025, "properties": {"loc": [-79.61174011, 43.68059921], "centroid": [-79.19026526340683, 43.77727804520397], "screen_name": "wxTO", "time": 1457075168.0, "tid": 705575020483969025, "text": "9pm: Mostly Cloudy -5.3C - Feels: -9C - Wind: ENE 8km/h - Bar: 102.2 kPa v - Hum: 70% #Toronto #Weather", "created_at": "Fri Mar 04 02:06:08 +0000 2016", "klabel": 9}}, {"geometry": {"type": "Point", "coordinates": [-79.61582285, 43.681823]}, "type": "Feature", "id": 705583982386216960, "properties": {"loc": [-79.61582285, 43.681823], "centroid": [-79.19026526340683, 43.77727804520397], "screen_name": "djgimports", "time": 1457077305.0, "tid": 705583982386216960, "text": "And off they go #parents #mvdbound #imthegoodson #sportit #nofiltertshirtco #ramplife #flylife\u2026 https://t.co/hlkf4xsoGS", "created_at": "Fri Mar 04 02:41:45 +0000 2016", "klabel": 9}}, {"geometry": {"type": "Point", "coordinates": [-79.61208344, 43.68065997]}, "type": "Feature", "id": 705619571936534529, "properties": {"loc": [-79.61208344, 43.68065997], "centroid": [-79.19026526340683, 43.77727804520397], "screen_name": "ruxaclrcn", "time": 1457085790.0, "tid": 705619571936534529, "text": "I'm at @TorontoPearson International Airport (YYZ) in Mississauga, ON https://t.co/UhkQZThHJi", "created_at": "Fri Mar 04 05:03:10 +0000 2016", "klabel": 9}}, {"geometry": {"type": "Point", "coordinates": [-79.61174011, 43.68059921]}, "type": "Feature", "id": 705680702638071809, "properties": {"loc": [-79.61174011, 43.68059921], "centroid": [-79.19026526340683, 43.77727804520397], "screen_name": "wxTO", "time": 1457100365.0, "tid": 705680702638071809, "text": "4am: Mostly Cloudy -5.4C - Feels: -10C - Wind: NE 11km/h - Bar: 102.0 kPa v - Hum: 85% #Toronto #Weather", "created_at": "Fri Mar 04 09:06:05 +0000 2016", "klabel": 9}}, {"geometry": {"type": "Point", "coordinates": [-79.61174011, 43.68059921]}, "type": "Feature", "id": 705695805353693184, "properties": {"loc": [-79.61174011, 43.68059921], "centroid": [-79.19026526340683, 43.77727804520397], "screen_name": "wxTO", "time": 1457103965.0, "tid": 705695805353693184, "text": "5am: Mostly Cloudy -5.2C - Feels: -11C - Wind: NNE 14km/h - Bar: 102.1 kPa v - Hum: 85% #Toronto #Weather", "created_at": "Fri Mar 04 10:06:05 +0000 2016", "klabel": 9}}, {"geometry": {"type": "Point", "coordinates": [-79.61174011, 43.68059921]}, "type": "Feature", "id": 705700330311426053, "properties": {"loc": [-79.61174011, 43.68059921], "centroid": [-79.19026526340683, 43.77727804520397], "screen_name": "wxTO", "time": 1457105044.0, "tid": 705700330311426053, "text": "5am: Light Snow -5.1C - Feels: -11C - Wind: NNE 14km/h - Bar: 102.1 kPa v - Hum: 86% #Toronto #Weather", "created_at": "Fri Mar 04 10:24:04 +0000 2016", "klabel": 9}}, {"geometry": {"type": "Point", "coordinates": [-79.61582285, 43.681823]}, "type": "Feature", "id": 705713626288676864, "properties": {"loc": [-79.61582285, 43.681823], "centroid": [-79.19026526340683, 43.77727804520397], "screen_name": "jfergxo", "time": 1457108214.0, "tid": 705713626288676864, "text": "First class to Panama City for the weekend - how I love my life and feel blessed on a\u2026 https://t.co/gdUBpOINPb", "created_at": "Fri Mar 04 11:16:54 +0000 2016", "klabel": 9}}, {"geometry": {"type": "Point", "coordinates": [-79.61174011, 43.68059921]}, "type": "Feature", "id": 705726006338965504, "properties": {"loc": [-79.61174011, 43.68059921], "centroid": [-79.19026526340683, 43.77727804520397], "screen_name": "wxTO", "time": 1457111166.0, "tid": 705726006338965504, "text": "7am: Light Snow -5.1C - Feels: -11C - Wind: ENE 14km/h - Bar: 102.2 kPa ^ - Hum: 86% #Toronto #Weather", "created_at": "Fri Mar 04 12:06:06 +0000 2016", "klabel": 9}}, {"geometry": {"type": "Point", "coordinates": [-79.61174011, 43.68059921]}, "type": "Feature", "id": 705734310108774400, "properties": {"loc": [-79.61174011, 43.68059921], "centroid": [-79.19026526340683, 43.77727804520397], "screen_name": "wxTO", "time": 1457113146.0, "tid": 705734310108774400, "text": "7am: Light Snow -4.8C - Feels: -9C - Wind: NE 10km/h - Bar: 102.2 kPa ^ - Hum: 86% #Toronto #Weather", "created_at": "Fri Mar 04 12:39:06 +0000 2016", "klabel": 9}}, {"geometry": {"type": "Point", "coordinates": [-79.61174011, 43.68059921]}, "type": "Feature", "id": 705737326270541824, "properties": {"loc": [-79.61174011, 43.68059921], "centroid": [-79.19026526340683, 43.77727804520397], "screen_name": "wxTO", "time": 1457113865.0, "tid": 705737326270541824, "text": "7am: Light Snow -4.8C - Feels: -10C - Wind: ENE 12km/h - Bar: 102.2 kPa ^ - Hum: 85% #Toronto #Weather", "created_at": "Fri Mar 04 12:51:05 +0000 2016", "klabel": 9}}, {"geometry": {"type": "Point", "coordinates": [-79.61174011, 43.68059921]}, "type": "Feature", "id": 705740354612543488, "properties": {"loc": [-79.61174011, 43.68059921], "centroid": [-79.19026526340683, 43.77727804520397], "screen_name": "wxTO", "time": 1457114587.0, "tid": 705740354612543488, "text": "8am: Light Snow -4.8C - Feels: -8C - Wind: ENE 8km/h - Bar: 102.2 kPa ^ - Hum: 84% #Toronto #Weather", "created_at": "Fri Mar 04 13:03:07 +0000 2016", "klabel": 9}}, {"geometry": {"type": "Point", "coordinates": [-79.61174011, 43.68059921]}, "type": "Feature", "id": 705756199501832194, "properties": {"loc": [-79.61174011, 43.68059921], "centroid": [-79.19026526340683, 43.77727804520397], "screen_name": "wxTO", "time": 1457118364.0, "tid": 705756199501832194, "text": "9am: Light Snow -3.9C - Feels: -8C - Wind: ENE 10km/h - Bar: 102.3 kPa ^ - Hum: 78% #Toronto #Weather", "created_at": "Fri Mar 04 14:06:04 +0000 2016", "klabel": 9}}, {"geometry": {"type": "Point", "coordinates": [-79.61174011, 43.68059921]}, "type": "Feature", "id": 705767531382968320, "properties": {"loc": [-79.61174011, 43.68059921], "centroid": [-79.19026526340683, 43.77727804520397], "screen_name": "wxTO", "time": 1457121066.0, "tid": 705767531382968320, "text": "9am: Mostly Cloudy -3.0C - Feels: -8C - Wind: E 13km/h - Bar: 102.3 kPa ^ - Hum: 63% #Toronto #Weather", "created_at": "Fri Mar 04 14:51:06 +0000 2016", "klabel": 9}}, {"geometry": {"type": "Point", "coordinates": [-79.61174011, 43.68059921]}, "type": "Feature", "id": 705785660817461248, "properties": {"loc": [-79.61174011, 43.68059921], "centroid": [-79.19026526340683, 43.77727804520397], "screen_name": "wxTO", "time": 1457125389.0, "tid": 705785660817461248, "text": "11am: Mostly Cloudy -2.1C - Feels: -7C - Wind: ESE 14km/h - Bar: 102.3 kPa ^ - Hum: 52% #Toronto #Weather", "created_at": "Fri Mar 04 16:03:09 +0000 2016", "klabel": 9}}, {"geometry": {"type": "Point", "coordinates": [-79.6118193, 43.681924]}, "type": "Feature", "id": 705787729821433856, "properties": {"loc": [-79.6118193, 43.681924], "centroid": [-79.19026526340683, 43.77727804520397], "screen_name": "notl419", "time": 1457125882.0, "tid": 705787729821433856, "text": "I'm at Pre-Arranged Limo Pickup in Toronto, Ontario https://t.co/FL4li3TK7N", "created_at": "Fri Mar 04 16:11:22 +0000 2016", "klabel": 9}}, {"geometry": {"type": "Point", "coordinates": [-79.61208344, 43.68065997]}, "type": "Feature", "id": 705795262497865728, "properties": {"loc": [-79.61208344, 43.68065997], "centroid": [-79.19026526340683, 43.77727804520397], "screen_name": "PilotJohn_J", "time": 1457127678.0, "tid": 705795262497865728, "text": "\ud83c\uddfd\ud83c\uddf0 (at @TorontoPearson International Airport (YYZ) in Mississauga, ON) https://t.co/Bd03jK6A1D", "created_at": "Fri Mar 04 16:41:18 +0000 2016", "klabel": 9}}, {"geometry": {"type": "Point", "coordinates": [-79.61208344, 43.68065997]}, "type": "Feature", "id": 705800754204962820, "properties": {"loc": [-79.61208344, 43.68065997], "centroid": [-79.19026526340683, 43.77727804520397], "screen_name": "CYsGirl1127", "time": 1457128987.0, "tid": 705800754204962820, "text": "\u0e40\u0e14\u0e34\u0e19\u0e02\u0e32\u0e25\u0e32\u0e01 (at @TorontoPearson International Airport (YYZ) in Mississauga, ON) https://t.co/M3iTrLxot8", "created_at": "Fri Mar 04 17:03:07 +0000 2016", "klabel": 9}}, {"geometry": {"type": "Point", "coordinates": [-79.61582285, 43.681823]}, "type": "Feature", "id": 705802696494809088, "properties": {"loc": [-79.61582285, 43.681823], "centroid": [-79.19026526340683, 43.77727804520397], "screen_name": "annoz6", "time": 1457129450.0, "tid": 705802696494809088, "text": "Destination Quebec via Air Canada @ Toronto Pearson International\u2026 https://t.co/40xxtaKOnC", "created_at": "Fri Mar 04 17:10:50 +0000 2016", "klabel": 9}}, {"geometry": {"type": "Point", "coordinates": [-79.61188507, 43.67713492]}, "type": "Feature", "id": 705812683606593536, "properties": {"loc": [-79.61188507, 43.67713492], "centroid": [-79.19026526340683, 43.77727804520397], "screen_name": "martine_kn", "time": 1457131831.0, "tid": 705812683606593536, "text": "Essentials @ Toronto Pearson Airport. Terminal 1 Departure Lounge https://t.co/rh1ilIKZwq", "created_at": "Fri Mar 04 17:50:31 +0000 2016", "klabel": 9}}, {"geometry": {"type": "Point", "coordinates": [-79.62116441, 43.68547068]}, "type": "Feature", "id": 705816762168664064, "properties": {"loc": [-79.62116441, 43.68547068], "centroid": [-79.19026526340683, 43.77727804520397], "screen_name": "DonFeliu", "time": 1457132804.0, "tid": 705816762168664064, "text": "Tame Impala\u2019s The Less I Know The Better is a such a dirty macking ass song.", "created_at": "Fri Mar 04 18:06:44 +0000 2016", "klabel": 9}}, {"geometry": {"type": "Point", "coordinates": [-79.61582285, 43.681823]}, "type": "Feature", "id": 705816983250468864, "properties": {"loc": [-79.61582285, 43.681823], "centroid": [-79.19026526340683, 43.77727804520397], "screen_name": "Kylelkirkwood", "time": 1457132856.0, "tid": 705816983250468864, "text": "This is #Toronto yesterday. Something beautiful about it. Now, I'm off again to the UK. See you\u2026 https://t.co/KuBzSFJdQm", "created_at": "Fri Mar 04 18:07:36 +0000 2016", "klabel": 9}}, {"geometry": {"type": "Point", "coordinates": [-79.62119897, 43.68541617]}, "type": "Feature", "id": 705820876843843584, "properties": {"loc": [-79.62119897, 43.68541617], "centroid": [-79.19026526340683, 43.77727804520397], "screen_name": "DonFeliu", "time": 1457133785.0, "tid": 705820876843843584, "text": "Practice blocking me this weekend so that you can be ready to block me in the summer.", "created_at": "Fri Mar 04 18:23:05 +0000 2016", "klabel": 9}}, {"geometry": {"type": "Point", "coordinates": [-79.61582285, 43.681823]}, "type": "Feature", "id": 705824659472666624, "properties": {"loc": [-79.61582285, 43.681823], "centroid": [-79.19026526340683, 43.77727804520397], "screen_name": "hysbyswr", "time": 1457134687.0, "tid": 705824659472666624, "text": "\"In-Flight Meal\"\n\n#yeg #eia #Westjet #Edmonton #AirlineFood #EdmontonMetropolitanChorus\u2026 https://t.co/xHjBy2o8sL", "created_at": "Fri Mar 04 18:38:07 +0000 2016", "klabel": 9}}, {"geometry": {"type": "Point", "coordinates": [-79.6195406, 43.68610027]}, "type": "Feature", "id": 705824959634010113, "properties": {"loc": [-79.6195406, 43.68610027], "centroid": [-79.19026526340683, 43.77727804520397], "screen_name": "DonFeliu", "time": 1457134758.0, "tid": 705824959634010113, "text": "@AngelBeingAngel @et_tanleyy @LaLocaAquerosa No you can\u2019t. We still hitting the gym tomorrow.", "created_at": "Fri Mar 04 18:39:18 +0000 2016", "klabel": 9}}, {"geometry": {"type": "Point", "coordinates": [-79.61582285, 43.681823]}, "type": "Feature", "id": 705827834917355520, "properties": {"loc": [-79.61582285, 43.681823], "centroid": [-79.19026526340683, 43.77727804520397], "screen_name": "hysbyswr", "time": 1457135444.0, "tid": 705827834917355520, "text": "\"On My Way\"\n\n#yeg #Westjet #EdmontonMetropolitanChorus #EdMetroChorus #yegmusic #yegchoir\u2026 https://t.co/b4r4MEnfTU", "created_at": "Fri Mar 04 18:50:44 +0000 2016", "klabel": 9}}, {"geometry": {"type": "Point", "coordinates": [-79.61174011, 43.68059921]}, "type": "Feature", "id": 705846047998930944, "properties": {"loc": [-79.61174011, 43.68059921], "centroid": [-79.19026526340683, 43.77727804520397], "screen_name": "wxTO", "time": 1457139786.0, "tid": 705846047998930944, "text": "3pm: Mostly Cloudy -1.3C - Feels: -5C - Wind: SSE 9km/h - Bar: 102.2 kPa steady - Hum: 52% #Toronto #Weather", "created_at": "Fri Mar 04 20:03:06 +0000 2016", "klabel": 9}}, {"geometry": {"type": "Point", "coordinates": [-79.61208344, 43.68065997]}, "type": "Feature", "id": 705859353652404224, "properties": {"loc": [-79.61208344, 43.68065997], "centroid": [-79.19026526340683, 43.77727804520397], "screen_name": "cvill14", "time": 1457142958.0, "tid": 705859353652404224, "text": "I'm at @TorontoPearson International Airport (YYZ) in Mississauga, ON https://t.co/vK4yjo0zXT", "created_at": "Fri Mar 04 20:55:58 +0000 2016", "klabel": 9}}, {"geometry": {"type": "Point", "coordinates": [-79.61174011, 43.68059921]}, "type": "Feature", "id": 705861147258445824, "properties": {"loc": [-79.61174011, 43.68059921], "centroid": [-79.19026526340683, 43.77727804520397], "screen_name": "wxTO", "time": 1457143386.0, "tid": 705861147258445824, "text": "4pm: Light Snow -1.7C - Feels: -5C - Wind: S 8km/h - Bar: 102.3 kPa v - Hum: 60% #Toronto #Weather", "created_at": "Fri Mar 04 21:03:06 +0000 2016", "klabel": 9}}, {"geometry": {"type": "Point", "coordinates": [-79.61208344, 43.68065997]}, "type": "Feature", "id": 705864079462764544, "properties": {"loc": [-79.61208344, 43.68065997], "centroid": [-79.19026526340683, 43.77727804520397], "screen_name": "AsaWallenrud", "time": 1457144085.0, "tid": 705864079462764544, "text": "I'm at @TorontoPearson International Airport (YYZ) in Mississauga, ON https://t.co/jIVdHDdpai", "created_at": "Fri Mar 04 21:14:45 +0000 2016", "klabel": 9}}, {"geometry": {"type": "Point", "coordinates": [-79.62385056, 43.68513792]}, "type": "Feature", "id": 705879516267343872, "properties": {"loc": [-79.62385056, 43.68513792], "centroid": [-79.19026526340683, 43.77727804520397], "screen_name": "TheDefinition87", "time": 1457147765.0, "tid": 705879516267343872, "text": "2nd 2 1/2 hour sit back to back smh trynna wake up (@ Starbucks in Mississauga, ON) https://t.co/QjQVmQvQsP", "created_at": "Fri Mar 04 22:16:05 +0000 2016", "klabel": 9}}, {"geometry": {"type": "Point", "coordinates": [-79.61174011, 43.68059921]}, "type": "Feature", "id": 705882280921800704, "properties": {"loc": [-79.61174011, 43.68059921], "centroid": [-79.19026526340683, 43.77727804520397], "screen_name": "wxTO", "time": 1457148425.0, "tid": 705882280921800704, "text": "5pm: Mostly Cloudy -1.8C - Feels: -6C - Wind: SSE 11km/h - Bar: 102.3 kPa v - Hum: 59% #Toronto #Weather", "created_at": "Fri Mar 04 22:27:05 +0000 2016", "klabel": 9}}, {"geometry": {"type": "Point", "coordinates": [-79.6133749, 43.68289375]}, "type": "Feature", "id": 705883163642490880, "properties": {"loc": [-79.6133749, 43.68289375], "centroid": [-79.19026526340683, 43.77727804520397], "screen_name": "boscotung", "time": 1457148635.0, "tid": 705883163642490880, "text": "Came to ride the #UPexpress after hearing it's $9...it's not. New price on March 9th, yet Google\u2026 https://t.co/nuBvhen9hL", "created_at": "Fri Mar 04 22:30:35 +0000 2016", "klabel": 9}}, {"geometry": {"type": "Point", "coordinates": [-79.61208344, 43.68065997]}, "type": "Feature", "id": 705883190917992448, "properties": {"loc": [-79.61208344, 43.68065997], "centroid": [-79.19026526340683, 43.77727804520397], "screen_name": "rolynn123", "time": 1457148642.0, "tid": 705883190917992448, "text": "Heading back. (at @TorontoPearson International Airport (YYZ) in Mississauga, ON) https://t.co/7QfxIEckd9", "created_at": "Fri Mar 04 22:30:42 +0000 2016", "klabel": 9}}, {"geometry": {"type": "Point", "coordinates": [-79.62169647, 43.68550145]}, "type": "Feature", "id": 705893809440296960, "properties": {"loc": [-79.62169647, 43.68550145], "centroid": [-79.19026526340683, 43.77727804520397], "screen_name": "rolynn123", "time": 1457151173.0, "tid": 705893809440296960, "text": "Delayed. What else?? Typical lately!! (@ American Airlines - Admirals Club in Mississauga, ON) https://t.co/jx1YOMwKSw", "created_at": "Fri Mar 04 23:12:53 +0000 2016", "klabel": 9}}, {"geometry": {"type": "Point", "coordinates": [-79.61582285, 43.681823]}, "type": "Feature", "id": 705918270189248512, "properties": {"loc": [-79.61582285, 43.681823], "centroid": [-79.19026526340683, 43.77727804520397], "screen_name": "jankeck", "time": 1457157005.0, "tid": 705918270189248512, "text": "We finally made it! We're on the plane starting our huge adventure of.... getting married in\u2026 https://t.co/yik3JaPFFN", "created_at": "Sat Mar 05 00:50:05 +0000 2016", "klabel": 9}}, {"geometry": {"type": "Point", "coordinates": [-79.61208344, 43.68065997]}, "type": "Feature", "id": 705933519214743552, "properties": {"loc": [-79.61208344, 43.68065997], "centroid": [-79.19026526340683, 43.77727804520397], "screen_name": "malibu_blue", "time": 1457160641.0, "tid": 705933519214743552, "text": "I'm at @TorontoPearson International Airport (YYZ) in Mississauga, ON https://t.co/XRg1U529vZ", "created_at": "Sat Mar 05 01:50:41 +0000 2016", "klabel": 9}}, {"geometry": {"type": "Point", "coordinates": [-79.61582285, 43.681823]}, "type": "Feature", "id": 705934117289009153, "properties": {"loc": [-79.61582285, 43.681823], "centroid": [-79.19026526340683, 43.77727804520397], "screen_name": "cammipham", "time": 1457160783.0, "tid": 705934117289009153, "text": "See you Toronto in April. Will miss you. @ Toronto Pearson International Airport https://t.co/xSnRcUWo2R", "created_at": "Sat Mar 05 01:53:03 +0000 2016", "klabel": 9}}, {"geometry": {"type": "Point", "coordinates": [-79.61174011, 43.68059921]}, "type": "Feature", "id": 705936647280574465, "properties": {"loc": [-79.61174011, 43.68059921], "centroid": [-79.19026526340683, 43.77727804520397], "screen_name": "wxTO", "time": 1457161387.0, "tid": 705936647280574465, "text": "9pm: Mostly Cloudy -2.0C - Feels: -4C - Wind: S 5km/h - Bar: 102.3 kPa ^ - Hum: 62% #Toronto #Weather", "created_at": "Sat Mar 05 02:03:07 +0000 2016", "klabel": 9}}, {"geometry": {"type": "Point", "coordinates": [-79.61208344, 43.68065997]}, "type": "Feature", "id": 705954430483460097, "properties": {"loc": [-79.61208344, 43.68065997], "centroid": [-79.19026526340683, 43.77727804520397], "screen_name": "_justintoronto", "time": 1457165626.0, "tid": 705954430483460097, "text": "I'm at @TorontoPearson International Airport (YYZ) in Mississauga, ON https://t.co/IBLn1xiyix", "created_at": "Sat Mar 05 03:13:46 +0000 2016", "klabel": 9}}, {"geometry": {"type": "Point", "coordinates": [-79.61448669, 43.69074594]}, "type": "Feature", "id": 705958302606364673, "properties": {"loc": [-79.61448669, 43.69074594], "centroid": [-79.19026526340683, 43.77727804520397], "screen_name": "_justintoronto", "time": 1457166550.0, "tid": 705958302606364673, "text": "I'm at @TorontoPearson Value Park Garage in Mississauga, ON https://t.co/goM5xeit7N", "created_at": "Sat Mar 05 03:29:10 +0000 2016", "klabel": 9}}, {"geometry": {"type": "Point", "coordinates": [-79.61208344, 43.68065997]}, "type": "Feature", "id": 705961721547132928, "properties": {"loc": [-79.61208344, 43.68065997], "centroid": [-79.19026526340683, 43.77727804520397], "screen_name": "bruceyyz", "time": 1457167365.0, "tid": 705961721547132928, "text": "I'm at @TorontoPearson International Airport (YYZ) in Mississauga, ON https://t.co/qdj1s1eRK9", "created_at": "Sat Mar 05 03:42:45 +0000 2016", "klabel": 9}}, {"geometry": {"type": "Point", "coordinates": [-79.61208344, 43.68065997]}, "type": "Feature", "id": 705973475845017600, "properties": {"loc": [-79.61208344, 43.68065997], "centroid": [-79.19026526340683, 43.77727804520397], "screen_name": "davidhosey", "time": 1457170167.0, "tid": 705973475845017600, "text": "Home (at @TorontoPearson International Airport (YYZ) in Mississauga, ON) https://t.co/A6UXxyfiY9", "created_at": "Sat Mar 05 04:29:27 +0000 2016", "klabel": 9}}, {"geometry": {"type": "Point", "coordinates": [-79.6273727, 43.6931]}, "type": "Feature", "id": 705979923761143808, "properties": {"loc": [-79.6273727, 43.6931], "centroid": [-79.19026526340683, 43.77727804520397], "screen_name": "RemusMusic", "time": 1457171704.0, "tid": 705979923761143808, "text": "#Munching away at #zets sooooooooo #good @ Zet's https://t.co/ic4p8zkZxx", "created_at": "Sat Mar 05 04:55:04 +0000 2016", "klabel": 9}}, {"geometry": {"type": "Point", "coordinates": [-79.61582285, 43.681823]}, "type": "Feature", "id": 705988895310217216, "properties": {"loc": [-79.61582285, 43.681823], "centroid": [-79.19026526340683, 43.77727804520397], "screen_name": "IchBinJoanna", "time": 1457173843.0, "tid": 705988895310217216, "text": "Saying good bye to Canada, I have had a lovely, forgettable memories\u2026 https://t.co/Et2eTmO0Ph", "created_at": "Sat Mar 05 05:30:43 +0000 2016", "klabel": 9}}, {"geometry": {"type": "Point", "coordinates": [-79.61174011, 43.68059921]}, "type": "Feature", "id": 705997040560513024, "properties": {"loc": [-79.61174011, 43.68059921], "centroid": [-79.19026526340683, 43.77727804520397], "screen_name": "wxTO", "time": 1457175785.0, "tid": 705997040560513024, "text": "1am: Mostly Cloudy -3.5C - Feels: -7C - Wind: W 7km/h - Bar: 102.3 kPa v - Hum: 71% #Toronto #Weather", "created_at": "Sat Mar 05 06:03:05 +0000 2016", "klabel": 9}}, {"geometry": {"type": "Point", "coordinates": [-79.61208344, 43.68065997]}, "type": "Feature", "id": 706036572819431425, "properties": {"loc": [-79.61208344, 43.68065997], "centroid": [-79.19026526340683, 43.77727804520397], "screen_name": "Melindhra", "time": 1457185211.0, "tid": 706036572819431425, "text": "I'm at @TorontoPearson International Airport (YYZ) in Mississauga, ON https://t.co/FaTs3Z1SMV", "created_at": "Sat Mar 05 08:40:11 +0000 2016", "klabel": 9}}, {"geometry": {"type": "Point", "coordinates": [-79.61174011, 43.68059921]}, "type": "Feature", "id": 706042351123308544, "properties": {"loc": [-79.61174011, 43.68059921], "centroid": [-79.19026526340683, 43.77727804520397], "screen_name": "wxTO", "time": 1457186588.0, "tid": 706042351123308544, "text": "4am: Mostly Cloudy -4.6C - Feels: -8C - Wind: NNE 7km/h - Bar: 102.3 kPa v - Hum: 81% #Toronto #Weather", "created_at": "Sat Mar 05 09:03:08 +0000 2016", "klabel": 9}}, {"geometry": {"type": "Point", "coordinates": [-79.61174011, 43.68059921]}, "type": "Feature", "id": 706072539043401728, "properties": {"loc": [-79.61174011, 43.68059921], "centroid": [-79.19026526340683, 43.77727804520397], "screen_name": "wxTO", "time": 1457193786.0, "tid": 706072539043401728, "text": "6am: Mostly Cloudy -4.3C - Feels: -7C - Wind: NNE 6km/h - Bar: 102.3 kPa v - Hum: 77% #Toronto #Weather", "created_at": "Sat Mar 05 11:03:06 +0000 2016", "klabel": 9}}, {"geometry": {"type": "Point", "coordinates": [-79.625, 43.68413]}, "type": "Feature", "id": 706089643796615169, "properties": {"loc": [-79.625, 43.68413], "centroid": [-79.19026526340683, 43.77727804520397], "screen_name": "yangjeep", "time": 1457197864.0, "tid": 706089643796615169, "text": "At @torontopearson \u2014 https://t.co/neTEuKLsfV", "created_at": "Sat Mar 05 12:11:04 +0000 2016", "klabel": 9}}, {"geometry": {"type": "Point", "coordinates": [-79.61582285, 43.681823]}, "type": "Feature", "id": 706098766231769091, "properties": {"loc": [-79.61582285, 43.681823], "centroid": [-79.19026526340683, 43.77727804520397], "screen_name": "marvintomandao", "time": 1457200039.0, "tid": 706098766231769091, "text": "#TheFrustratedFADiaries \n\n#Welcome to #Toronto! \ud83c\udde8\ud83c\udde6\n\n#32in2ron2 #Canada\u2026 https://t.co/NhpBVmsdRD", "created_at": "Sat Mar 05 12:47:19 +0000 2016", "klabel": 9}}, {"geometry": {"type": "Point", "coordinates": [-79.61582285, 43.681823]}, "type": "Feature", "id": 706099205102645249, "properties": {"loc": [-79.61582285, 43.681823], "centroid": [-79.19026526340683, 43.77727804520397], "screen_name": "shaammakan", "time": 1457200143.0, "tid": 706099205102645249, "text": "Woohoo! CR! @ Toronto Pearson International Airport https://t.co/sn7o2EPpYL", "created_at": "Sat Mar 05 12:49:03 +0000 2016", "klabel": 9}}, {"geometry": {"type": "Point", "coordinates": [-79.61582285, 43.681823]}, "type": "Feature", "id": 706101535843950592, "properties": {"loc": [-79.61582285, 43.681823], "centroid": [-79.19026526340683, 43.77727804520397], "screen_name": "djgimports", "time": 1457200699.0, "tid": 706101535843950592, "text": "#votegiosa #gscc2016 #sportit #nofiltertshirtco #djgimports @ Toronto Pearson International Airport https://t.co/CBAg6yY9vk", "created_at": "Sat Mar 05 12:58:19 +0000 2016", "klabel": 9}}, {"geometry": {"type": "Point", "coordinates": [-79.61188507, 43.67713492]}, "type": "Feature", "id": 706114247919423488, "properties": {"loc": [-79.61188507, 43.67713492], "centroid": [-79.19026526340683, 43.77727804520397], "screen_name": "GoswamiNish", "time": 1457203730.0, "tid": 706114247919423488, "text": "I Look  brown\ud83d\ude1c\ud83d\ude1c love to be brown it's Toronto baby..\ud83d\ude0e\ud83d\ude0e @ Toronto\u2026 https://t.co/D5W2N8ET67", "created_at": "Sat Mar 05 13:48:50 +0000 2016", "klabel": 9}}, {"geometry": {"type": "Point", "coordinates": [-79.61208344, 43.68065997]}, "type": "Feature", "id": 706120407984840704, "properties": {"loc": [-79.61208344, 43.68065997], "centroid": [-79.19026526340683, 43.77727804520397], "screen_name": "HotBiscuitBakes", "time": 1457205199.0, "tid": 706120407984840704, "text": "On our way to Cozumel! (at @TorontoPearson International Airport (YYZ) in Mississauga, ON) https://t.co/yY1zjTmYg0", "created_at": "Sat Mar 05 14:13:19 +0000 2016", "klabel": 9}}, {"geometry": {"type": "Point", "coordinates": [-79.61174011, 43.68059921]}, "type": "Feature", "id": 706122373758656513, "properties": {"loc": [-79.61174011, 43.68059921], "centroid": [-79.19026526340683, 43.77727804520397], "screen_name": "wxTO", "time": 1457205667.0, "tid": 706122373758656513, "text": "9am: Light Snow -2.4C - Feels: -6C - Wind: SW 10km/h - Bar: 102.4 kPa v - Hum: 78% #Toronto #Weather", "created_at": "Sat Mar 05 14:21:07 +0000 2016", "klabel": 9}}, {"geometry": {"type": "Point", "coordinates": [-79.61582285, 43.681823]}, "type": "Feature", "id": 706130804800299010, "properties": {"loc": [-79.61582285, 43.681823], "centroid": [-79.19026526340683, 43.77727804520397], "screen_name": "GL0", "time": 1457207677.0, "tid": 706130804800299010, "text": "Wheels up, New Yawwwwk! We're coming for ya! And shout out to haleywoods representing at the\u2026 https://t.co/I2MOy9J4Sf", "created_at": "Sat Mar 05 14:54:37 +0000 2016", "klabel": 9}}, {"geometry": {"type": "Point", "coordinates": [-79.61127038, 43.67991484]}, "type": "Feature", "id": 706131757993730048, "properties": {"loc": [-79.61127038, 43.67991484], "centroid": [-79.19026526340683, 43.77727804520397], "screen_name": "jkrahn", "time": 1457207905.0, "tid": 706131757993730048, "text": "Unless the truck is plotted on the X axis of time, unlabeled, for 25 years.", "created_at": "Sat Mar 05 14:58:25 +0000 2016", "klabel": 9}}, {"geometry": {"type": "Point", "coordinates": [-79.6097621, 43.6876384]}, "type": "Feature", "id": 706140670067486720, "properties": {"loc": [-79.6097621, 43.6876384], "centroid": [-79.19026526340683, 43.77727804520397], "screen_name": "YardiJobs", "time": 1457210029.0, "tid": 706140670067486720, "text": "Want to work at Yardi Systems? We're #hiring in #Mississauga, ON! Click for details: https://t.co/HaoNxQvJj1 #IT #Veterans #Job #Jobs", "created_at": "Sat Mar 05 15:33:49 +0000 2016", "klabel": 9}}, {"geometry": {"type": "Point", "coordinates": [-79.61174011, 43.68059921]}, "type": "Feature", "id": 706148800604344320, "properties": {"loc": [-79.61174011, 43.68059921], "centroid": [-79.19026526340683, 43.77727804520397], "screen_name": "wxTO", "time": 1457211968.0, "tid": 706148800604344320, "text": "11am: Light Snow -1.6C - Feels: -5C - Wind: SSE 9km/h - Bar: 102.3 kPa ^ - Hum: 73% #Toronto #Weather", "created_at": "Sat Mar 05 16:06:08 +0000 2016", "klabel": 9}}, {"geometry": {"type": "Point", "coordinates": [-79.61582285, 43.681823]}, "type": "Feature", "id": 706153658031939585, "properties": {"loc": [-79.61582285, 43.681823], "centroid": [-79.19026526340683, 43.77727804520397], "screen_name": "JustineSoares", "time": 1457213126.0, "tid": 706153658031939585, "text": "Let's go \u2708\ufe0f\ud83c\udfd9 @ Toronto Pearson International Airport https://t.co/D2YTpmG3Un", "created_at": "Sat Mar 05 16:25:26 +0000 2016", "klabel": 9}}, {"geometry": {"type": "Point", "coordinates": [-79.61174011, 43.68059921]}, "type": "Feature", "id": 706163898492313602, "properties": {"loc": [-79.61174011, 43.68059921], "centroid": [-79.19026526340683, 43.77727804520397], "screen_name": "wxTO", "time": 1457215567.0, "tid": 706163898492313602, "text": "12pm: Light Snow -1.3C - Feels: -6C - Wind: S 16km/h - Bar: 102.3 kPa ^ - Hum: 68% #Toronto #Weather", "created_at": "Sat Mar 05 17:06:07 +0000 2016", "klabel": 9}}, {"geometry": {"type": "Point", "coordinates": [-79.61582285, 43.681823]}, "type": "Feature", "id": 706181516120862720, "properties": {"loc": [-79.61582285, 43.681823], "centroid": [-79.19026526340683, 43.77727804520397], "screen_name": "RyNuseros", "time": 1457219768.0, "tid": 706181516120862720, "text": "Plane wings are always fascinating. Part lines are sweet. #YYZ #latergram #travel @ Toronto\u2026 https://t.co/e18v39JdKS", "created_at": "Sat Mar 05 18:16:08 +0000 2016", "klabel": 9}}, {"geometry": {"type": "Point", "coordinates": [-79.61174011, 43.68059921]}, "type": "Feature", "id": 707598356210704386, "properties": {"loc": [-79.61174011, 43.68059921], "centroid": [-79.19026526340683, 43.77727804520397], "screen_name": "wxTO", "time": 1457557569.0, "tid": 707598356210704386, "text": "11am: Mostly Cloudy 16.9C - Wind: SW 28km/h Gusts to 41km/h - Bar: 101.4 kPa v - Hum: 51% #Toronto #Weather", "created_at": "Wed Mar 09 16:06:09 +0000 2016", "klabel": 9}}, {"geometry": {"type": "Point", "coordinates": [-79.61582285, 43.681823]}, "type": "Feature", "id": 707605808243150849, "properties": {"loc": [-79.61582285, 43.681823], "centroid": [-79.19026526340683, 43.77727804520397], "screen_name": "keithco", "time": 1457559346.0, "tid": 707605808243150849, "text": "Damn! I woke up crazy early for nothing! Thanks heavy fog! Diverted back to TO! @ Toronto\u2026 https://t.co/vl4U1zYYm4", "created_at": "Wed Mar 09 16:35:46 +0000 2016", "klabel": 9}}, {"geometry": {"type": "Point", "coordinates": [-79.61174011, 43.68059921]}, "type": "Feature", "id": 707613445345177600, "properties": {"loc": [-79.61174011, 43.68059921], "centroid": [-79.19026526340683, 43.77727804520397], "screen_name": "wxTO", "time": 1457561166.0, "tid": 707613445345177600, "text": "12pm: Mostly Cloudy 18.1C - Wind: SW 23km/h Gusts to 36km/h - Bar: 101.3 kPa v - Hum: 51% #Toronto #Weather", "created_at": "Wed Mar 09 17:06:06 +0000 2016", "klabel": 9}}, {"geometry": {"type": "Point", "coordinates": [-79.6248197, 43.6777176]}, "type": "Feature", "id": 707625446284734465, "properties": {"loc": [-79.6248197, 43.6777176], "centroid": [-79.19026526340683, 43.77727804520397], "screen_name": "CIBCcareers", "time": 1457564028.0, "tid": 707625446284734465, "text": "Want to work in #Mississauga, Ontario? View our latest opening: https://t.co/cUmD1cv5tf #BusinessMgmt #cibc #cibcjobs #Job #Jobs #Hiring", "created_at": "Wed Mar 09 17:53:48 +0000 2016", "klabel": 9}}, {"geometry": {"type": "Point", "coordinates": [-79.61582285, 43.681823]}, "type": "Feature", "id": 707629069085442049, "properties": {"loc": [-79.61582285, 43.681823], "centroid": [-79.19026526340683, 43.77727804520397], "screen_name": "jackreid", "time": 1457564891.0, "tid": 707629069085442049, "text": "Flying from Toronto Pearson to JFK. Later, Canada.\n#vsco #VSCOfilm #toronto #aerialphotography\u2026 https://t.co/Y8NSD9oGCB", "created_at": "Wed Mar 09 18:08:11 +0000 2016", "klabel": 9}}, {"geometry": {"type": "Point", "coordinates": [-79.61208344, 43.68065997]}, "type": "Feature", "id": 707631766253793280, "properties": {"loc": [-79.61208344, 43.68065997], "centroid": [-79.19026526340683, 43.77727804520397], "screen_name": "bencdickie", "time": 1457565534.0, "tid": 707631766253793280, "text": "I'm at @TorontoPearson International Airport (YYZ) in Mississauga, ON https://t.co/i4NyrOJbUu", "created_at": "Wed Mar 09 18:18:54 +0000 2016", "klabel": 9}}, {"geometry": {"type": "Point", "coordinates": [-79.61584396, 43.68181981]}, "type": "Feature", "id": 749775701029425153, "properties": {"loc": [-79.61584396, 43.68181981], "centroid": [-79.19026526340683, 43.77727804520397], "screen_name": "YYZFRANK", "time": 1467613431.0, "tid": 749775701029425153, "text": "#turkish turkishairlines #b773 #Boeing #yyz #towedon #yyzist #ist #istanbul #staralliance\u2026 https://t.co/8ycGBjEphT", "created_at": "Mon Jul 04 01:23:51 +0000 2016", "klabel": 9}}, {"geometry": {"type": "Point", "coordinates": [-79.61174011, 43.68059921]}, "type": "Feature", "id": 749801465963810817, "properties": {"loc": [-79.61174011, 43.68059921], "centroid": [-79.19026526340683, 43.77727804520397], "screen_name": "wxTO", "time": 1467619574.0, "tid": 749801465963810817, "text": "11pm: Clear 21.2C - Feels: 22C - Wind: NW 13km/h - Bar: 101.7 kPa ^ - Hum: 46% #Toronto #Weather", "created_at": "Mon Jul 04 03:06:14 +0000 2016", "klabel": 9}}, {"geometry": {"type": "Point", "coordinates": [-79.61584396, 43.68181981]}, "type": "Feature", "id": 749804145448747008, "properties": {"loc": [-79.61584396, 43.68181981], "centroid": [-79.19026526340683, 43.77727804520397], "screen_name": "stro1", "time": 1467620213.0, "tid": 749804145448747008, "text": "#bonvoyage &amp; thanks for everything #forevergrateful #\ud83d\udeeb @ Toronto Pearson International Airport https://t.co/zH02EYMpG7", "created_at": "Mon Jul 04 03:16:53 +0000 2016", "klabel": 9}}, {"geometry": {"type": "Point", "coordinates": [-79.61174011, 43.68059921]}, "type": "Feature", "id": 749846359239426049, "properties": {"loc": [-79.61174011, 43.68059921], "centroid": [-79.19026526340683, 43.77727804520397], "screen_name": "wxTO", "time": 1467630278.0, "tid": 749846359239426049, "text": "2am: Clear 18.4C - Wind: SW 7km/h - Bar: 101.7 kPa ^ - Hum: 55% #Toronto #Weather", "created_at": "Mon Jul 04 06:04:38 +0000 2016", "klabel": 9}}, {"geometry": {"type": "Point", "coordinates": [-79.61174011, 43.68059921]}, "type": "Feature", "id": 749861284456361984, "properties": {"loc": [-79.61174011, 43.68059921], "centroid": [-79.19026526340683, 43.77727804520397], "screen_name": "wxTO", "time": 1467633836.0, "tid": 749861284456361984, "text": "3am: Clear 16.7C - Wind: WSW 9km/h - Bar: 101.7 kPa ^ - Hum: 62% #Toronto #Weather", "created_at": "Mon Jul 04 07:03:56 +0000 2016", "klabel": 9}}, {"geometry": {"type": "Point", "coordinates": [-79.61174011, 43.68059921]}, "type": "Feature", "id": 749876172029394944, "properties": {"loc": [-79.61174011, 43.68059921], "centroid": [-79.19026526340683, 43.77727804520397], "screen_name": "wxTO", "time": 1467637386.0, "tid": 749876172029394944, "text": "4am: Clear 16.2C - Wind: NW 11km/h - Bar: 101.7 kPa ^ - Hum: 64% #Toronto #Weather", "created_at": "Mon Jul 04 08:03:06 +0000 2016", "klabel": 9}}, {"geometry": {"type": "Point", "coordinates": [-79.61584396, 43.68181981]}, "type": "Feature", "id": 749897925069643776, "properties": {"loc": [-79.61584396, 43.68181981], "centroid": [-79.19026526340683, 43.77727804520397], "screen_name": "mariewong", "time": 1467642572.0, "tid": 749897925069643776, "text": "Taking the first flight out and watching the sun rise. \u2708\ufe0f\ud83d\ude34\n#yyztohkg #aircanada #travel #family\u2026 https://t.co/V9LuctM5B1", "created_at": "Mon Jul 04 09:29:32 +0000 2016", "klabel": 9}}, {"geometry": {"type": "Point", "coordinates": [-79.61174011, 43.68059921]}, "type": "Feature", "id": 749906372284784640, "properties": {"loc": [-79.61174011, 43.68059921], "centroid": [-79.19026526340683, 43.77727804520397], "screen_name": "wxTO", "time": 1467644586.0, "tid": 749906372284784640, "text": "6am: Sunny 15.8C - Wind: NW 8km/h - Bar: 101.7 kPa v - Hum: 64% #Toronto #Weather", "created_at": "Mon Jul 04 10:03:06 +0000 2016", "klabel": 9}}, {"geometry": {"type": "Point", "coordinates": [-79.61584396, 43.68181981]}, "type": "Feature", "id": 749927666988486656, "properties": {"loc": [-79.61584396, 43.68181981], "centroid": [-79.19026526340683, 43.77727804520397], "screen_name": "LauraToribella", "time": 1467649663.0, "tid": 749927666988486656, "text": "Another group heading off to Nationals in Florida!!! Here we come\u2026 https://t.co/RTAb5CWYvM", "created_at": "Mon Jul 04 11:27:43 +0000 2016", "klabel": 9}}, {"geometry": {"type": "Point", "coordinates": [-79.61584396, 43.68181981]}, "type": "Feature", "id": 749932831372181504, "properties": {"loc": [-79.61584396, 43.68181981], "centroid": [-79.19026526340683, 43.77727804520397], "screen_name": "PEjerel", "time": 1467650894.0, "tid": 749932831372181504, "text": "Toronto, thanks so much for having us! This has truly been an amazing experience! Such wonderful\u2026 https://t.co/NRCM0OWPpR", "created_at": "Mon Jul 04 11:48:14 +0000 2016", "klabel": 9}}, {"geometry": {"type": "Point", "coordinates": [-79.61174011, 43.68059921]}, "type": "Feature", "id": 749936571009396736, "properties": {"loc": [-79.61174011, 43.68059921], "centroid": [-79.19026526340683, 43.77727804520397], "screen_name": "wxTO", "time": 1467651786.0, "tid": 749936571009396736, "text": "8am: Mainly Sunny 20.0C - Wind: N 1km/h - Bar: 101.7 kPa ^ - Hum: 46% #Toronto #Weather", "created_at": "Mon Jul 04 12:03:06 +0000 2016", "klabel": 9}}, {"geometry": {"type": "Point", "coordinates": [-79.61174011, 43.68059921]}, "type": "Feature", "id": 749951671992737792, "properties": {"loc": [-79.61174011, 43.68059921], "centroid": [-79.19026526340683, 43.77727804520397], "screen_name": "wxTO", "time": 1467655386.0, "tid": 749951671992737792, "text": "9am: Mainly Sunny 22.5C - Wind: N 3km/h - Bar: 101.7 kPa ^ - Hum: 38% #Toronto #Weather", "created_at": "Mon Jul 04 13:03:06 +0000 2016", "klabel": 9}}, {"geometry": {"type": "Point", "coordinates": [-79.61584396, 43.68181981]}, "type": "Feature", "id": 749983294066921472, "properties": {"loc": [-79.61584396, 43.68181981], "centroid": [-79.19026526340683, 43.77727804520397], "screen_name": "_mikaayla", "time": 1467662925.0, "tid": 749983294066921472, "text": "bye bye hunnies \u2728\u2600\ufe0f\ud83c\udf34 @ Toronto Pearson International Airport https://t.co/segKKADM8s", "created_at": "Mon Jul 04 15:08:45 +0000 2016", "klabel": 9}}, {"geometry": {"type": "Point", "coordinates": [-79.61584396, 43.68181981]}, "type": "Feature", "id": 749994504783073281, "properties": {"loc": [-79.61584396, 43.68181981], "centroid": [-79.19026526340683, 43.77727804520397], "screen_name": "djgimports", "time": 1467665598.0, "tid": 749994504783073281, "text": "#sportit #djgimports #nofiltertshirtco @ Toronto Pearson International Airport https://t.co/TsgF3xcl09", "created_at": "Mon Jul 04 15:53:18 +0000 2016", "klabel": 9}}, {"geometry": {"type": "Point", "coordinates": [-79.61174011, 43.68059921]}, "type": "Feature", "id": 749996966831067141, "properties": {"loc": [-79.61174011, 43.68059921], "centroid": [-79.19026526340683, 43.77727804520397], "screen_name": "wxTO", "time": 1467666185.0, "tid": 749996966831067141, "text": "12pm: Mainly Sunny 26.4C - Feels: 27C - Wind: S 14km/h - Bar: 101.5 kPa v - Hum: 31% #Toronto #Weather", "created_at": "Mon Jul 04 16:03:05 +0000 2016", "klabel": 9}}, {"geometry": {"type": "Point", "coordinates": [-79.62045193, 43.68564886]}, "type": "Feature", "id": 750017007668588544, "properties": {"loc": [-79.62045193, 43.68564886], "centroid": [-79.19026526340683, 43.77727804520397], "screen_name": "Andruchovici", "time": 1467670963.0, "tid": 750017007668588544, "text": "Mexico (@ Terminal 3 - @torontopearson in Mississauga, ON) https://t.co/PKMahfMqUc", "created_at": "Mon Jul 04 17:22:43 +0000 2016", "klabel": 9}}, {"geometry": {"type": "Point", "coordinates": [-79.61584396, 43.68181981]}, "type": "Feature", "id": 750017792938770432, "properties": {"loc": [-79.61584396, 43.68181981], "centroid": [-79.19026526340683, 43.77727804520397], "screen_name": "cc_artistry", "time": 1467671151.0, "tid": 750017792938770432, "text": "Our first plane ride together! @ Toronto Pearson International Airport https://t.co/dpf2R2huEE", "created_at": "Mon Jul 04 17:25:51 +0000 2016", "klabel": 9}}, {"geometry": {"type": "Point", "coordinates": [-79.61208344, 43.68065997]}, "type": "Feature", "id": 750036589963804672, "properties": {"loc": [-79.61208344, 43.68065997], "centroid": [-79.19026526340683, 43.77727804520397], "screen_name": "br_webb", "time": 1467675632.0, "tid": 750036589963804672, "text": "Headed home today! First time I'll be home in 5 weeks. I can't wait! #HomoCultureTour (at @torontopearson) https://t.co/vKdv6aPNfk", "created_at": "Mon Jul 04 18:40:32 +0000 2016", "klabel": 9}}, {"geometry": {"type": "Point", "coordinates": [-79.61584396, 43.68181981]}, "type": "Feature", "id": 750046301136363521, "properties": {"loc": [-79.61584396, 43.68181981], "centroid": [-79.19026526340683, 43.77727804520397], "screen_name": "ShamusJohnson2", "time": 1467677948.0, "tid": 750046301136363521, "text": "Happy 4th of July from the guy about to leave Canada and travel to Berlin! @ Toronto Pearson\u2026 https://t.co/7TZWnWV5Wi", "created_at": "Mon Jul 04 19:19:08 +0000 2016", "klabel": 9}}, {"geometry": {"type": "Point", "coordinates": [-79.61174011, 43.68059921]}, "type": "Feature", "id": 750046793967239168, "properties": {"loc": [-79.61174011, 43.68059921], "centroid": [-79.19026526340683, 43.77727804520397], "screen_name": "wxTO", "time": 1467678065.0, "tid": 750046793967239168, "text": "[HIGH PRIORITY] HEAT WARNING IN EFFECT Issued for Toronto [Updated: Jul 04th 15:19 EDT] https://t.co/xoiVWSQLK7", "created_at": "Mon Jul 04 19:21:05 +0000 2016", "klabel": 9}}, {"geometry": {"type": "Point", "coordinates": [-79.61584396, 43.68181981]}, "type": "Feature", "id": 750071973162590208, "properties": {"loc": [-79.61584396, 43.68181981], "centroid": [-79.19026526340683, 43.77727804520397], "screen_name": "CouttsJanice", "time": 1467684068.0, "tid": 750071973162590208, "text": "And nataliecoutts_ is off! Italy, here she comes!\ud83c\uddee\ud83c\uddf9 Buon\u2026 https://t.co/JfEYglViPn", "created_at": "Mon Jul 04 21:01:08 +0000 2016", "klabel": 9}}, {"geometry": {"type": "Point", "coordinates": [-79.61174011, 43.68059921]}, "type": "Feature", "id": 750087570571296770, "properties": {"loc": [-79.61174011, 43.68059921], "centroid": [-79.19026526340683, 43.77727804520397], "screen_name": "wxTO", "time": 1467687787.0, "tid": 750087570571296770, "text": "6pm: Mostly Cloudy 26.4C - Feels: 27C - Wind: SSE 14km/h - Bar: 101.2 kPa v - Hum: 34% #Toronto #Weather", "created_at": "Mon Jul 04 22:03:07 +0000 2016", "klabel": 9}}, {"geometry": {"type": "Point", "coordinates": [-79.61584396, 43.68181981]}, "type": "Feature", "id": 750091994517692417, "properties": {"loc": [-79.61584396, 43.68181981], "centroid": [-79.19026526340683, 43.77727804520397], "screen_name": "SagivG1441", "time": 1467688842.0, "tid": 750091994517692417, "text": "Cliche passport + boarding pass + drink picture. Later #Toronto. See you in a few. Hello\u2026 https://t.co/WV8y3xxAvN", "created_at": "Mon Jul 04 22:20:42 +0000 2016", "klabel": 9}}, {"geometry": {"type": "Point", "coordinates": [-79.61280889, 43.6816267]}, "type": "Feature", "id": 750092536887275520, "properties": {"loc": [-79.61280889, 43.6816267], "centroid": [-79.19026526340683, 43.77727804520397], "screen_name": "Payneben", "time": 1467688971.0, "tid": 750092536887275520, "text": "this better do what it says on the tin... I need to survive this\u2026 https://t.co/vnZi6KUj0c", "created_at": "Mon Jul 04 22:22:51 +0000 2016", "klabel": 9}}, {"geometry": {"type": "Point", "coordinates": [-79.61208344, 43.68065997]}, "type": "Feature", "id": 750098924464111616, "properties": {"loc": [-79.61208344, 43.68065997], "centroid": [-79.19026526340683, 43.77727804520397], "screen_name": "Janhawk1969", "time": 1467690494.0, "tid": 750098924464111616, "text": "I'm at @TorontoPearson International Airport in Mississauga, ON https://t.co/zs6e6g3SHS", "created_at": "Mon Jul 04 22:48:14 +0000 2016", "klabel": 9}}, {"geometry": {"type": "Point", "coordinates": [-79.607, 43.6895]}, "type": "Feature", "id": 750100827369533440, "properties": {"loc": [-79.607, 43.6895], "centroid": [-79.19026526340683, 43.77727804520397], "screen_name": "kajiai", "time": 1467690948.0, "tid": 750100827369533440, "text": "Happy Fourth of July, from the hotel bar where we are laying ove... (Steam Whistle Pilsner) https://t.co/ZbnvHrRMDq #photo", "created_at": "Mon Jul 04 22:55:48 +0000 2016", "klabel": 9}}, {"geometry": {"type": "Point", "coordinates": [-79.61174011, 43.68059921]}, "type": "Feature", "id": 750102661169635328, "properties": {"loc": [-79.61174011, 43.68059921], "centroid": [-79.19026526340683, 43.77727804520397], "screen_name": "wxTO", "time": 1467691385.0, "tid": 750102661169635328, "text": "7pm: Mostly Cloudy 25.0C - Feels: 26C - Wind: SSE 18km/h - Bar: 101.1 kPa v - Hum: 36% #Toronto #Weather", "created_at": "Mon Jul 04 23:03:05 +0000 2016", "klabel": 9}}, {"geometry": {"type": "Point", "coordinates": [-79.61357864, 43.68311444]}, "type": "Feature", "id": 750105203958026240, "properties": {"loc": [-79.61357864, 43.68311444], "centroid": [-79.19026526340683, 43.77727804520397], "screen_name": "Janhawk1969", "time": 1467691991.0, "tid": 750105203958026240, "text": "I'm at UP Express - Pearson T1 Station in Mississauga https://t.co/x9VqhBqE9q", "created_at": "Mon Jul 04 23:13:11 +0000 2016", "klabel": 9}}, {"geometry": {"type": "Point", "coordinates": [-79.6096224, 43.6876488]}, "type": "Feature", "id": 750115026170572800, "properties": {"loc": [-79.6096224, 43.6876488], "centroid": [-79.19026526340683, 43.77727804520397], "screen_name": "YardiJobs", "time": 1467694333.0, "tid": 750115026170572800, "text": "If you're a #ProjectMgmt professional in #Mississauga, ON, check out this #job: https://t.co/gblhw5QorL #Yardi #yardijobs #Veterans #Hiring", "created_at": "Mon Jul 04 23:52:13 +0000 2016", "klabel": 9}}, {"geometry": {"type": "Point", "coordinates": [-79.61174011, 43.68059921]}, "type": "Feature", "id": 750117786073038848, "properties": {"loc": [-79.61174011, 43.68059921], "centroid": [-79.19026526340683, 43.77727804520397], "screen_name": "wxTO", "time": 1467694991.0, "tid": 750117786073038848, "text": "8pm: Partly Cloudy 23.2C - Feels: 24C - Wind: SSE 16km/h - Bar: 101.1 kPa v - Hum: 40% #Toronto #Weather", "created_at": "Tue Jul 05 00:03:11 +0000 2016", "klabel": 9}}, {"geometry": {"type": "Point", "coordinates": [-79.61584396, 43.68181981]}, "type": "Feature", "id": 750126642417119232, "properties": {"loc": [-79.61584396, 43.68181981], "centroid": [-79.19026526340683, 43.77727804520397], "screen_name": "painsthee", "time": 1467697102.0, "tid": 750126642417119232, "text": "One day, a plane will appear here, and then it will take us to London. I think. Maybe.\u2026 https://t.co/ZMjKbuEayQ", "created_at": "Tue Jul 05 00:38:22 +0000 2016", "klabel": 9}}, {"geometry": {"type": "Point", "coordinates": [-79.61584396, 43.68181981]}, "type": "Feature", "id": 750150209120841730, "properties": {"loc": [-79.61584396, 43.68181981], "centroid": [-79.19026526340683, 43.77727804520397], "screen_name": "chelseaao", "time": 1467702721.0, "tid": 750150209120841730, "text": "\ud83c\udde8\ud83c\udde6 ----&gt; \ud83c\uddf5\ud83c\uddf9 &amp; \ud83c\uddec\ud83c\udde7 @ Toronto Pearson International Airport https://t.co/cka3Eg7jg9", "created_at": "Tue Jul 05 02:12:01 +0000 2016", "klabel": 9}}, {"geometry": {"type": "Point", "coordinates": [-79.61584396, 43.68181981]}, "type": "Feature", "id": 750150940439838720, "properties": {"loc": [-79.61584396, 43.68181981], "centroid": [-79.19026526340683, 43.77727804520397], "screen_name": "LAURPOLY", "time": 1467702895.0, "tid": 750150940439838720, "text": "Until we meet again. @ Toronto Pearson International Airport https://t.co/VU2KphT4KE", "created_at": "Tue Jul 05 02:14:55 +0000 2016", "klabel": 9}}, {"geometry": {"type": "Point", "coordinates": [-79.61978674, 43.68632384]}, "type": "Feature", "id": 750158255259783168, "properties": {"loc": [-79.61978674, 43.68632384], "centroid": [-79.19026526340683, 43.77727804520397], "screen_name": "barshevskaya_", "time": 1467704639.0, "tid": 750158255259783168, "text": "I'm at Sheraton Gateway Hotel in Mississauga, ON https://t.co/Cw8zwx3Wx0 https://t.co/xs6gaxhtMq", "created_at": "Tue Jul 05 02:43:59 +0000 2016", "klabel": 9}}, {"geometry": {"type": "Point", "coordinates": [-79.61174011, 43.68059921]}, "type": "Feature", "id": 750165326826962944, "properties": {"loc": [-79.61174011, 43.68059921], "centroid": [-79.19026526340683, 43.77727804520397], "screen_name": "wxTO", "time": 1467706325.0, "tid": 750165326826962944, "text": "11pm: Partly Cloudy 20.5C - Feels: 22C - Wind: SSW 5km/h - Bar: 101.0 kPa v - Hum: 53% #Toronto #Weather", "created_at": "Tue Jul 05 03:12:05 +0000 2016", "klabel": 9}}, {"geometry": {"type": "Point", "coordinates": [-79.61174011, 43.68059921]}, "type": "Feature", "id": 750178170461097984, "properties": {"loc": [-79.61174011, 43.68059921], "centroid": [-79.19026526340683, 43.77727804520397], "screen_name": "wxTO", "time": 1467709388.0, "tid": 750178170461097984, "text": "12am: Mostly Cloudy 21.1C - Feels: 23C - Wind: SSE 7km/h - Bar: 101.0 kPa v - Hum: 51% #Toronto #Weather", "created_at": "Tue Jul 05 04:03:08 +0000 2016", "klabel": 9}}, {"geometry": {"type": "Point", "coordinates": [-79.61584396, 43.68181981]}, "type": "Feature", "id": 750202308063932418, "properties": {"loc": [-79.61584396, 43.68181981], "centroid": [-79.19026526340683, 43.77727804520397], "screen_name": "LewisHunt82", "time": 1467715142.0, "tid": 750202308063932418, "text": "#latergram #travel #aircanada #canada #traveller taking off from #toronto #airport  @aircanada @\u2026 https://t.co/NnxeqyfsLd", "created_at": "Tue Jul 05 05:39:02 +0000 2016", "klabel": 9}}, {"geometry": {"type": "Point", "coordinates": [-79.61174011, 43.68059921]}, "type": "Feature", "id": 750238557076357120, "properties": {"loc": [-79.61174011, 43.68059921], "centroid": [-79.19026526340683, 43.77727804520397], "screen_name": "wxTO", "time": 1467723785.0, "tid": 750238557076357120, "text": "4am: Mostly Cloudy 21.0C - Feels: 22C - Wind: NNE 8km/h - Bar: 100.9 kPa v - Hum: 50% #Toronto #Weather", "created_at": "Tue Jul 05 08:03:05 +0000 2016", "klabel": 9}}, {"geometry": {"type": "Point", "coordinates": [-79.61174011, 43.68059921]}, "type": "Feature", "id": 750250628832780288, "properties": {"loc": [-79.61174011, 43.68059921], "centroid": [-79.19026526340683, 43.77727804520397], "screen_name": "wxTO", "time": 1467726663.0, "tid": 750250628832780288, "text": "[HIGH PRIORITY] HEAT WARNING IN EFFECT Issued for Toronto [Updated: Jul 05th 04:46 EDT] https://t.co/xoiVWSQLK7", "created_at": "Tue Jul 05 08:51:03 +0000 2016", "klabel": 9}}, {"geometry": {"type": "Point", "coordinates": [-79.61174011, 43.68059921]}, "type": "Feature", "id": 750253655698317313, "properties": {"loc": [-79.61174011, 43.68059921], "centroid": [-79.19026526340683, 43.77727804520397], "screen_name": "wxTO", "time": 1467727385.0, "tid": 750253655698317313, "text": "5am: Mostly Cloudy 20.2C - Feels: 21C - Wind: NW 8km/h - Bar: 100.9 kPa v - Hum: 51% #Toronto #Weather", "created_at": "Tue Jul 05 09:03:05 +0000 2016", "klabel": 9}}, {"geometry": {"type": "Point", "coordinates": [-79.61174011, 43.68059921]}, "type": "Feature", "id": 750268753280176128, "properties": {"loc": [-79.61174011, 43.68059921], "centroid": [-79.19026526340683, 43.77727804520397], "screen_name": "wxTO", "time": 1467730984.0, "tid": 750268753280176128, "text": "6am: Mostly Cloudy 20.4C - Feels: 22C - Wind: N 5km/h - Bar: 100.9 kPa v - Hum: 50% #Toronto #Weather", "created_at": "Tue Jul 05 10:03:04 +0000 2016", "klabel": 9}}, {"geometry": {"type": "Point", "coordinates": [-79.61358572, 43.68322737]}, "type": "Feature", "id": 750278110143082496, "properties": {"loc": [-79.61358572, 43.68322737], "centroid": [-79.19026526340683, 43.77727804520397], "screen_name": "LeafFanatic", "time": 1467733215.0, "tid": 750278110143082496, "text": "Red eye..great idea! @ UP Express https://t.co/9cLU5JIFI8", "created_at": "Tue Jul 05 10:40:15 +0000 2016", "klabel": 9}}, {"geometry": {"type": "Point", "coordinates": [-79.62002677, 43.68291024]}, "type": "Feature", "id": 750282152969904128, "properties": {"loc": [-79.62002677, 43.68291024], "centroid": [-79.19026526340683, 43.77727804520397], "screen_name": "ccherneskey", "time": 1467734179.0, "tid": 750282152969904128, "text": "And now.... #Cancun!! #Mexico!! @ Terminal 3 - Lester B. Pearson International Airport - Canjet'ing https://t.co/Eo9rpGVQdY", "created_at": "Tue Jul 05 10:56:19 +0000 2016", "klabel": 9}}, {"geometry": {"type": "Point", "coordinates": [-79.61174011, 43.68059921]}, "type": "Feature", "id": 750283853986758660, "properties": {"loc": [-79.61174011, 43.68059921], "centroid": [-79.19026526340683, 43.77727804520397], "screen_name": "wxTO", "time": 1467734585.0, "tid": 750283853986758660, "text": "7am: Partly Cloudy 21.4C - Feels: 22C - Wind: WNW 7km/h - Bar: 101.0 kPa v - Hum: 46% #Toronto #Weather", "created_at": "Tue Jul 05 11:03:05 +0000 2016", "klabel": 9}}, {"geometry": {"type": "Point", "coordinates": [-79.61584396, 43.68181981]}, "type": "Feature", "id": 750289159147913216, "properties": {"loc": [-79.61584396, 43.68181981], "centroid": [-79.19026526340683, 43.77727804520397], "screen_name": "Spaformation", "time": 1467735849.0, "tid": 750289159147913216, "text": "Canada Day and Independence Day over. Good wipeout slalom skiing. Back to work. Good Morning\u2026 https://t.co/xsUwYkfUDE", "created_at": "Tue Jul 05 11:24:09 +0000 2016", "klabel": 9}}, {"geometry": {"type": "Point", "coordinates": [-79.61208344, 43.68065997]}, "type": "Feature", "id": 750328188325261312, "properties": {"loc": [-79.61208344, 43.68065997], "centroid": [-79.19026526340683, 43.77727804520397], "screen_name": "eliza7654", "time": 1467745155.0, "tid": 750328188325261312, "text": "I'm at @TorontoPearson International Airport in Mississauga, ON https://t.co/U5KBK3cx4i", "created_at": "Tue Jul 05 13:59:15 +0000 2016", "klabel": 9}}, {"geometry": {"type": "Point", "coordinates": [-79.61174011, 43.68059921]}, "type": "Feature", "id": 750374476429271040, "properties": {"loc": [-79.61174011, 43.68059921], "centroid": [-79.19026526340683, 43.77727804520397], "screen_name": "wxTO", "time": 1467756191.0, "tid": 750374476429271040, "text": "1pm: Mostly Cloudy 29.5C - Feels: 33C - Wind: WSW 13km/h - Bar: 100.9 kPa ^ - Hum: 39% #Toronto #Weather", "created_at": "Tue Jul 05 17:03:11 +0000 2016", "klabel": 9}}, {"geometry": {"type": "Point", "coordinates": [-79.61584396, 43.68181981]}, "type": "Feature", "id": 750377243185065984, "properties": {"loc": [-79.61584396, 43.68181981], "centroid": [-79.19026526340683, 43.77727804520397], "screen_name": "Elfhsrcogluu", "time": 1467756850.0, "tid": 750377243185065984, "text": "En \u00fcz\u00fcc\u00fc #tbt Ho\u015f\u00e7akal Toronto\ud83d\ude14\ud83c\udde8\ud83c\udde6 #toronto #canada #bahcesehiruniversity #bautoronto @ Toronto\u2026 https://t.co/rK3AuN6QpE", "created_at": "Tue Jul 05 17:14:10 +0000 2016", "klabel": 9}}, {"geometry": {"type": "Point", "coordinates": [-79.61174011, 43.68059921]}, "type": "Feature", "id": 751220031707574273, "properties": {"loc": [-79.61174011, 43.68059921], "centroid": [-79.19026526340683, 43.77727804520397], "screen_name": "wxTO", "time": 1467957787.0, "tid": 751220031707574273, "text": "9pm: Mostly Cloudy 26.6C - Feels: 32C - Wind: N 24km/h - Bar: 100.9 kPa ^ - Hum: 57% #Toronto #Weather", "created_at": "Fri Jul 08 01:03:07 +0000 2016", "klabel": 9}}, {"geometry": {"type": "Point", "coordinates": [-79.61174011, 43.68059921]}, "type": "Feature", "id": 751232865287999488, "properties": {"loc": [-79.61174011, 43.68059921], "centroid": [-79.19026526340683, 43.77727804520397], "screen_name": "wxTO", "time": 1467960846.0, "tid": 751232865287999488, "text": "[HIGH PRIORITY] HEAT WARNING IN EFFECT Issued for Toronto [Updated: Jul 07th 21:50 EDT] https://t.co/xoiVWSQLK7", "created_at": "Fri Jul 08 01:54:06 +0000 2016", "klabel": 9}}, {"geometry": {"type": "Point", "coordinates": [-79.61174011, 43.68059921]}, "type": "Feature", "id": 751627710011670528, "properties": {"loc": [-79.61174011, 43.68059921], "centroid": [-79.19026526340683, 43.77727804520397], "screen_name": "wxTO", "time": 1468054985.0, "tid": 751627710011670528, "text": "12am: Mostly Cloudy 22.0C - Feels: 30C - Wind: E 10km/h - Bar: 100.6 kPa v - Hum: 92% #Toronto #Weather", "created_at": "Sat Jul 09 04:03:05 +0000 2016", "klabel": 9}}, {"geometry": {"type": "Point", "coordinates": [-79.61208344, 43.68065997]}, "type": "Feature", "id": 751641965448552448, "properties": {"loc": [-79.61208344, 43.68065997], "centroid": [-79.19026526340683, 43.77727804520397], "screen_name": "mneylon", "time": 1468058384.0, "tid": 751641965448552448, "text": "I'm at @TorontoPearson International Airport in Mississauga, ON https://t.co/QDVyE1V8lD", "created_at": "Sat Jul 09 04:59:44 +0000 2016", "klabel": 9}}, {"geometry": {"type": "Point", "coordinates": [-79.61174011, 43.68059921]}, "type": "Feature", "id": 751642819056562176, "properties": {"loc": [-79.61174011, 43.68059921], "centroid": [-79.19026526340683, 43.77727804520397], "screen_name": "wxTO", "time": 1468058587.0, "tid": 751642819056562176, "text": "1am: Mostly Cloudy 21.1C - Feels: 27C - Wind: E 16km/h - Bar: 100.6 kPa v - Hum: 85% #Toronto #Weather", "created_at": "Sat Jul 09 05:03:07 +0000 2016", "klabel": 9}}, {"geometry": {"type": "Point", "coordinates": [-79.61208344, 43.68065997]}, "type": "Feature", "id": 751655769792217088, "properties": {"loc": [-79.61208344, 43.68065997], "centroid": [-79.19026526340683, 43.77727804520397], "screen_name": "EdwinAndaluz", "time": 1468061675.0, "tid": 751655769792217088, "text": "I'm at @TorontoPearson International Airport (YYZ) in Mississauga, ON https://t.co/9WOPX63WVL", "created_at": "Sat Jul 09 05:54:35 +0000 2016", "klabel": 9}}, {"geometry": {"type": "Point", "coordinates": [-79.61174011, 43.68059921]}, "type": "Feature", "id": 751659419113578496, "properties": {"loc": [-79.61174011, 43.68059921], "centroid": [-79.19026526340683, 43.77727804520397], "screen_name": "wxTO", "time": 1468062545.0, "tid": 751659419113578496, "text": "2am: Mostly Cloudy 21.1C - Feels: 28C - Wind: WSW 10km/h - Bar: 100.6 kPa ^ - Hum: 88% #Toronto #Weather", "created_at": "Sat Jul 09 06:09:05 +0000 2016", "klabel": 9}}, {"geometry": {"type": "Point", "coordinates": [-79.61584396, 43.68181981]}, "type": "Feature", "id": 751668297448431616, "properties": {"loc": [-79.61584396, 43.68181981], "centroid": [-79.19026526340683, 43.77727804520397], "screen_name": "stefthepef", "time": 1468064662.0, "tid": 751668297448431616, "text": "Good vacation so far. (What? I could put maple syrup in a latte. I don't care what time it is.)\u2026 https://t.co/312FOLmXPI", "created_at": "Sat Jul 09 06:44:22 +0000 2016", "klabel": 9}}, {"geometry": {"type": "Point", "coordinates": [-79.61174011, 43.68059921]}, "type": "Feature", "id": 751673011535810560, "properties": {"loc": [-79.61174011, 43.68059921], "centroid": [-79.19026526340683, 43.77727804520397], "screen_name": "wxTO", "time": 1468065786.0, "tid": 751673011535810560, "text": "3am: Mostly Cloudy 20.8C - Feels: 28C - Wind: N 3km/h - Bar: 100.5 kPa ^ - Hum: 92% #Toronto #Weather", "created_at": "Sat Jul 09 07:03:06 +0000 2016", "klabel": 9}}, {"geometry": {"type": "Point", "coordinates": [-79.61174011, 43.68059921]}, "type": "Feature", "id": 751703966224875520, "properties": {"loc": [-79.61174011, 43.68059921], "centroid": [-79.19026526340683, 43.77727804520397], "screen_name": "wxTO", "time": 1468073166.0, "tid": 751703966224875520, "text": "5am: Mostly Cloudy 19.6C - Wind: W 15km/h - Bar: 100.5 kPa v - Hum: 94% #Toronto #Weather", "created_at": "Sat Jul 09 09:06:06 +0000 2016", "klabel": 9}}, {"geometry": {"type": "Point", "coordinates": [-79.61584396, 43.68181981]}, "type": "Feature", "id": 751719265732993024, "properties": {"loc": [-79.61584396, 43.68181981], "centroid": [-79.19026526340683, 43.77727804520397], "screen_name": "salem0726", "time": 1468076813.0, "tid": 751719265732993024, "text": "Morning pretty skies today! #airport #sky #pretty #pearson #plane @\u2026 https://t.co/grdtsjK7vz", "created_at": "Sat Jul 09 10:06:53 +0000 2016", "klabel": 9}}, {"geometry": {"type": "Point", "coordinates": [-79.61584396, 43.68181981]}, "type": "Feature", "id": 751720916560650241, "properties": {"loc": [-79.61584396, 43.68181981], "centroid": [-79.19026526340683, 43.77727804520397], "screen_name": "thekellerkrew", "time": 1468077207.0, "tid": 751720916560650241, "text": "My brave girls are heading out to Guiding Mosaic (our national Girl\u2026 https://t.co/tAVepddBhO", "created_at": "Sat Jul 09 10:13:27 +0000 2016", "klabel": 9}}, {"geometry": {"type": "Point", "coordinates": [-79.61208344, 43.68065997]}, "type": "Feature", "id": 751731755682586629, "properties": {"loc": [-79.61208344, 43.68065997], "centroid": [-79.19026526340683, 43.77727804520397], "screen_name": "tru416", "time": 1468079791.0, "tid": 751731755682586629, "text": "Hello old friend (at @TorontoPearson International Airport in Mississauga, ON) https://t.co/88c1P0eC64", "created_at": "Sat Jul 09 10:56:31 +0000 2016", "klabel": 9}}, {"geometry": {"type": "Point", "coordinates": [-79.61174011, 43.68059921]}, "type": "Feature", "id": 751733407542087680, "properties": {"loc": [-79.61174011, 43.68059921], "centroid": [-79.19026526340683, 43.77727804520397], "screen_name": "wxTO", "time": 1468080185.0, "tid": 751733407542087680, "text": "7am: Mostly Cloudy 19.7C - Wind: W 14km/h - Bar: 100.6 kPa v - Hum: 86% #Toronto #Weather", "created_at": "Sat Jul 09 11:03:05 +0000 2016", "klabel": 9}}, {"geometry": {"type": "Point", "coordinates": [-79.6096224, 43.6876488]},