{
"type": "FeatureCollection",
"crs": { "type": "name", "properties": { "name": "urn:ogc:def:crs:OGC:1.3:CRS84" } },
"features": [
{ "type": "Feature", "properties": { "AREA_S_CD": "097", "AREA_NAME": "Yonge-St.Clair (97)", "ORIG_FID": 0 }, "geometry": { "type": "Point", "coordinates": [ -79.397871044408078, 43.687859249176938 ] } },
{ "type": "Feature", "properties": { "AREA_S_CD": "027", "AREA_NAME": "York University Heights (27)", "ORIG_FID": 1 }, "geometry": { "type": "Point", "coordinates": [ -79.488882702435944, 43.765737501757428 ] } },
{ "type": "Feature", "properties": { "AREA_S_CD": "038", "AREA_NAME": "Lansing-Westgate (38)", "ORIG_FID": 2 }, "geometry": { "type": "Point", "coordinates": [ -79.424747232172251, 43.754271751130887 ] } },
{ "type": "Feature", "properties": { "AREA_S_CD": "031", "AREA_NAME": "Yorkdale-Glen Park (31)", "ORIG_FID": 3 }, "geometry": { "type": "Point", "coordinates": [ -79.457108197676462, 43.714672135460376 ] } },
{ "type": "Feature", "properties": { "AREA_S_CD": "016", "AREA_NAME": "Stonegate-Queensway (16)", "ORIG_FID": 4 }, "geometry": { "type": "Point", "coordinates": [ -79.501128466053331, 43.635518363178278 ] } },
{ "type": "Feature", "properties": { "AREA_S_CD": "118", "AREA_NAME": "Tam O'Shanter-Sullivan (118)", "ORIG_FID": 5 }, "geometry": { "type": "Point", "coordinates": [ -79.302917856085116, 43.78013012698807 ] } },
{ "type": "Feature", "properties": { "AREA_S_CD": "063", "AREA_NAME": "The Beaches (63)", "ORIG_FID": 6 }, "geometry": { "type": "Point", "coordinates": [ -79.299599978852712, 43.671049862661505 ] } },
{ "type": "Feature", "properties": { "AREA_S_CD": "003", "AREA_NAME": "Thistletown-Beaumond Heights (3)", "ORIG_FID": 7 }, "geometry": { "type": "Point", "coordinates": [ -79.555216995749959, 43.7361448844336 ] } },
{ "type": "Feature", "properties": { "AREA_S_CD": "055", "AREA_NAME": "Thorncliffe Park (55)", "ORIG_FID": 8 }, "geometry": { "type": "Point", "coordinates": [ -79.349983892328908, 43.707749303452943 ] } },
{ "type": "Feature", "properties": { "AREA_S_CD": "059", "AREA_NAME": "Danforth East York (59)", "ORIG_FID": 9 }, "geometry": { "type": "Point", "coordinates": [ -79.331402856171906, 43.689467852864084 ] } },
{ "type": "Feature", "properties": { "AREA_S_CD": "106", "AREA_NAME": "Humewood-Cedarvale (106)", "ORIG_FID": 10 }, "geometry": { "type": "Point", "coordinates": [ -79.427683654292025, 43.691370149757972 ] } },
{ "type": "Feature", "properties": { "AREA_S_CD": "014", "AREA_NAME": "Islington-City Centre West (14)", "ORIG_FID": 11 }, "geometry": { "type": "Point", "coordinates": [ -79.543316262242342, 43.633465258802744 ] } },
{ "type": "Feature", "properties": { "AREA_S_CD": "066", "AREA_NAME": "Danforth (66)", "ORIG_FID": 12 }, "geometry": { "type": "Point", "coordinates": [ -79.329818851186303, 43.684025180098104 ] } },
{ "type": "Feature", "properties": { "AREA_S_CD": "028", "AREA_NAME": "Rustic (28)", "ORIG_FID": 13 }, "geometry": { "type": "Point", "coordinates": [ -79.498091510024096, 43.711609310343761 ] } },
{ "type": "Feature", "properties": { "AREA_S_CD": "139", "AREA_NAME": "Scarborough Village (139)", "ORIG_FID": 14 }, "geometry": { "type": "Point", "coordinates": [ -79.216812607022234, 43.738652262934522 ] } },
{ "type": "Feature", "properties": { "AREA_S_CD": "085", "AREA_NAME": "South Parkdale (85)", "ORIG_FID": 15 }, "geometry": { "type": "Point", "coordinates": [ -79.433240518500043, 43.636026147205598 ] } },
{ "type": "Feature", "properties": { "AREA_S_CD": "070", "AREA_NAME": "South Riverdale (70)", "ORIG_FID": 16 }, "geometry": { "type": "Point", "coordinates": [ -79.335651132725559, 43.649294655725612 ] } },
{ "type": "Feature", "properties": { "AREA_S_CD": "040", "AREA_NAME": "St.Andrew-Windfields (40)", "ORIG_FID": 17 }, "geometry": { "type": "Point", "coordinates": [ -79.379035558517955, 43.75624509765413 ] } },
{ "type": "Feature", "properties": { "AREA_S_CD": "061", "AREA_NAME": "Taylor-Massey (61)", "ORIG_FID": 18 }, "geometry": { "type": "Point", "coordinates": [ -79.292395326499957, 43.694639441388631 ] } },
{ "type": "Feature", "properties": { "AREA_S_CD": "021", "AREA_NAME": "Humber Summit (21)", "ORIG_FID": 19 }, "geometry": { "type": "Point", "coordinates": [ -79.556173795460438, 43.758919440292743 ] } },
{ "type": "Feature", "properties": { "AREA_S_CD": "022", "AREA_NAME": "Humbermede (22)", "ORIG_FID": 20 }, "geometry": { "type": "Point", "coordinates": [ -79.536865357500005, 43.743594967964839 ] } },
{ "type": "Feature", "properties": { "AREA_S_CD": "133", "AREA_NAME": "Centennial Scarborough (133)", "ORIG_FID": 21 }, "geometry": { "type": "Point", "coordinates": [ -79.150843534393914, 43.782376910307789 ] } },
{ "type": "Feature", "properties": { "AREA_S_CD": "075", "AREA_NAME": "Church-Yonge Corridor (75)", "ORIG_FID": 22 }, "geometry": { "type": "Point", "coordinates": [ -79.379017723272682, 43.659649521485733 ] } },
{ "type": "Feature", "properties": { "AREA_S_CD": "120", "AREA_NAME": "Clairlea-Birchmount (120)", "ORIG_FID": 23 }, "geometry": { "type": "Point", "coordinates": [ -79.278460188999929, 43.717886764625405 ] } },
{ "type": "Feature", "properties": { "AREA_S_CD": "123", "AREA_NAME": "Cliffcrest (123)", "ORIG_FID": 24 }, "geometry": { "type": "Point", "coordinates": [ -79.235528882739914, 43.721122136271276 ] } },
{ "type": "Feature", "properties": { "AREA_S_CD": "044", "AREA_NAME": "Flemingdon Park (44)", "ORIG_FID": 25 }, "geometry": { "type": "Point", "coordinates": [ -79.332645933789195, 43.715929768978583 ] } },
{ "type": "Feature", "properties": { "AREA_S_CD": "092", "AREA_NAME": "Corso Italia-Davenport (92)", "ORIG_FID": 26 }, "geometry": { "type": "Point", "coordinates": [ -79.44746947734393, 43.677660903701735 ] } },
{ "type": "Feature", "properties": { "AREA_S_CD": "125", "AREA_NAME": "Ionview (125)", "ORIG_FID": 27 }, "geometry": { "type": "Point", "coordinates": [ -79.272470397282405, 43.735364697871034 ] } },
{ "type": "Feature", "properties": { "AREA_S_CD": "090", "AREA_NAME": "Junction Area (90)", "ORIG_FID": 28 }, "geometry": { "type": "Point", "coordinates": [ -79.471439978141575, 43.667889906371556 ] } },
{ "type": "Feature", "properties": { "AREA_S_CD": "057", "AREA_NAME": "Broadview North (57)", "ORIG_FID": 29 }, "geometry": { "type": "Point", "coordinates": [ -79.355629302734712, 43.688825395740253 ] } },
{ "type": "Feature", "properties": { "AREA_S_CD": "010", "AREA_NAME": "Princess-Rosethorn (10)", "ORIG_FID": 30 }, "geometry": { "type": "Point", "coordinates": [ -79.544787475500016, 43.669016702647241 ] } },
{ "type": "Feature", "properties": { "AREA_S_CD": "068", "AREA_NAME": "North Riverdale (68)", "ORIG_FID": 31 }, "geometry": { "type": "Point", "coordinates": [ -79.351260429844388, 43.671995202197309 ] } },
{ "type": "Feature", "properties": { "AREA_S_CD": "013", "AREA_NAME": "Etobicoke West Mall (13)", "ORIG_FID": 32 }, "geometry": { "type": "Point", "coordinates": [ -79.568939158705291, 43.645062915918231 ] } },
{ "type": "Feature", "properties": { "AREA_S_CD": "102", "AREA_NAME": "Forest Hill North (102)", "ORIG_FID": 33 }, "geometry": { "type": "Point", "coordinates": [ -79.428142856908494, 43.704217469955609 ] } },
{ "type": "Feature", "properties": { "AREA_S_CD": "025", "AREA_NAME": "Glenfield-Jane Heights (25)", "ORIG_FID": 34 }, "geometry": { "type": "Point", "coordinates": [ -79.513465997997287, 43.745636065319161 ] } },
{ "type": "Feature", "properties": { "AREA_S_CD": "065", "AREA_NAME": "Greenwood-Coxwell (65)", "ORIG_FID": 35 }, "geometry": { "type": "Point", "coordinates": [ -79.324318302849065, 43.672612791029678 ] } },
{ "type": "Feature", "properties": { "AREA_S_CD": "140", "AREA_NAME": "Guildwood (140)", "ORIG_FID": 36 }, "geometry": { "type": "Point", "coordinates": [ -79.195054235811142, 43.748829430393755 ] } },
{ "type": "Feature", "properties": { "AREA_S_CD": "081", "AREA_NAME": "Trinity-Bellwoods (81)", "ORIG_FID": 37 }, "geometry": { "type": "Point", "coordinates": [ -79.415342112292137, 43.650176308782477 ] } },
{ "type": "Feature", "properties": { "AREA_S_CD": "043", "AREA_NAME": "Victoria Village (43)", "ORIG_FID": 38 }, "geometry": { "type": "Point", "coordinates": [ -79.314874497135804, 43.728489710331246 ] } },
{ "type": "Feature", "properties": { "AREA_S_CD": "077", "AREA_NAME": "Waterfront Communities-The Island (77)", "ORIG_FID": 39 }, "geometry": { "type": "Point", "coordinates": [ -79.377201372090155, 43.633881183143615 ] } },
{ "type": "Feature", "properties": { "AREA_S_CD": "136", "AREA_NAME": "West Hill (136)", "ORIG_FID": 40 }, "geometry": { "type": "Point", "coordinates": [ -79.176675798906956, 43.76748996672768 ] } },
{ "type": "Feature", "properties": { "AREA_S_CD": "001", "AREA_NAME": "West Humber-Clairville (1)", "ORIG_FID": 41 }, "geometry": { "type": "Point", "coordinates": [ -79.596363670790936, 43.716186337661497 ] } },
{ "type": "Feature", "properties": { "AREA_S_CD": "035", "AREA_NAME": "Westminster-Branson (35)", "ORIG_FID": 42 }, "geometry": { "type": "Point", "coordinates": [ -79.45241882024709, 43.77881390475909 ] } },
{ "type": "Feature", "properties": { "AREA_S_CD": "124", "AREA_NAME": "Kennedy Park (124)", "ORIG_FID": 43 }, "geometry": { "type": "Point", "coordinates": [ -79.2603815810578, 43.725555959374503 ] } },
{ "type": "Feature", "properties": { "AREA_S_CD": "006", "AREA_NAME": "Kingsview Village-The Westway (6)", "ORIG_FID": 44 }, "geometry": { "type": "Point", "coordinates": [ -79.547862996851677, 43.698992886471444 ] } },
{ "type": "Feature", "properties": { "AREA_S_CD": "049", "AREA_NAME": "Bayview Woods-Steeles (49)", "ORIG_FID": 45 }, "geometry": { "type": "Point", "coordinates": [ -79.3821178122123, 43.796802146332425 ] } },
{ "type": "Feature", "properties": { "AREA_S_CD": "033", "AREA_NAME": "Clanton Park (33)", "ORIG_FID": 46 }, "geometry": { "type": "Point", "coordinates": [ -79.44630241151981, 43.741979025385433 ] } },
{ "type": "Feature", "properties": { "AREA_S_CD": "110", "AREA_NAME": "Keelesdale-Eglinton West (110)", "ORIG_FID": 47 }, "geometry": { "type": "Point", "coordinates": [ -79.471437167537488, 43.685727468777657 ] } },
{ "type": "Feature", "properties": { "AREA_S_CD": "054", "AREA_NAME": "O'Connor-Parkview (54)", "ORIG_FID": 48 }, "geometry": { "type": "Point", "coordinates": [ -79.31222781957149, 43.706800344450244 ] } },
{ "type": "Feature", "properties": { "AREA_S_CD": "058", "AREA_NAME": "Old East York (58)", "ORIG_FID": 49 }, "geometry": { "type": "Point", "coordinates": [ -79.33548796547035, 43.696781076799255 ] } },
{ "type": "Feature", "properties": { "AREA_S_CD": "096", "AREA_NAME": "Casa Loma (96)", "ORIG_FID": 50 }, "geometry": { "type": "Point", "coordinates": [ -79.408006553925361, 43.681852256319871 ] } },
{ "type": "Feature", "properties": { "AREA_S_CD": "078", "AREA_NAME": "Kensington-Chinatown (78)", "ORIG_FID": 51 }, "geometry": { "type": "Point", "coordinates": [ -79.397239807647964, 43.653554145514306 ] } },
{ "type": "Feature", "properties": { "AREA_S_CD": "015", "AREA_NAME": "Kingsway South (15)", "ORIG_FID": 52 }, "geometry": { "type": "Point", "coordinates": [ -79.510576666852899, 43.653520388970094 ] } },
{ "type": "Feature", "properties": { "AREA_S_CD": "089", "AREA_NAME": "Runnymede-Bloor West Village (89)", "ORIG_FID": 53 }, "geometry": { "type": "Point", "coordinates": [ -79.485708641796066, 43.659269073633936 ] } },
{ "type": "Feature", "properties": { "AREA_S_CD": "101", "AREA_NAME": "Forest Hill South (101)", "ORIG_FID": 54 }, "geometry": { "type": "Point", "coordinates": [ -79.414317948013149, 43.694525989436556 ] } },
{ "type": "Feature", "properties": { "AREA_S_CD": "053", "AREA_NAME": "Henry Farm (53)", "ORIG_FID": 55 }, "geometry": { "type": "Point", "coordinates": [ -79.341240491554288, 43.771143690999395 ] } },
{ "type": "Feature", "properties": { "AREA_S_CD": "095", "AREA_NAME": "Annex (95)", "ORIG_FID": 56 }, "geometry": { "type": "Point", "coordinates": [ -79.40400005459901, 43.67158525319735 ] } },
{ "type": "Feature", "properties": { "AREA_S_CD": "109", "AREA_NAME": "Caledonia-Fairbank (109)", "ORIG_FID": 57 }, "geometry": { "type": "Point", "coordinates": [ -79.45521207857729, 43.688568746858095 ] } },
{ "type": "Feature", "properties": { "AREA_S_CD": "008", "AREA_NAME": "Humber Heights-Westmount (8)", "ORIG_FID": 58 }, "geometry": { "type": "Point", "coordinates": [ -79.522416790326474, 43.692233115097054 ] } },
{ "type": "Feature", "properties": { "AREA_S_CD": "086", "AREA_NAME": "Roncesvalles (86)", "ORIG_FID": 59 }, "geometry": { "type": "Point", "coordinates": [ -79.442992914614308, 43.646123167776466 ] } },
{ "type": "Feature", "properties": { "AREA_S_CD": "079", "AREA_NAME": "University (79)", "ORIG_FID": 60 }, "geometry": { "type": "Point", "coordinates": [ -79.401179677413666, 43.662506221499257 ] } },
{ "type": "Feature", "properties": { "AREA_S_CD": "048", "AREA_NAME": "Hillcrest Village (48)", "ORIG_FID": 61 }, "geometry": { "type": "Point", "coordinates": [ -79.354803439412819, 43.802988026441199 ] } },
{ "type": "Feature", "properties": { "AREA_S_CD": "115", "AREA_NAME": "Mount Dennis (115)", "ORIG_FID": 62 }, "geometry": { "type": "Point", "coordinates": [ -79.49998942619311, 43.688144019217816 ] } },
{ "type": "Feature", "properties": { "AREA_S_CD": "126", "AREA_NAME": "Dorset Park (126)", "ORIG_FID": 63 }, "geometry": { "type": "Point", "coordinates": [ -79.278908608733389, 43.759275585781438 ] } },
{ "type": "Feature", "properties": { "AREA_S_CD": "009", "AREA_NAME": "Edenbridge-Humber Valley (9)", "ORIG_FID": 64 }, "geometry": { "type": "Point", "coordinates": [ -79.522457687458768, 43.670886684245261 ] } },
{ "type": "Feature", "properties": { "AREA_S_CD": "093", "AREA_NAME": "Dovercourt-Wallace Emerson-Junction (93)", "ORIG_FID": 65 }, "geometry": { "type": "Point", "coordinates": [ -79.438540418521086, 43.665676744735492 ] } },
{ "type": "Feature", "properties": { "AREA_S_CD": "036", "AREA_NAME": "Newtonbrook West (36)", "ORIG_FID": 66 }, "geometry": { "type": "Point", "coordinates": [ -79.431421259510955, 43.785830164619028 ] } },
{ "type": "Feature", "properties": { "AREA_S_CD": "082", "AREA_NAME": "Niagara (82)", "ORIG_FID": 67 }, "geometry": { "type": "Point", "coordinates": [ -79.412420070762948, 43.636681061887941 ] } },
{ "type": "Feature", "properties": { "AREA_S_CD": "112", "AREA_NAME": "Beechborough-Greenbrook (112)", "ORIG_FID": 68 }, "geometry": { "type": "Point", "coordinates": [ -79.479472196157928, 43.693216293329215 ] } },
{ "type": "Feature", "properties": { "AREA_S_CD": "088", "AREA_NAME": "High Park North (88)", "ORIG_FID": 69 }, "geometry": { "type": "Point", "coordinates": [ -79.466301990269812, 43.657564767856172 ] } },
{ "type": "Feature", "properties": { "AREA_S_CD": "087", "AREA_NAME": "High Park-Swansea (87)", "ORIG_FID": 70 }, "geometry": { "type": "Point", "coordinates": [ -79.467871921074732, 43.645064374915876 ] } },
{ "type": "Feature", "properties": { "AREA_S_CD": "134", "AREA_NAME": "Highland Creek (134)", "ORIG_FID": 71 }, "geometry": { "type": "Point", "coordinates": [ -79.177472017791047, 43.790774727850248 ] } },
{ "type": "Feature", "properties": { "AREA_S_CD": "074", "AREA_NAME": "North St.James Town (74)", "ORIG_FID": 72 }, "geometry": { "type": "Point", "coordinates": [ -79.375246578782196, 43.669623413321744 ] } },
{ "type": "Feature", "properties": { "AREA_S_CD": "121", "AREA_NAME": "Oakridge (121)", "ORIG_FID": 73 }, "geometry": { "type": "Point", "coordinates": [ -79.279708171649418, 43.697408311876302 ] } },
{ "type": "Feature", "properties": { "AREA_S_CD": "098", "AREA_NAME": "Rosedale-Moore Park (98)", "ORIG_FID": 74 }, "geometry": { "type": "Point", "coordinates": [ -79.37966969557192, 43.682820803097854 ] } },
{ "type": "Feature", "properties": { "AREA_S_CD": "107", "AREA_NAME": "Oakwood Village (107)", "ORIG_FID": 75 }, "geometry": { "type": "Point", "coordinates": [ -79.439785764247006, 43.688565860491735 ] } },
{ "type": "Feature", "properties": { "AREA_S_CD": "119", "AREA_NAME": "Wexford\/Maryvale (119)", "ORIG_FID": 76 }, "geometry": { "type": "Point", "coordinates": [ -79.298638174562257, 43.748574356460665 ] } },
{ "type": "Feature", "properties": { "AREA_S_CD": "138", "AREA_NAME": "Eglinton East (138)", "ORIG_FID": 77 }, "geometry": { "type": "Point", "coordinates": [ -79.245597347558487, 43.740922183042301 ] } },
{ "type": "Feature", "properties": { "AREA_S_CD": "005", "AREA_NAME": "Elms-Old Rexdale (5)", "ORIG_FID": 78 }, "geometry": { "type": "Point", "coordinates": [ -79.548982784583984, 43.72151928467207 ] } },
{ "type": "Feature", "properties": { "AREA_S_CD": "129", "AREA_NAME": "Agincourt North (129)", "ORIG_FID": 79 }, "geometry": { "type": "Point", "coordinates": [ -79.266712441397488, 43.805440588706119 ] } },
{ "type": "Feature", "properties": { "AREA_S_CD": "128", "AREA_NAME": "Agincourt South-Malvern West (128)", "ORIG_FID": 80 }, "geometry": { "type": "Point", "coordinates": [ -79.27760353900004, 43.787388875286581 ] } },
{ "type": "Feature", "properties": { "AREA_S_CD": "032", "AREA_NAME": "Englemount-Lawrence (32)", "ORIG_FID": 81 }, "geometry": { "type": "Point", "coordinates": [ -79.437408912234105, 43.720345451747619 ] } },
{ "type": "Feature", "properties": { "AREA_S_CD": "011", "AREA_NAME": "Eringate-Centennial-West Deane (11)", "ORIG_FID": 82 }, "geometry": { "type": "Point", "coordinates": [ -79.580443417335118, 43.658017404872396 ] } },
{ "type": "Feature", "properties": { "AREA_S_CD": "117", "AREA_NAME": "L'Amoreaux (117)", "ORIG_FID": 83 }, "geometry": { "type": "Point", "coordinates": [ -79.314083522934823, 43.795716357237268 ] } },
{ "type": "Feature", "properties": { "AREA_S_CD": "042", "AREA_NAME": "Banbury-Don Mills (42)", "ORIG_FID": 84 }, "geometry": { "type": "Point", "coordinates": [ -79.349720182704914, 43.737657679325423 ] } },
{ "type": "Feature", "properties": { "AREA_S_CD": "034", "AREA_NAME": "Bathurst Manor (34)", "ORIG_FID": 85 }, "geometry": { "type": "Point", "coordinates": [ -79.456056609254176, 43.764814293745076 ] } },
{ "type": "Feature", "properties": { "AREA_S_CD": "020", "AREA_NAME": "Alderwood (20)", "ORIG_FID": 86 }, "geometry": { "type": "Point", "coordinates": [ -79.54161057589522, 43.604937149553166 ] } },
{ "type": "Feature", "properties": { "AREA_S_CD": "072", "AREA_NAME": "Regent Park (72)", "ORIG_FID": 87 }, "geometry": { "type": "Point", "coordinates": [ -79.360508775193352, 43.65999216342118 ] } },
{ "type": "Feature", "properties": { "AREA_S_CD": "127", "AREA_NAME": "Bendale (127)", "ORIG_FID": 88 }, "geometry": { "type": "Point", "coordinates": [ -79.257401544714185, 43.760367885664039 ] } },
{ "type": "Feature", "properties": { "AREA_S_CD": "122", "AREA_NAME": "Birchcliffe-Cliffside (122)", "ORIG_FID": 89 }, "geometry": { "type": "Point", "coordinates": [ -79.265089259691194, 43.694683349967022 ] } },
{ "type": "Feature", "properties": { "AREA_S_CD": "091", "AREA_NAME": "Weston-Pellam Park (91)", "ORIG_FID": 90 }, "geometry": { "type": "Point", "coordinates": [ -79.460244321003245, 43.673962180529657 ] } },
{ "type": "Feature", "properties": { "AREA_S_CD": "026", "AREA_NAME": "Downsview-Roding-CFB (26)", "ORIG_FID": 91 }, "geometry": { "type": "Point", "coordinates": [ -79.472609731749969, 43.740053688566036 ] } },
{ "type": "Feature", "properties": { "AREA_S_CD": "114", "AREA_NAME": "Lambton Baby Point (114)", "ORIG_FID": 92 }, "geometry": { "type": "Point", "coordinates": [ -79.496045895813154, 43.65742032425652 ] } },
{ "type": "Feature", "properties": { "AREA_S_CD": "076", "AREA_NAME": "Bay Street Corridor (76)", "ORIG_FID": 93 }, "geometry": { "type": "Point", "coordinates": [ -79.38572187579814, 43.657512068632343 ] } },
{ "type": "Feature", "properties": { "AREA_S_CD": "024", "AREA_NAME": "Black Creek (24)", "ORIG_FID": 94 }, "geometry": { "type": "Point", "coordinates": [ -79.521979505845934, 43.764890429593777 ] } },
{ "type": "Feature", "properties": { "AREA_S_CD": "051", "AREA_NAME": "Willowdale East (51)", "ORIG_FID": 95 }, "geometry": { "type": "Point", "coordinates": [ -79.401483676111468, 43.770602893351452 ] } },
{ "type": "Feature", "properties": { "AREA_S_CD": "037", "AREA_NAME": "Willowdale West (37)", "ORIG_FID": 96 }, "geometry": { "type": "Point", "coordinates": [ -79.427557461773745, 43.771210404438079 ] } },
{ "type": "Feature", "properties": { "AREA_S_CD": "131", "AREA_NAME": "Rouge (131)", "ORIG_FID": 97 }, "geometry": { "type": "Point", "coordinates": [ -79.183216169499985, 43.825468911425162 ] } },
{ "type": "Feature", "properties": { "AREA_S_CD": "002", "AREA_NAME": "Mount Olive-Silverstone-Jamestown (2)", "ORIG_FID": 98 }, "geometry": { "type": "Point", "coordinates": [ -79.587259803128859, 43.746868841655044 ] } },
{ "type": "Feature", "properties": { "AREA_S_CD": "071", "AREA_NAME": "Cabbagetown-South St.James Town (71)", "ORIG_FID": 99 }, "geometry": { "type": "Point", "coordinates": [ -79.366106560640333, 43.667647776545664 ] } },
{ "type": "Feature", "properties": { "AREA_S_CD": "099", "AREA_NAME": "Mount Pleasant East (99)", "ORIG_FID": 100 }, "geometry": { "type": "Point", "coordinates": [ -79.384924476255947, 43.704852834291842 ] } },
{ "type": "Feature", "properties": { "AREA_S_CD": "104", "AREA_NAME": "Mount Pleasant West (104)", "ORIG_FID": 101 }, "geometry": { "type": "Point", "coordinates": [ -79.393359723510684, 43.704435489363107 ] } },
{ "type": "Feature", "properties": { "AREA_S_CD": "069", "AREA_NAME": "Blake-Jones (69)", "ORIG_FID": 102 }, "geometry": { "type": "Point", "coordinates": [ -79.337394109776312, 43.676172929831125 ] } },
{ "type": "Feature", "properties": { "AREA_S_CD": "004", "AREA_NAME": "Rexdale-Kipling (4)", "ORIG_FID": 103 }, "geometry": { "type": "Point", "coordinates": [ -79.566229053568179, 43.723726014172541 ] } },
{ "type": "Feature", "properties": { "AREA_S_CD": "062", "AREA_NAME": "East End-Danforth (62)", "ORIG_FID": 104 }, "geometry": { "type": "Point", "coordinates": [ -79.299358505576492, 43.684173874976921 ] } },
{ "type": "Feature", "properties": { "AREA_S_CD": "018", "AREA_NAME": "New Toronto (18)", "ORIG_FID": 105 }, "geometry": { "type": "Point", "coordinates": [ -79.51035773156417, 43.600588852448197 ] } },
{ "type": "Feature", "properties": { "AREA_S_CD": "080", "AREA_NAME": "Palmerston-Little Italy (80)", "ORIG_FID": 106 }, "geometry": { "type": "Point", "coordinates": [ -79.418408642350187, 43.659157076820406 ] } },
{ "type": "Feature", "properties": { "AREA_S_CD": "045", "AREA_NAME": "Parkwoods-Donalda (45)", "ORIG_FID": 107 }, "geometry": { "type": "Point", "coordinates": [ -79.330180490940393, 43.755034015868148 ] } },
{ "type": "Feature", "properties": { "AREA_S_CD": "023", "AREA_NAME": "Pelmo Park-Humberlea (23)", "ORIG_FID": 108 }, "geometry": { "type": "Point", "coordinates": [ -79.535088318500016, 43.721353602032934 ] } },
{ "type": "Feature", "properties": { "AREA_S_CD": "067", "AREA_NAME": "Playter Estates-Danforth (67)", "ORIG_FID": 109 }, "geometry": { "type": "Point", "coordinates": [ -79.354887131644432, 43.679700414048853 ] } },
{ "type": "Feature", "properties": { "AREA_S_CD": "007", "AREA_NAME": "Willowridge-Martingrove-Richview (7)", "ORIG_FID": 110 }, "geometry": { "type": "Point", "coordinates": [ -79.564859128499961, 43.683594465246927 ] } },
{ "type": "Feature", "properties": { "AREA_S_CD": "137", "AREA_NAME": "Woburn (137)", "ORIG_FID": 111 }, "geometry": { "type": "Point", "coordinates": [ -79.228587121111445, 43.766741421179233 ] } },
{ "type": "Feature", "properties": { "AREA_S_CD": "060", "AREA_NAME": "Woodbine-Lumsden (60)", "ORIG_FID": 112 }, "geometry": { "type": "Point", "coordinates": [ -79.311163664303479, 43.694106875925058 ] } },
{ "type": "Feature", "properties": { "AREA_S_CD": "052", "AREA_NAME": "Bayview Village (52)", "ORIG_FID": 113 }, "geometry": { "type": "Point", "coordinates": [ -79.37711696762085, 43.776360993663388 ] } },
{ "type": "Feature", "properties": { "AREA_S_CD": "039", "AREA_NAME": "Bedford Park-Nortown (39)", "ORIG_FID": 114 }, "geometry": { "type": "Point", "coordinates": [ -79.420226123557313, 43.731487800256389 ] } },
{ "type": "Feature", "properties": { "AREA_S_CD": "111", "AREA_NAME": "Rockcliffe-Smythe (111)", "ORIG_FID": 115 }, "geometry": { "type": "Point", "coordinates": [ -79.49441994361257, 43.674790431673955 ] } },
{ "type": "Feature", "properties": { "AREA_S_CD": "041", "AREA_NAME": "Bridle Path-Sunnybrook-York Mills (41)", "ORIG_FID": 116 }, "geometry": { "type": "Point", "coordinates": [ -79.378905705580337, 43.731013681579896 ] } },
{ "type": "Feature", "properties": { "AREA_S_CD": "047", "AREA_NAME": "Don Valley Village (47)", "ORIG_FID": 117 }, "geometry": { "type": "Point", "coordinates": [ -79.353643979291803, 43.783293960539368 ] } },
{ "type": "Feature", "properties": { "AREA_S_CD": "113", "AREA_NAME": "Weston (113)", "ORIG_FID": 118 }, "geometry": { "type": "Point", "coordinates": [ -79.515722942382524, 43.702715990659442 ] } },
{ "type": "Feature", "properties": { "AREA_S_CD": "103", "AREA_NAME": "Lawrence Park South (103)", "ORIG_FID": 119 }, "geometry": { "type": "Point", "coordinates": [ -79.406038382094209, 43.71721188208096 ] } },
{ "type": "Feature", "properties": { "AREA_S_CD": "030", "AREA_NAME": "Brookhaven-Amesbury (30)", "ORIG_FID": 120 }, "geometry": { "type": "Point", "coordinates": [ -79.485588622851594, 43.701326080524552 ] } },
{ "type": "Feature", "properties": { "AREA_S_CD": "019", "AREA_NAME": "Long Branch (19)", "ORIG_FID": 121 }, "geometry": { "type": "Point", "coordinates": [ -79.533344901071189, 43.592361672841548 ] } },
{ "type": "Feature", "properties": { "AREA_S_CD": "132", "AREA_NAME": "Malvern (132)", "ORIG_FID": 122 }, "geometry": { "type": "Point", "coordinates": [ -79.222516356982396, 43.803658544353937 ] } },
{ "type": "Feature", "properties": { "AREA_S_CD": "083", "AREA_NAME": "Dufferin Grove (83)", "ORIG_FID": 123 }, "geometry": { "type": "Point", "coordinates": [ -79.437340937004763, 43.655428295633214 ] } },
{ "type": "Feature", "properties": { "AREA_S_CD": "029", "AREA_NAME": "Maple Leaf (29)", "ORIG_FID": 124 }, "geometry": { "type": "Point", "coordinates": [ -79.480757910104785, 43.715574089438633 ] } },
{ "type": "Feature", "properties": { "AREA_S_CD": "012", "AREA_NAME": "Markland Wood (12)", "ORIG_FID": 125 }, "geometry": { "type": "Point", "coordinates": [ -79.573431830251991, 43.633541792649225 ] } },
{ "type": "Feature", "properties": { "AREA_S_CD": "116", "AREA_NAME": "Steeles (116)", "ORIG_FID": 126 }, "geometry": { "type": "Point", "coordinates": [ -79.321206478064994, 43.81295870569727 ] } },
{ "type": "Feature", "properties": { "AREA_S_CD": "105", "AREA_NAME": "Lawrence Park North (105)", "ORIG_FID": 127 }, "geometry": { "type": "Point", "coordinates": [ -79.403978179940168, 43.730060102855191 ] } },
{ "type": "Feature", "properties": { "AREA_S_CD": "100", "AREA_NAME": "Yonge-Eglinton (100)", "ORIG_FID": 128 }, "geometry": { "type": "Point", "coordinates": [ -79.403590312486017, 43.704689642832648 ] } },
{ "type": "Feature", "properties": { "AREA_S_CD": "017", "AREA_NAME": "Mimico (includes Humber Bay Shores) (17)", "ORIG_FID": 129 }, "geometry": { "type": "Point", "coordinates": [ -79.514964152499999, 43.613630096093289 ] } },
{ "type": "Feature", "properties": { "AREA_S_CD": "135", "AREA_NAME": "Morningside (135)", "ORIG_FID": 130 }, "geometry": { "type": "Point", "coordinates": [ -79.207041172351467, 43.782399268827817 ] } },
{ "type": "Feature", "properties": { "AREA_S_CD": "073", "AREA_NAME": "Moss Park (73)", "ORIG_FID": 131 }, "geometry": { "type": "Point", "coordinates": [ -79.370473153249975, 43.656752758531525 ] } },
{ "type": "Feature", "properties": { "AREA_S_CD": "084", "AREA_NAME": "Little Portugal (84)", "ORIG_FID": 132 }, "geometry": { "type": "Point", "coordinates": [ -79.430322908800235, 43.647535977044868 ] } },
{ "type": "Feature", "properties": { "AREA_S_CD": "064", "AREA_NAME": "Woodbine Corridor (64)", "ORIG_FID": 133 }, "geometry": { "type": "Point", "coordinates": [ -79.315407514228866, 43.676773240095827 ] } },
{ "type": "Feature", "properties": { "AREA_S_CD": "050", "AREA_NAME": "Newtonbrook East (50)", "ORIG_FID": 134 }, "geometry": { "type": "Point", "coordinates": [ -79.405937320269288, 43.791536070406494 ] } },
{ "type": "Feature", "properties": { "AREA_S_CD": "130", "AREA_NAME": "Milliken (130)", "ORIG_FID": 135 }, "geometry": { "type": "Point", "coordinates": [ -79.275071512500006, 43.823632595306947 ] } },
{ "type": "Feature", "properties": { "AREA_S_CD": "046", "AREA_NAME": "Pleasant View (46)", "ORIG_FID": 136 }, "geometry": { "type": "Point", "coordinates": [ -79.334949035649004, 43.786982541647035 ] } },
{ "type": "Feature", "properties": { "AREA_S_CD": "094", "AREA_NAME": "Wychwood (94)", "ORIG_FID": 137 }, "geometry": { "type": "Point", "coordinates": [ -79.425514863479123, 43.676919291268518 ] } },
{ "type": "Feature", "properties": { "AREA_S_CD": "056", "AREA_NAME": "Leaside-Bennington (56)", "ORIG_FID": 138 }, "geometry": { "type": "Point", "coordinates": [ -79.366072318416514, 43.703798123073568 ] } },
{ "type": "Feature", "properties": { "AREA_S_CD": "108", "AREA_NAME": "Briar Hill-Belgravia (108)", "ORIG_FID": 139 }, "geometry": { "type": "Point", "coordinates": [ -79.452850879550169, 43.699024245169937 ] } }
]
}
